[
  {
    "place_id": "ChIJQ0QoMt9s9ogRuucHLzkC2u0",
    "name": "The Globe",
    "street_address": "199 North Lumpkin Street",
    "city": "Athens",
    "state": "GA",
    "zip_code": "30601",
    "latitude": 33.9580303,
    "longitude": -83.37712710000001,
    "website": "https://www.globetavern.com/",
    "category": "Bar & Restaurant",
    "types": "bar, restaurant, food, point_of_interest, establishment"
  },
  {
    "place_id": "ChIJgSYbzAVt9ogRwz-OqSqkddc",
    "name": "The Royal Peasant",
    "street_address": "1675 South Lumpkin Street",
    "city": "Athens",
    "state": "GA",
    "zip_code": "30606",
    "latitude": 33.9380065,
    "longitude": -83.38703679999999,
    "website": "http://royalpeasant.com/",
    "category": "Bar & Restaurant",
    "types": "bar, restaurant, food, point_of_interest, establishment"
  },
  {
    "place_id": "ChIJn_Ha11dt9ogRQp0vVk6IIUI",
    "name": "Dooley's Bar & Grill",
    "street_address": "259 East Broad Street",
    "city": "Athens",
    "state": "GA",
    "zip_code": "30601",
    "latitude": 33.95796139999999,
    "longitude": -83.3747994,
    "website": null,
    "category": "Bar & Restaurant",
    "types": "bar, restaurant, food, point_of_interest, establishment"
  },
  {
    "place_id": "ChIJYWAKVidt9ogRaa_bTLH9c3A",
    "name": "The World Famous",
    "street_address": "351 North Hull Street",
    "city": "Athens",
    "state": "GA",
    "zip_code": "30601",
    "latitude": 33.95903390000001,
    "longitude": -83.3790664,
    "website": "https://m.facebook.com/theworldfamousathens/",
    "category": "Bar & Restaurant",
    "types": "bar, restaurant, food, point_of_interest, establishment"
  },
  {
    "place_id": "ChIJexJoV99s9ogRopMYqOOQYuQ",
    "name": "Trappeze Pub",
    "street_address": "269 North Hull Street",
    "city": "Athens",
    "state": "GA",
    "zip_code": "30601",
    "latitude": 33.9584786,
    "longitude": -83.3788904,
    "website": "https://www.trappezepub.com/",
    "category": "Bar & Restaurant",
    "types": "bar, restaurant, food, point_of_interest, establishment"
  },
  {
    "place_id": "ChIJH04Ibt1s9ogRrkURSW8h3Us",
    "name": "Blind Pig Tavern",
    "street_address": "312 East Washington Street",
    "city": "Athens",
    "state": "GA",
    "zip_code": "30601",
    "latitude": 33.9595452,
    "longitude": -83.3744238,
    "website": "http://www.blindpigtavern.com/",
    "category": "Bar & Restaurant",
    "types": "bar, restaurant, food, point_of_interest, establishment"
  },
  {
    "place_id": "ChIJs_hzTl5t9ogRtVrQvh6nNHM",
    "name": "The Local 706",
    "street_address": "1676 South Lumpkin Street",
    "city": "Athens",
    "state": "GA",
    "zip_code": "30606",
    "latitude": 33.9380501,
    "longitude": -83.3874878,
    "website": "https://www.local706athens.com/",
    "category": "Bar & Restaurant",
    "types": "bar, restaurant, food, point_of_interest, establishment"
  },
  {
    "place_id": "ChIJexJoV99s9ogR-j79znlfJGM",
    "name": "FIVE Athens",
    "street_address": "269 North Hull Street",
    "city": "Athens",
    "state": "GA",
    "zip_code": "30601",
    "latitude": 33.958017,
    "longitude": -83.3787153,
    "website": "https://www.five-bar.com/location/athens-georgia/",
    "category": "Bar & Restaurant",
    "types": "bar, restaurant, food, point_of_interest, establishment"
  },
  {
    "place_id": "ChIJgTMEXmJt9ogRqSf5ayc8uo0",
    "name": "Blind Pig Tavern",
    "street_address": "2440 West Broad Street",
    "city": "Athens",
    "state": "GA",
    "zip_code": "30606",
    "latitude": 33.9482556,
    "longitude": -83.4185,
    "website": "http://www.blindpigtavern.com/",
    "category": "Restaurant",
    "types": "restaurant, food, point_of_interest, establishment"
  },
  {
    "place_id": "ChIJwxgkPtls9ogRMcwxz_AjZp8",
    "name": "South Kitchen + Bar",
    "street_address": "247 East Washington Street",
    "city": "Athens",
    "state": "GA",
    "zip_code": "30601",
    "latitude": 33.9597505,
    "longitude": -83.375275,
    "website": "https://www.southkitchenbar.com/",
    "category": "Restaurant",
    "types": "restaurant, food, point_of_interest, establishment"
  },
  {
    "place_id": "ChIJXTatj0Jt9ogRD5JtwcCWfaM",
    "name": "Bar Bruno",
    "street_address": "1664 South Lumpkin Street",
    "city": "Athens",
    "state": "GA",
    "zip_code": "30606",
    "latitude": 33.9381304,
    "longitude": -83.3873698,
    "website": "http://www.barbrunoathens.com/",
    "category": "Bar & Restaurant",
    "types": "bar, restaurant, food, point_of_interest, establishment"
  },
  {
    "place_id": "ChIJvWwiWwRt9ogRQRx_EofcUi8",
    "name": "The Pine Bar",
    "street_address": "1235 South Milledge Avenue",
    "city": "Athens",
    "state": "GA",
    "zip_code": "30606",
    "latitude": 33.9389817,
    "longitude": -83.3860906,
    "website": "https://www.thepineathens.com/",
    "category": "Bar & Restaurant",
    "types": "bar, restaurant, food, point_of_interest, establishment"
  },
  {
    "place_id": "ChIJpwTHikVt9ogRTU0MdwLkAK4",
    "name": "The Madison Bar and Bistro",
    "street_address": "500 College Avenue",
    "city": "Athens",
    "state": "GA",
    "zip_code": "30601",
    "latitude": 33.9620231,
    "longitude": -83.3762052,
    "website": "https://www.ihg.com/hotelindigo/hotels/us/en/athens/ahnin/hoteldetail?cm_mmc=GoogleMaps-_-IN-_-US-_-AHNIN-_-DINE",
    "category": "Restaurant",
    "types": "restaurant, food, point_of_interest, establishment"
  },
  {
    "place_id": "ChIJx3yjt35s9ogRClETwQm95h8",
    "name": "Locos Grill & Pub Athens Eastside",
    "street_address": "1985 South Barnett Shoals Road",
    "city": "Athens",
    "state": "GA",
    "zip_code": "30605",
    "latitude": 33.9228341,
    "longitude": -83.3399048,
    "website": "http://www.locosgrill.com/",
    "category": "Bar & Restaurant",
    "types": "bar, restaurant, point_of_interest, food, establishment"
  },
  {
    "place_id": "ChIJsanVS9ls9ogRxze9_JPM1qo",
    "name": "Moonshine Bar & Grill",
    "street_address": "275 East Clayton Street",
    "city": "Athens",
    "state": "GA",
    "zip_code": "30601",
    "latitude": 33.95885219999999,
    "longitude": -83.3748857,
    "website": null,
    "category": "Bar & Restaurant",
    "types": "bar, restaurant, food, point_of_interest, establishment"
  },
  {
    "place_id": "ChIJYcBhAfdy9ogRGF8nedooUnQ",
    "name": "Locos Grill and Pub",
    "street_address": "2020 Timothy Road",
    "city": "Athens",
    "state": "GA",
    "zip_code": "30606",
    "latitude": 33.937874,
    "longitude": -83.45107689999999,
    "website": "http://www.locosgrill.com/",
    "category": "Bar & Restaurant",
    "types": "restaurant, bar, food, point_of_interest, establishment"
  },
  {
    "place_id": "ChIJdXnNEmhy9ogRsIDMS6pig0o",
    "name": "The Catch 22 Gastropub",
    "street_address": "1021 Parkway Boulevard",
    "city": "Athens",
    "state": "GA",
    "zip_code": "30606",
    "latitude": 33.9223154,
    "longitude": -83.4414263,
    "website": "http://www.catch22gp.com/",
    "category": "Bar & Restaurant",
    "types": "bar, restaurant, food, point_of_interest, establishment"
  },
  {
    "place_id": "ChIJscaNf2Zt9ogRypeiBLSFHvs",
    "name": "Hilltop Grille",
    "street_address": "2310 West Broad Street",
    "city": "Athens",
    "state": "GA",
    "zip_code": "30606",
    "latitude": 33.9493476,
    "longitude": -83.4136671,
    "website": "http://www.hilltopgrille.com/",
    "category": "Restaurant",
    "types": "restaurant, food, point_of_interest, establishment"
  },
  {
    "place_id": "ChIJc95K1kBy9ogR9Pm0mRRcfhA",
    "name": "Cheddar's Scratch Kitchen",
    "street_address": "2040 Oconee Connector",
    "city": "Athens",
    "state": "GA",
    "zip_code": "30606",
    "latitude": 33.91469110000001,
    "longitude": -83.4491066,
    "website": "https://www.cheddars.com/locations/ga/athens/athens/2180?cmpid=br:csk_ag:ie_ch:loc_ca:CSKGMB_sn:gmb_gt:athens-ga-2180_pl:locurl_rd:1151",
    "category": "Restaurant",
    "types": "meal_takeaway, restaurant, food, point_of_interest, establishment"
  },
  {
    "place_id": "ChIJVyNgsiBt9ogRZ2ioo3fGq0o",
    "name": "Clocked",
    "street_address": "259 West Washington Street",
    "city": "Athens",
    "state": "GA",
    "zip_code": "30601",
    "latitude": 33.9583056,
    "longitude": -83.3796306,
    "website": "http://www.clockeddiner.com/",
    "category": "Restaurant",
    "types": "restaurant, food, point_of_interest, establishment"
  },
  {
    "place_id": "ChIJh1K_p29t9ogRCPkYKnR04Sk",
    "name": "Chili's Grill & Bar",
    "street_address": "183 Alps Road",
    "city": "Athens",
    "state": "GA",
    "zip_code": "30606",
    "latitude": 33.947053,
    "longitude": -83.408828,
    "website": "https://www.chilis.com/locations/us/georgia/athens/athens?utm_source=google&utm_medium=local&utm_campaign=Chilis",
    "category": "Bar & Restaurant",
    "types": "restaurant, bar, food, point_of_interest, establishment"
  },
  {
    "place_id": "ChIJowmUImlt9ogR97g8qWb3bhU",
    "name": "LongHorn Steakhouse",
    "street_address": "2170 West Broad Street",
    "city": "Athens",
    "state": "GA",
    "zip_code": "30606",
    "latitude": 33.9505676,
    "longitude": -83.4079521,
    "website": "https://www.longhornsteakhouse.com/locations/ga/athens/athens-ga/5413?cmpid=br:lh_ag:ie_ch:loc_ca:LHGMB_sn:gmb_gt:athens-ga-5413_pl:locurl_rd:1354",
    "category": "Bar & Restaurant",
    "types": "bar, meal_takeaway, restaurant, food, point_of_interest, establishment"
  },
  {
    "place_id": "ChIJL89orSBt9ogReqnLYwRs6Ks",
    "name": "Ted's Most Best",
    "street_address": "254 West Washington Street",
    "city": "Athens",
    "state": "GA",
    "zip_code": "30601",
    "latitude": 33.9588171,
    "longitude": -83.3798164,
    "website": "https://tedsmostbest.com/",
    "category": "Restaurant",
    "types": "restaurant, food, point_of_interest, establishment"
  },
  {
    "place_id": "ChIJvQuSANxs9ogRhQQRXSJNW3A",
    "name": "Porterhouse Grill",
    "street_address": "459 East Broad Street",
    "city": "Athens",
    "state": "GA",
    "zip_code": "30601",
    "latitude": 33.9582834,
    "longitude": -83.37336959999999,
    "website": "https://www.porterhousegrillathens.com/",
    "category": "Restaurant",
    "types": "restaurant, food, point_of_interest, establishment"
  },
  {
    "place_id": "ChIJu3XFyd5s9ogR9Dc4wyj6E-Q",
    "name": "The Place",
    "street_address": "229 East Broad Street",
    "city": "Athens",
    "state": "GA",
    "zip_code": "30608",
    "latitude": 33.9579511,
    "longitude": -83.37498400000001,
    "website": "http://theplaceathens.com/",
    "category": "Restaurant",
    "types": "restaurant, food, point_of_interest, establishment"
  },
  {
    "place_id": "ChIJFW_BGHxs9ogRmn8I59fTKnc",
    "name": "Beef 'O' Brady's",
    "street_address": "1860 Barnett Shoals Road",
    "city": "Athens",
    "state": "GA",
    "zip_code": "30605",
    "latitude": 33.9240777,
    "longitude": -83.3419615,
    "website": "https://www.beefobradys.com/athens",
    "category": "Bar & Restaurant",
    "types": "meal_takeaway, bar, restaurant, point_of_interest, food, establishment"
  },
  {
    "place_id": "ChIJqY_PGP5y9ogRJgHr2gKB5pI",
    "name": "Rafferty's Restaurant & Bar",
    "street_address": "15 Huntington Road",
    "city": "Athens",
    "state": "GA",
    "zip_code": "30606",
    "latitude": 33.9397524,
    "longitude": -83.46400109999999,
    "website": "http://www.raffertys.com/",
    "category": "Bar & Restaurant",
    "types": "bar, restaurant, food, point_of_interest, establishment"
  },
  {
    "place_id": "ChIJ-5rfT_Fy9ogRX9z9zFZ2WFA",
    "name": "Brett's Casual American",
    "street_address": "3190 Atlanta Highway",
    "city": "Athens",
    "state": "GA",
    "zip_code": "30606",
    "latitude": 33.9417944,
    "longitude": -83.45056290000001,
    "website": "http://brettscasualamerican.com/",
    "category": "Restaurant",
    "types": "restaurant, food, point_of_interest, establishment"
  },
  {
    "place_id": "ChIJS0Vbp_0E9ogRanxoG5VPWoA",
    "name": "Commerce Sports Bar and Grill",
    "street_address": "1650 South Broad Street",
    "city": "Commerce",
    "state": "GA",
    "zip_code": "30529",
    "latitude": 34.2028504,
    "longitude": -83.4562569,
    "website": "https://www.commercesportsbarandgrille.com/",
    "category": "Bar & Restaurant",
    "types": "bar, restaurant, food, point_of_interest, establishment"
  },
  {
    "place_id": "ChIJ71_67vUF9ogRWOqXZ5WliUQ",
    "name": "FRIENDS COMMERCE GRILL",
    "street_address": "1671 South Elm Street",
    "city": "Commerce",
    "state": "GA",
    "zip_code": "30529",
    "latitude": 34.2025812,
    "longitude": -83.4570816,
    "website": "https://www.friendscommercegrill.com/",
    "category": "Restaurant",
    "types": "restaurant, food, point_of_interest, establishment"
  },
  {
    "place_id": "ChIJS0Vbp_0E9ogR1gt0nVQTMoM",
    "name": "El Parian Mexican Bar & Grill",
    "street_address": "1662 South Broad Street",
    "city": "Commerce",
    "state": "GA",
    "zip_code": "30529",
    "latitude": 34.2029103,
    "longitude": -83.4564339,
    "website": null,
    "category": "Bar & Restaurant",
    "types": "bar, restaurant, food, point_of_interest, establishment"
  },
  {
    "place_id": "ChIJSQV0zv0E9ogRSGkkwGuwems",
    "name": "Sliced on Elm",
    "street_address": "1769 North Elm Street",
    "city": "Commerce",
    "state": "GA",
    "zip_code": "30529",
    "latitude": 34.203641,
    "longitude": -83.45825099999999,
    "website": "http://www.sliced-pizza.com/",
    "category": "Restaurant",
    "types": "restaurant, food, point_of_interest, establishment"
  },
  {
    "place_id": "ChIJQ88RrvcE9ogRc4HOmqT9ce8",
    "name": "Huck's Cafe",
    "street_address": "605 Homer Road",
    "city": "Commerce",
    "state": "GA",
    "zip_code": "30529",
    "latitude": 34.2142847,
    "longitude": -83.46140109999999,
    "website": null,
    "category": "Restaurant",
    "types": "store, restaurant, food, point_of_interest, establishment"
  },
  {
    "place_id": "ChIJK0s09bmH9ogR6YCBTqrOkf8",
    "name": "Hart And Crown Tavern",
    "street_address": "142 East Washington Street",
    "city": "Madison",
    "state": "GA",
    "zip_code": "30650",
    "latitude": 33.5950533,
    "longitude": -83.4675286,
    "website": "https://mad-hospitality.com/hart-and-crown-tavern",
    "category": "Restaurant",
    "types": "restaurant, food, point_of_interest, establishment"
  },
  {
    "place_id": "ChIJj6MDQQmH9ogRqrC9zKtng00",
    "name": "Amici Madison",
    "street_address": "174 West Washington Street",
    "city": "Madison",
    "state": "GA",
    "zip_code": "30650",
    "latitude": 33.5961543,
    "longitude": -83.4693612,
    "website": "http://amici-cafe.com/",
    "category": "Restaurant",
    "types": "restaurant, food, point_of_interest, establishment"
  },
  {
    "place_id": "ChIJaej8Rk-H9ogRwaWtQydKjlM",
    "name": "The Sinclair",
    "street_address": "298 Hancock Street",
    "city": "Madison",
    "state": "GA",
    "zip_code": "30650",
    "latitude": 33.5953926,
    "longitude": -83.4667061,
    "website": "http://www.mad-hospitality.com/",
    "category": "Bar & Restaurant",
    "types": "cafe, bar, store, restaurant, food, point_of_interest, establishment"
  },
  {
    "place_id": "ChIJb3CClZaH9ogRSCrfaLD-qTo",
    "name": "Wing Nights @Benny Pauls",
    "street_address": "139 East Jefferson Street",
    "city": "Madison",
    "state": "GA",
    "zip_code": "30650",
    "latitude": 33.5958869,
    "longitude": -83.46675599999999,
    "website": "https://m.facebook.com/wingnightsatbennypauls/",
    "category": "Restaurant",
    "types": "restaurant, food, point_of_interest, establishment"
  },
  {
    "place_id": "ChIJj6MDQQmH9ogRTrBW-q6-XIQ",
    "name": "Madison Chophouse Grille",
    "street_address": "202 South Main Street",
    "city": "Madison",
    "state": "GA",
    "zip_code": "30650",
    "latitude": 33.5947091,
    "longitude": -83.4685692,
    "website": "https://madisonchophousegrille.com/",
    "category": "Restaurant",
    "types": "restaurant, food, point_of_interest, establishment"
  },
  {
    "place_id": "ChIJpQ0HBA2H9ogRtfYtlOG1bBg",
    "name": "Town 220 Restaurant",
    "street_address": "220 West Washington Street",
    "city": "Madison",
    "state": "GA",
    "zip_code": "30650",
    "latitude": 33.5967267,
    "longitude": -83.4705888,
    "website": "http://www.town220.com/",
    "category": "Restaurant",
    "types": "restaurant, food, point_of_interest, establishment"
  },
  {
    "place_id": "ChIJwQHeAAyJ9ogRqemf-2eU9Cg",
    "name": "Benny Paul's Soul Food",
    "street_address": "171 West Washington Street",
    "city": "Madison",
    "state": "GA",
    "zip_code": "30650",
    "latitude": 33.5965307,
    "longitude": -83.4689188,
    "website": "https://bennypaul.top/",
    "category": "Restaurant",
    "types": "restaurant, food, point_of_interest, establishment"
  },
  {
    "place_id": "ChIJs4kBelCH9ogRI9ueH57XwJU",
    "name": "Betty Gene's",
    "street_address": "290 Hancock Street",
    "city": "Madison",
    "state": "GA",
    "zip_code": "30650",
    "latitude": 33.5952617,
    "longitude": -83.4668178,
    "website": "https://mad-hospitality.com/betty-genes",
    "category": "Restaurant",
    "types": "restaurant, food, point_of_interest, establishment"
  },
  {
    "place_id": "ChIJnQ0nO0uH9ogRjnW6vmfeQgU",
    "name": "The Dining Room",
    "street_address": "146 East Washington Street",
    "city": "Madison",
    "state": "GA",
    "zip_code": "30650",
    "latitude": 33.5949114,
    "longitude": -83.46768469999999,
    "website": "https://mad-hospitality.com/the-dining-room",
    "category": "Restaurant",
    "types": "restaurant, food, point_of_interest, establishment"
  },
  {
    "place_id": "ChIJe4Cp_uSG9ogRrqxUd5nJsF0",
    "name": "Crowe's Open Air Bar-B-Que & Catering",
    "street_address": "1320 Eatonton Road",
    "city": "Madison",
    "state": "GA",
    "zip_code": "30650",
    "latitude": 33.57732370000001,
    "longitude": -83.4767902,
    "website": "http://www.crowesbbq.com/",
    "category": "Restaurant",
    "types": "restaurant, food, point_of_interest, establishment"
  },
  {
    "place_id": "ChIJq2Xq-UmH9ogR5-V-JOrzIlU",
    "name": "R+B CAFE",
    "street_address": "461 Burney Street",
    "city": "Madison",
    "state": "GA",
    "zip_code": "30650",
    "latitude": 33.6008627,
    "longitude": -83.4666436,
    "website": "http://www.eatrbcafe.com/",
    "category": "Restaurant",
    "types": "meal_delivery, restaurant, food, point_of_interest, establishment"
  }
]