[
  {
    "place_id": "ChIJRVrGmoAD9YgRp93QXijuJrQ",
    "name": "Park Bar",
    "street_address": "150 Walton Street Northwest",
    "city": "Atlanta",
    "state": "GA",
    "zip_code": "30303",
    "latitude": 33.75819729999999,
    "longitude": -84.39279909999999,
    "website": "http://parkbaratlanta.com/",
    "category": "Bar & Restaurant",
    "types": "bar, restaurant, food, point_of_interest, establishment"
  },
  {
    "place_id": "ChIJ6Z1EIGgE9YgRKJx726WbR2I",
    "name": "Hudson Grille Midtown",
    "street_address": "942 Peachtree Street Northeast",
    "city": "Atlanta",
    "state": "GA",
    "zip_code": "30309",
    "latitude": 33.7804666,
    "longitude": -84.3843203,
    "website": "http://hudsongrille.com/",
    "category": "Bar & Restaurant",
    "types": "bar, restaurant, food, point_of_interest, establishment"
  },
  {
    "place_id": "ChIJNwFLfVsE9YgRrkOBaigMzhI",
    "name": "McCray's Tavern Midtown",
    "street_address": "1163 West Peachtree Street Northeast",
    "city": "Atlanta",
    "state": "GA",
    "zip_code": "30309",
    "latitude": 33.7858064,
    "longitude": -84.3875649,
    "website": "https://www.mccraystavern.com/midtown",
    "category": "Bar & Restaurant",
    "types": "bar, restaurant, food, point_of_interest, establishment"
  },
  {
    "place_id": "ChIJzX73KakF9YgRDHwF8iHZmio",
    "name": "BUFFALO BAR",
    "street_address": "1269 Northside Drive Northwest",
    "city": "Atlanta",
    "state": "GA",
    "zip_code": "30318",
    "latitude": 33.7900624,
    "longitude": -84.4074266,
    "website": "http://buffalobaratl.com/",
    "category": "Restaurant",
    "types": "restaurant, point_of_interest, food, establishment"
  },
  {
    "place_id": "ChIJq6oa_lcE9YgRwTJkIdlAs_o",
    "name": "HOBNOB Neighborhood Tavern",
    "street_address": "245 18th Street Northwest",
    "city": "Atlanta",
    "state": "GA",
    "zip_code": "30363",
    "latitude": 33.79319030000001,
    "longitude": -84.3962124,
    "website": "https://www.hobnobatlanta.com/",
    "category": "Bar & Restaurant",
    "types": "bar, restaurant, food, point_of_interest, establishment"
  },
  {
    "place_id": "ChIJIY2TC_gE9YgRBPHhnYfB4Dk",
    "name": "Yard House",
    "street_address": "261 19th Street Northwest",
    "city": "Atlanta",
    "state": "GA",
    "zip_code": "30363",
    "latitude": 33.79362999999999,
    "longitude": -84.397397,
    "website": "https://www.yardhouse.com/locations/ga/atlanta/atlanta-atlantic-station/8337?cmpid=br:yh_ag:ie_ch:loc_ca:YHGMB_sn:gmb_gt:atlanta-ga-8337_pl:locurl_rd:1035",
    "category": "Bar & Restaurant",
    "types": "bar, meal_takeaway, restaurant, food, point_of_interest, establishment"
  },
  {
    "place_id": "ChIJy8XTe-0D9YgRaVdKqZrVbGA",
    "name": "Six Feet Under Pub & Fish House - Grant Park",
    "street_address": "437 Memorial Drive Southeast",
    "city": "Atlanta",
    "state": "GA",
    "zip_code": "30312",
    "latitude": 33.7463917,
    "longitude": -84.37285349999999,
    "website": "https://www.sixfeetunder.net/",
    "category": "Restaurant",
    "types": "restaurant, point_of_interest, food, establishment"
  },
  {
    "place_id": "ChIJtctXZQEE9YgR9Y8_tUlnMVw",
    "name": "The Albert",
    "street_address": "918 Austin Avenue Northeast",
    "city": "Atlanta",
    "state": "GA",
    "zip_code": "30307",
    "latitude": 33.7619737,
    "longitude": -84.3575151,
    "website": "http://www.thealbertatlanta.com/",
    "category": "Bar & Restaurant",
    "types": "bar, restaurant, food, point_of_interest, establishment"
  },
  {
    "place_id": "ChIJo3tNG10E9YgReN2SLG5sqNs",
    "name": "Eleventh Street Pub",
    "street_address": "1041 West Peachtree Street Northwest",
    "city": "Atlanta",
    "state": "GA",
    "zip_code": "30309",
    "latitude": 33.7831379,
    "longitude": -84.38769359999999,
    "website": "http://www.eleventhstreetpubatl.com/",
    "category": "Bar & Restaurant",
    "types": "bar, restaurant, food, point_of_interest, establishment"
  },
  {
    "place_id": "ChIJpwdZ0AcE9YgR4Y8mHDdrygo",
    "name": "Ladybird Grove & Mess Hall",
    "street_address": "684 John Wesley Dobbs Avenue Northeast",
    "city": "Atlanta",
    "state": "GA",
    "zip_code": "30312",
    "latitude": 33.7595612,
    "longitude": -84.36422999999999,
    "website": "http://www.ladybirdatl.com/",
    "category": "Bar & Restaurant",
    "types": "bar, restaurant, food, point_of_interest, establishment"
  },
  {
    "place_id": "ChIJefpUHqUF9YgR1w5QnOOWE1A",
    "name": "Pour Taproom: Midtown",
    "street_address": "1180 Peachtree Street Northeast",
    "city": "Atlanta",
    "state": "GA",
    "zip_code": "30309",
    "latitude": 33.7869774,
    "longitude": -84.3835256,
    "website": "http://pourtaproomatlanta.com/",
    "category": "Bar & Restaurant",
    "types": "bar, restaurant, point_of_interest, food, establishment"
  },
  {
    "place_id": "ChIJD-CxtaAG9YgRYjn24ubN2_Y",
    "name": "The Righteous Room",
    "street_address": "1051 Ponce De Leon Avenue Northeast",
    "city": "Atlanta",
    "state": "GA",
    "zip_code": "30306",
    "latitude": 33.7733357,
    "longitude": -84.3529566,
    "website": "http://stayrighteous.com/",
    "category": "Bar & Restaurant",
    "types": "bar, restaurant, food, point_of_interest, establishment"
  },
  {
    "place_id": "ChIJweczQWYE9YgRvtwgBTj9cUU",
    "name": "Cypress Street Pint & Plate",
    "street_address": "817 West Peachtree Street Northwest",
    "city": "Atlanta",
    "state": "GA",
    "zip_code": "30308",
    "latitude": 33.7773253,
    "longitude": -84.38614559999999,
    "website": "http://cypressatl.com/",
    "category": "Bar & Restaurant",
    "types": "bar, meal_delivery, cafe, meal_takeaway, restaurant, food, point_of_interest, establishment"
  },
  {
    "place_id": "ChIJZVjDb3gE9YgR2L1csXDrgeM",
    "name": "Meehan's Public House Downtown",
    "street_address": "200 Peachtree Street",
    "city": "Atlanta",
    "state": "GA",
    "zip_code": "30303",
    "latitude": 33.759204,
    "longitude": -84.38776860000002,
    "website": "https://downtown.meehanspublichouse.com/",
    "category": "Bar & Restaurant",
    "types": "bar, restaurant, food, point_of_interest, establishment"
  },
  {
    "place_id": "ChIJUc_4epQD9YgRxgLj2hzs_gY",
    "name": "42 Bar and Grill",
    "street_address": "327 Memorial Drive Southeast",
    "city": "Atlanta",
    "state": "GA",
    "zip_code": "30312",
    "latitude": 33.7465884,
    "longitude": -84.3767318,
    "website": "https://42barandgrillatl.com/",
    "category": "Restaurant",
    "types": "restaurant, food, point_of_interest, establishment"
  },
  {
    "place_id": "ChIJJ72T1agG9YgR7f1FJRUZsEc",
    "name": "The Brewhouse Cafe",
    "street_address": "401 Moreland Avenue Northeast",
    "city": "Atlanta",
    "state": "GA",
    "zip_code": "30307",
    "latitude": 33.7651879,
    "longitude": -84.3488655,
    "website": "http://www.brewhousecafe.com/",
    "category": "Bar & Restaurant",
    "types": "bar, restaurant, food, point_of_interest, establishment"
  },
  {
    "place_id": "ChIJnbi7oqcG9YgRCp6paNceye4",
    "name": "Manuel's Tavern",
    "street_address": "602 North Highland Avenue Northeast",
    "city": "Atlanta",
    "state": "GA",
    "zip_code": "30307",
    "latitude": 33.7707382,
    "longitude": -84.35276859999999,
    "website": "http://manuelstavern.com/",
    "category": "Bar & Restaurant",
    "types": "bar, restaurant, point_of_interest, food, establishment"
  },
  {
    "place_id": "ChIJQ-icamgE9YgR5x6mB7gMOR0",
    "name": "The Vortex Bar & Grill",
    "street_address": "878 Peachtree Street Northeast",
    "city": "Atlanta",
    "state": "GA",
    "zip_code": "30309",
    "latitude": 33.7790602,
    "longitude": -84.3844407,
    "website": "http://www.thevortexbar.com/",
    "category": "Bar & Restaurant",
    "types": "bar, restaurant, food, point_of_interest, establishment"
  },
  {
    "place_id": "ChIJw23jdm8E9YgRn1HODnsUFxE",
    "name": "Publik Draft House",
    "street_address": "654 Peachtree Street Northeast",
    "city": "Atlanta",
    "state": "GA",
    "zip_code": "30308",
    "latitude": 33.7723774,
    "longitude": -84.38504689999999,
    "website": "http://www.publikatl.com/",
    "category": "Bar & Restaurant",
    "types": "night_club, bar, restaurant, food, point_of_interest, establishment"
  },
  {
    "place_id": "ChIJTZAT2agG9YgRN9U-AyEJVt8",
    "name": "The Porter Beer Bar",
    "street_address": "1156 Euclid Avenue Northeast",
    "city": "Atlanta",
    "state": "GA",
    "zip_code": "30307",
    "latitude": 33.765165,
    "longitude": -84.349676,
    "website": "http://www.theporterbeerbar.com/",
    "category": "Bar & Restaurant",
    "types": "bar, restaurant, food, point_of_interest, establishment"
  },
  {
    "place_id": "ChIJn8y6qFwB9YgR595KQhQFNDc",
    "name": "The Midway Pub",
    "street_address": "552 Flat Shoals Avenue Southeast",
    "city": "Atlanta",
    "state": "GA",
    "zip_code": "30316",
    "latitude": 33.7394433,
    "longitude": -84.34417719999999,
    "website": "http://www.themidwaypub.com/",
    "category": "Bar & Restaurant",
    "types": "bar, restaurant, food, point_of_interest, establishment"
  },
  {
    "place_id": "ChIJ6V-08HkE9YgRvZopWFm3U4w",
    "name": "Max Lager's Wood-Fired Grill & Brewery",
    "street_address": "320 Peachtree Road Northeast",
    "city": "Atlanta",
    "state": "GA",
    "zip_code": "30308",
    "latitude": 33.76333839999999,
    "longitude": -84.3869351,
    "website": "http://www.maxlagers.com/",
    "category": "Bar & Restaurant",
    "types": "bar, restaurant, food, point_of_interest, establishment"
  },
  {
    "place_id": "ChIJy8XTe-0D9YgRwEjWNS00_J4",
    "name": "Republic Social House",
    "street_address": "437 Memorial Drive Southeast",
    "city": "Atlanta",
    "state": "GA",
    "zip_code": "30312",
    "latitude": 33.7465977,
    "longitude": -84.3732272,
    "website": "http://therepublicsocialhouse.com/",
    "category": "Bar & Restaurant",
    "types": "restaurant, bar, food, point_of_interest, establishment"
  },
  {
    "place_id": "ChIJm8uX1X8E9YgR2Acbx-2xMZ4",
    "name": "STATS Brewpub",
    "street_address": "300 Marietta Street NorthWest",
    "city": "Atlanta",
    "state": "GA",
    "zip_code": "30313",
    "latitude": 33.7615127,
    "longitude": -84.39629359999999,
    "website": "http://www.statsatl.com/",
    "category": "Bar & Restaurant",
    "types": "restaurant, bar, food, point_of_interest, establishment"
  },
  {
    "place_id": "ChIJxfBUKhoE9YgRkX5QyKw8Yds",
    "name": "The Local",
    "street_address": "758 Ponce De Leon Avenue Northeast",
    "city": "Atlanta",
    "state": "GA",
    "zip_code": "30306",
    "latitude": 33.77402490000001,
    "longitude": -84.3622819,
    "website": "http://thelocalkaraoke.com/home.php",
    "category": "Bar & Restaurant",
    "types": "bar, restaurant, food, point_of_interest, establishment"
  },
  {
    "place_id": "ChIJzSdXD_ED9YgR3i9USmZsPDY",
    "name": "Milltown Arms Tavern",
    "street_address": "180 Carroll Street Southeast",
    "city": "Atlanta",
    "state": "GA",
    "zip_code": "30312",
    "latitude": 33.7496892,
    "longitude": -84.36784949999999,
    "website": "https://www.milltownarmstavern.com/",
    "category": "Bar & Restaurant",
    "types": "bar, restaurant, food, point_of_interest, establishment"
  },
  {
    "place_id": "ChIJRwFXzj0E9YgRkpI_K4PvVeU",
    "name": "Park Tavern",
    "street_address": "500 10th Street Northeast",
    "city": "Atlanta",
    "state": "GA",
    "zip_code": "30309",
    "latitude": 33.7822253,
    "longitude": -84.3692889,
    "website": "https://www.parktavern.com/",
    "category": "Bar & Restaurant",
    "types": "restaurant, bar, food, point_of_interest, establishment"
  },
  {
    "place_id": "ChIJ64EOU48F9YgRm7LZKECRw0c",
    "name": "Wicked Wolf Atlanta",
    "street_address": "1080 Peachtree Street Northeast",
    "city": "Atlanta",
    "state": "GA",
    "zip_code": "30309",
    "latitude": 33.7834386,
    "longitude": -84.3844357,
    "website": "http://www.wickedwolfatlanta.com/",
    "category": "Bar & Restaurant",
    "types": "restaurant, bar, food, point_of_interest, establishment"
  },
  {
    "place_id": "ChIJxTRoXnID9YgRyIc64jKbn4k",
    "name": "LA\u2019s Bar & Grill",
    "street_address": "33 Hurt Plaza Southeast",
    "city": "Atlanta",
    "state": "GA",
    "zip_code": "30303",
    "latitude": 33.7542725,
    "longitude": -84.3879561,
    "website": "http://lasbarandgrill.com/",
    "category": "Bar & Restaurant",
    "types": "bar, restaurant, food, point_of_interest, establishment"
  },
  {
    "place_id": "ChIJbRWt6qAG9YgRKwEQnxlkkYA",
    "name": "Neighbor's Pub",
    "street_address": "752 North Highland Avenue Northeast",
    "city": "Atlanta",
    "state": "GA",
    "zip_code": "30306",
    "latitude": 33.77505600000001,
    "longitude": -84.35303809999999,
    "website": "http://www.neighborsatlanta.com/",
    "category": "Bar & Restaurant",
    "types": "bar, restaurant, food, point_of_interest, establishment"
  },
  {
    "place_id": "ChIJq2ODUwEE9YgR94CN_Crd93k",
    "name": "Barcelona Wine Bar",
    "street_address": "240 North Highland Avenue Northeast",
    "city": "Atlanta",
    "state": "GA",
    "zip_code": "30307",
    "latitude": 33.7627904,
    "longitude": -84.3589221,
    "website": "https://www.barcelonawinebar.com/location/inmanpark/?utm_source=yext&utm_medium=localsearch&utm_campaign=landing-page&utm_content=inman-park",
    "category": "Bar & Restaurant",
    "types": "bar, restaurant, food, point_of_interest, establishment"
  },
  {
    "place_id": "ChIJxUnQaXwD9YgRZWbuS8NMK6g",
    "name": "Restaurant 10 Bar & Grill",
    "street_address": "10 Northside Drive Northwest",
    "city": "Atlanta",
    "state": "GA",
    "zip_code": "30314",
    "latitude": 33.7549429,
    "longitude": -84.4032699,
    "website": "https://www.restaurant10atl.com/",
    "category": "Bar & Restaurant",
    "types": "bar, restaurant, food, point_of_interest, establishment"
  },
  {
    "place_id": "ChIJwZY5KXgE9YgR-xKMdXMj_no",
    "name": "Gibney's Pub",
    "street_address": "231 Peachtree Center Avenue Northeast",
    "city": "Atlanta",
    "state": "GA",
    "zip_code": "30303",
    "latitude": 33.7603573,
    "longitude": -84.3862048,
    "website": "https://gibneyspub.com/",
    "category": "Bar & Restaurant",
    "types": "restaurant, bar, food, point_of_interest, establishment"
  },
  {
    "place_id": "ChIJB-8ii4AD9YgRlgKJ0woAwHk",
    "name": "Hudson Grille",
    "street_address": "120 Marietta Street NorthWest",
    "city": "Atlanta",
    "state": "GA",
    "zip_code": "30303",
    "latitude": 33.757142,
    "longitude": -84.393529,
    "website": "http://www.hudsongrille.com/",
    "category": "Bar & Restaurant",
    "types": "bar, restaurant, food, point_of_interest, establishment"
  },
  {
    "place_id": "ChIJG_8iJJ4G9YgRrOOzXmOG3fo",
    "name": "George's Bar & Restaurant",
    "street_address": "1041 North Highland Avenue Northeast",
    "city": "Atlanta",
    "state": "GA",
    "zip_code": "30306",
    "latitude": 33.7830056,
    "longitude": -84.3542944,
    "website": "http://georgesbarandrestaurant.com/",
    "category": "Bar & Restaurant",
    "types": "bar, restaurant, food, point_of_interest, establishment"
  },
  {
    "place_id": "ChIJn8LbIm0E9YgREMWxAog8G60",
    "name": "The Original J.R. Crickets in Midtown Atlanta",
    "street_address": "129 North Avenue Northeast",
    "city": "Atlanta",
    "state": "GA",
    "zip_code": "30308",
    "latitude": 33.77102910000001,
    "longitude": -84.3831792,
    "website": "http://jrcrickets.com/index.php",
    "category": "Bar & Restaurant",
    "types": "bar, restaurant, food, point_of_interest, establishment"
  },
  {
    "place_id": "ChIJs-lyPk4B9YgRzmKz4HCfLo0",
    "name": "El Tesoro",
    "street_address": "1374 Arkwright Place Southeast",
    "city": "Atlanta",
    "state": "GA",
    "zip_code": "30317",
    "latitude": 33.74946569999999,
    "longitude": -84.3426151,
    "website": "http://www.eltesoroatl.com/",
    "category": "Bar & Restaurant",
    "types": "cafe, bar, store, restaurant, food, point_of_interest, establishment"
  },
  {
    "place_id": "ChIJxa3lFXwD9YgRMGqINueoolw",
    "name": "Boxcar at Hop City West End",
    "street_address": "1000 White Street Southwest",
    "city": "Atlanta",
    "state": "GA",
    "zip_code": "30310",
    "latitude": 33.7299531,
    "longitude": -84.4186258,
    "website": "https://www.boxcaratl.com/?utm_source=google&utm_medium=local&utm_campaign=gmb",
    "category": "Bar & Restaurant",
    "types": "restaurant, bar, food, point_of_interest, establishment"
  },
  {
    "place_id": "ChIJQRlsgyAE9YgRnhgOPZsGZmA",
    "name": "Highland Tap",
    "street_address": "1026 North Highland Avenue Northeast",
    "city": "Atlanta",
    "state": "GA",
    "zip_code": "30306",
    "latitude": 33.7825413,
    "longitude": -84.3546336,
    "website": "https://www.facebook.com/highlandtap/",
    "category": "Bar & Restaurant",
    "types": "bar, restaurant, food, point_of_interest, establishment"
  },
  {
    "place_id": "ChIJawH0dS4F9YgRHQgP0T5UnPs",
    "name": "The Office Bar",
    "street_address": "1105 West Peachtree Street Northwest",
    "city": "Atlanta",
    "state": "GA",
    "zip_code": "30309",
    "latitude": 33.7847898,
    "longitude": -84.38764189999999,
    "website": "https://theofficebaratl.com/?utm_source=GMB&utm_medium=WebsiteClick&utm_campaign=Atlanta&utm_content=7234-37",
    "category": "Bar & Restaurant",
    "types": "restaurant, bar, food, point_of_interest, establishment"
  },
  {
    "place_id": "ChIJg0yrd6MF9YgRmUCviZQHWAE",
    "name": "Whitehall Tavern",
    "street_address": "2391 Peachtree Road",
    "city": "Atlanta",
    "state": "GA",
    "zip_code": "30305",
    "latitude": 33.8201679,
    "longitude": -84.3876569,
    "website": "http://www.whitehall-tavern.com/",
    "category": "Bar & Restaurant",
    "types": "bar, restaurant, food, point_of_interest, establishment"
  },
  {
    "place_id": "ChIJN3bFyqsF9YgReu6wcQEXgA8",
    "name": "Black Bear Tavern",
    "street_address": "1931 Peachtree Road Northeast",
    "city": "Atlanta",
    "state": "GA",
    "zip_code": "30309",
    "latitude": 33.80750369999999,
    "longitude": -84.3935332,
    "website": "http://www.blackbeartavern.net/",
    "category": "Restaurant",
    "types": "restaurant, point_of_interest, food, establishment"
  },
  {
    "place_id": "ChIJpcR_xvUF9YgRbjaAqcTniZo",
    "name": "Industry Tavern",
    "street_address": "3280 Peachtree Road Northeast",
    "city": "Atlanta",
    "state": "GA",
    "zip_code": "30305",
    "latitude": 33.8451745,
    "longitude": -84.37136439999999,
    "website": "http://www.industrytavern.com/",
    "category": "Bar & Restaurant",
    "types": "bar, restaurant, food, point_of_interest, establishment"
  },
  {
    "place_id": "ChIJT-Sk6o0F9YgRvjzdTXhx6mQ",
    "name": "Elbow Room",
    "street_address": "248 Pharr Road Northeast",
    "city": "Atlanta",
    "state": "GA",
    "zip_code": "30305",
    "latitude": 33.8372784,
    "longitude": -84.37925,
    "website": null,
    "category": "Bar & Restaurant",
    "types": "bar, restaurant, food, point_of_interest, establishment"
  },
  {
    "place_id": "ChIJkSmbIs0F9YgR-gRLLgU6Tqg",
    "name": "Twin Peaks",
    "street_address": "3365 Piedmont Road Northeast",
    "city": "Atlanta",
    "state": "GA",
    "zip_code": "30305",
    "latitude": 33.8474539,
    "longitude": -84.372827,
    "website": "https://twinpeaksrestaurant.com/locations/buckhead-ga",
    "category": "Bar & Restaurant",
    "types": "bar, restaurant, food, point_of_interest, establishment"
  },
  {
    "place_id": "ChIJv67-6KgF9YgR1qrql6KsmIo",
    "name": "Irby's Tavern",
    "street_address": "322 East Paces Ferry Road Northeast",
    "city": "Atlanta",
    "state": "GA",
    "zip_code": "30305",
    "latitude": 33.8396122,
    "longitude": -84.3770782,
    "website": "https://www.irbystavern.com/",
    "category": "Bar & Restaurant",
    "types": "bar, restaurant, food, point_of_interest, establishment"
  },
  {
    "place_id": "ChIJtYXlilYP9YgR2XzgD8zmewA",
    "name": "The Bucket Shop Cafe",
    "street_address": "3475 Lenox Road Northeast",
    "city": "Atlanta",
    "state": "GA",
    "zip_code": "30326",
    "latitude": 33.849357,
    "longitude": -84.36083169999999,
    "website": "http://bucketshopcafe.com/",
    "category": "Bar & Restaurant",
    "types": "bar, cafe, restaurant, food, point_of_interest, establishment"
  },
  {
    "place_id": "ChIJIxjn9p4F9YgRrCpi4OZ4aXU",
    "name": "The Garden Room",
    "street_address": "88 West Paces Ferry Road Northwest",
    "city": "Atlanta",
    "state": "GA",
    "zip_code": "30305",
    "latitude": 33.83965999999999,
    "longitude": -84.38226999999999,
    "website": "https://thegardenroomatlanta.com/",
    "category": "Bar & Restaurant",
    "types": "night_club, bar, restaurant, food, point_of_interest, establishment"
  },
  {
    "place_id": "ChIJGcmZb5YI9YgR12viPfFfgto",
    "name": "Ace's Place",
    "street_address": "1410 Dresden Drive Northeast",
    "city": "Atlanta",
    "state": "GA",
    "zip_code": "30319",
    "latitude": 33.86087759999999,
    "longitude": -84.3318685,
    "website": "https://www.porterhouse-grill.com/",
    "category": "Bar & Restaurant",
    "types": "bar, restaurant, food, point_of_interest, establishment"
  },
  {
    "place_id": "ChIJlWRLpY0F9YgRTIf_Vqx_3tg",
    "name": "Fado Irish Pub",
    "street_address": "273 Buckhead Avenue",
    "city": "Atlanta",
    "state": "GA",
    "zip_code": "30305",
    "latitude": 33.83794779999999,
    "longitude": -84.3785214,
    "website": "https://www.fadoirishpub.com/",
    "category": "Bar & Restaurant",
    "types": "bar, restaurant, food, point_of_interest, establishment"
  },
  {
    "place_id": "ChIJwfmQ77sF9YgRVn6DvUkQsZ0",
    "name": "Treehouse Restaurant and Pub",
    "street_address": "7 Kings Circle Northeast",
    "city": "Atlanta",
    "state": "GA",
    "zip_code": "30305",
    "latitude": 33.8185835,
    "longitude": -84.38105399999999,
    "website": "http://www.treehouseatlanta.com/",
    "category": "Bar & Restaurant",
    "types": "bar, restaurant, food, point_of_interest, establishment"
  },
  {
    "place_id": "ChIJ16wKKIkF9YgRBsLiXFBQMkg",
    "name": "The Blind Pig Parlour Bar",
    "street_address": "128 East Andrews Drive Northwest",
    "city": "Atlanta",
    "state": "GA",
    "zip_code": "30305",
    "latitude": 33.8424254,
    "longitude": -84.3830522,
    "website": "http://www.theblindpigparlourbar.com/",
    "category": "Bar & Restaurant",
    "types": "night_club, bar, restaurant, food, point_of_interest, establishment"
  },
  {
    "place_id": "ChIJ94nr_8AI9YgRtWs17PRqHEU",
    "name": "HOBNOB Neighborhood Tavern",
    "street_address": "804 Town Boulevard",
    "city": "Atlanta",
    "state": "GA",
    "zip_code": "30319",
    "latitude": 33.8705848,
    "longitude": -84.33641279999999,
    "website": "https://www.hobnobatlanta.com/",
    "category": "Bar & Restaurant",
    "types": "bar, restaurant, food, point_of_interest, establishment"
  },
  {
    "place_id": "ChIJ0QRCZgAF9YgRgXx999of_HU",
    "name": "Burtons Grill & Bar",
    "street_address": "3330 Piedmont Road Northeast",
    "city": "Atlanta",
    "state": "GA",
    "zip_code": "30305",
    "latitude": 33.8469001,
    "longitude": -84.3734671,
    "website": "https://burtonsgrill.com/locations/ga/atlanta/",
    "category": "Bar & Restaurant",
    "types": "bar, restaurant, food, point_of_interest, establishment"
  },
  {
    "place_id": "ChIJv1iuOY4P9YgRwRViPu01RKs",
    "name": "Postino Buckhead",
    "street_address": "3655 Roswell Road Northeast",
    "city": "Atlanta",
    "state": "GA",
    "zip_code": "30342",
    "latitude": 33.8546696,
    "longitude": -84.3822133,
    "website": "https://www.postinowinecafe.com/locations/postino-buckhead",
    "category": "Bar & Restaurant",
    "types": "restaurant, bar, food, point_of_interest, establishment"
  },
  {
    "place_id": "ChIJm5gCpB4F9YgRhAtkmjc0TK0",
    "name": "Mr. C's Bar & Grill",
    "street_address": "1983 Howell Mill Road Northwest",
    "city": "Atlanta",
    "state": "GA",
    "zip_code": "30318",
    "latitude": 33.8086649,
    "longitude": -84.4125893,
    "website": null,
    "category": "Bar & Restaurant",
    "types": "bar, restaurant, food, point_of_interest, establishment"
  },
  {
    "place_id": "ChIJucdxco4F9YgR_EKa1gppziE",
    "name": "The Southern Gentleman",
    "street_address": "3035 Peachtree Road Northeast",
    "city": "Atlanta",
    "state": "GA",
    "zip_code": "30305",
    "latitude": 33.83785639999999,
    "longitude": -84.380685,
    "website": "http://www.thesoutherngentlemanatl.com/",
    "category": "Bar & Restaurant",
    "types": "bar, restaurant, food, point_of_interest, establishment"
  },
  {
    "place_id": "ChIJb0SbSeQF9YgRBbCXMEhMpCc",
    "name": "Eclipse di Luna - Buckhead",
    "street_address": "764 Miami Circle Northeast",
    "city": "Atlanta",
    "state": "GA",
    "zip_code": "30324",
    "latitude": 33.83205519999999,
    "longitude": -84.3616904,
    "website": "https://eclipsediluna.com/",
    "category": "Restaurant",
    "types": "restaurant, food, point_of_interest, establishment"
  },
  {
    "place_id": "ChIJG8Wzy6gG9YgRBQVGToEnXTg",
    "name": "The Vortex Bar & Grill",
    "street_address": "438 Moreland Avenue Northeast",
    "city": "Atlanta",
    "state": "GA",
    "zip_code": "30307",
    "latitude": 33.7662559,
    "longitude": -84.3492199,
    "website": "http://www.thevortexbar.com/",
    "category": "Bar & Restaurant",
    "types": "bar, restaurant, food, point_of_interest, establishment"
  },
  {
    "place_id": "ChIJnx_Fii0B9YgRvFqHQKj9v2A",
    "name": "Bob & Harriet's Home Bar",
    "street_address": "1992 Hosea L Williams Drive Northeast",
    "city": "Atlanta",
    "state": "GA",
    "zip_code": "30317",
    "latitude": 33.75143889999999,
    "longitude": -84.3224417,
    "website": "https://homebaratl.com/",
    "category": "Bar & Restaurant",
    "types": "bar, restaurant, food, point_of_interest, establishment"
  },
  {
    "place_id": "ChIJxTAzQYwD9YgRxZ-YCOT8fJk",
    "name": "The Beverly",
    "street_address": "790 Glenwood Avenue Southeast",
    "city": "Atlanta",
    "state": "GA",
    "zip_code": "30316",
    "latitude": 33.7405354,
    "longitude": -84.3609298,
    "website": "https://www.thebeverlyatl.com/",
    "category": "Bar & Restaurant",
    "types": "restaurant, bar, food, point_of_interest, establishment"
  },
  {
    "place_id": "ChIJm5Xp_PwD9YgR9u73WFFeaMI",
    "name": "McCray's Tavern Beltline",
    "street_address": "670 DeKalb Avenue Northeast",
    "city": "Atlanta",
    "state": "GA",
    "zip_code": "30307",
    "latitude": 33.7541371,
    "longitude": -84.36564,
    "website": "http://www.mccraystavern.com/",
    "category": "Restaurant",
    "types": "restaurant, food, point_of_interest, establishment"
  },
  {
    "place_id": "ChIJd981wyID9YgRsucwBHjNVGs",
    "name": "Marcus Bar & Grille",
    "street_address": "525 Edgewood Avenue Southeast",
    "city": "Atlanta",
    "state": "GA",
    "zip_code": "30312",
    "latitude": 33.754018,
    "longitude": -84.370301,
    "website": "https://www.marcusbarandgrille.com/",
    "category": "Bar & Restaurant",
    "types": "night_club, bar, restaurant, food, point_of_interest, establishment"
  },
  {
    "place_id": "ChIJWZvjAl0E9YgRX0ojFsIWS9A",
    "name": "The Steamhouse Lounge",
    "street_address": "1051 West Peachtree Street Northwest",
    "city": "Atlanta",
    "state": "GA",
    "zip_code": "30309",
    "latitude": 33.7834489,
    "longitude": -84.3875394,
    "website": "http://www.steamhouselounge.com/",
    "category": "Bar & Restaurant",
    "types": "night_club, bar, restaurant, food, point_of_interest, establishment"
  },
  {
    "place_id": "ChIJ1RDYpSUH9YgRB7WnNfkBNe8",
    "name": "Thinking Man Tavern",
    "street_address": "537 West Howard Avenue",
    "city": "Decatur",
    "state": "GA",
    "zip_code": "30030",
    "latitude": 33.7678131,
    "longitude": -84.3045455,
    "website": "http://www.thinkingmantavern.com/",
    "category": "Bar & Restaurant",
    "types": "bar, restaurant, food, point_of_interest, establishment"
  },
  {
    "place_id": "ChIJfTK9iWcE9YgRXwVbE8uuS18",
    "name": "Marlow's Tavern",
    "street_address": "950 West Peachtree Street Northwest",
    "city": "Atlanta",
    "state": "GA",
    "zip_code": "30309",
    "latitude": 33.7796863,
    "longitude": -84.3874931,
    "website": "https://www.marlowstavern.com/georgia/midtown",
    "category": "Bar & Restaurant",
    "types": "beauty_salon, bar, restaurant, food, point_of_interest, establishment"
  },
  {
    "place_id": "ChIJjZfdY40D9YgRtuVWcCwfd2Q",
    "name": "Brewdog Atlanta",
    "street_address": "112 Krog Street Northeast",
    "city": "Atlanta",
    "state": "GA",
    "zip_code": "30307",
    "latitude": 33.756209,
    "longitude": -84.36488419999999,
    "website": "https://www.brewdog.com/usa/atlanta",
    "category": "Bar & Restaurant",
    "types": "bar, restaurant, food, point_of_interest, establishment"
  },
  {
    "place_id": "ChIJ3ah6xKUF9YgR3Vw6bx3elhM",
    "name": "Holeman and Finch",
    "street_address": "1201 Peachtree Street Northeast",
    "city": "Atlanta",
    "state": "GA",
    "zip_code": "30309",
    "latitude": 33.7879305,
    "longitude": -84.3830763,
    "website": "http://www.holeman-finch.com/",
    "category": "Bar & Restaurant",
    "types": "bar, restaurant, food, point_of_interest, establishment"
  },
  {
    "place_id": "ChIJdRFzdS4H9YgRweTgoTjLGyc",
    "name": "Universal Joint Decatur",
    "street_address": "906 Oakview Road",
    "city": "Decatur",
    "state": "GA",
    "zip_code": "30030",
    "latitude": 33.7594521,
    "longitude": -84.30306569999999,
    "website": "https://www.ujointbar.com/",
    "category": "Bar & Restaurant",
    "types": "bar, restaurant, food, point_of_interest, establishment"
  },
  {
    "place_id": "ChIJTyrooWcD9YgRxsZXJAHwZA4",
    "name": "Buteco",
    "street_address": "1039 Grant Street Southeast",
    "city": "Atlanta",
    "state": "GA",
    "zip_code": "30315",
    "latitude": 33.72506119999999,
    "longitude": -84.3770603,
    "website": "http://www.butecoatlanta.com/",
    "category": "Bar & Restaurant",
    "types": "cafe, bar, restaurant, food, point_of_interest, store, establishment"
  },
  {
    "place_id": "ChIJzarsOvAD9YgR3mBAEkmh8cw",
    "name": "Pour Taproom-Beltline",
    "street_address": "661 Auburn Avenue Northeast",
    "city": "Atlanta",
    "state": "GA",
    "zip_code": "30312",
    "latitude": 33.7561731,
    "longitude": -84.3654361,
    "website": "http://pourtaproomatlanta.com/",
    "category": "Bar & Restaurant",
    "types": "bar, restaurant, food, point_of_interest, establishment"
  },
  {
    "place_id": "ChIJV7hUt4ID9YgRhORWl7BL9jQ",
    "name": "Metro Diner and Bar",
    "street_address": "229 Peachtree Street",
    "city": "Atlanta",
    "state": "GA",
    "zip_code": "30303",
    "latitude": 33.7597674,
    "longitude": -84.38621049999999,
    "website": "http://www.metrodineratl.com/",
    "category": "Bar & Restaurant",
    "types": "bar, cafe, night_club, restaurant, food, point_of_interest, establishment"
  },
  {
    "place_id": "ChIJjRSbYFsB9YgRWmQXem6I238",
    "name": "Flatiron Bar and Restaurant",
    "street_address": "520 Flat Shoals Avenue Southeast",
    "city": "Atlanta",
    "state": "GA",
    "zip_code": "30316",
    "latitude": 33.7400386,
    "longitude": -84.34503219999999,
    "website": "https://flatironatl.com/",
    "category": "Bar & Restaurant",
    "types": "bar, restaurant, food, point_of_interest, establishment"
  },
  {
    "place_id": "ChIJ4bxe6T4H9YgRMtjAKa47DBw",
    "name": "Twain's Brewpub & Billiards",
    "street_address": "211 East Trinity Place",
    "city": "Decatur",
    "state": "GA",
    "zip_code": "30030",
    "latitude": 33.7724413,
    "longitude": -84.29462389999999,
    "website": "https://www.twains.net/",
    "category": "Bar & Restaurant",
    "types": "bar, restaurant, food, point_of_interest, establishment"
  },
  {
    "place_id": "ChIJOUsvn1sB9YgR8SX5jx8shxs",
    "name": "The Pub @ EAV",
    "street_address": "469 Flat Shoals Avenue Southeast",
    "city": "Atlanta",
    "state": "GA",
    "zip_code": "30316",
    "latitude": 33.741073,
    "longitude": -84.3467,
    "website": "https://www.eavpub.com/",
    "category": "Restaurant",
    "types": "restaurant, food, point_of_interest, establishment"
  },
  {
    "place_id": "ChIJiWmyXKAG9YgRShvm0y2R9b0",
    "name": "Limerick Junction Pub",
    "street_address": "822 North Highland Avenue Northeast",
    "city": "Atlanta",
    "state": "GA",
    "zip_code": "30306",
    "latitude": 33.7770217,
    "longitude": -84.35269199999999,
    "website": "https://www.limerickjunction.com/",
    "category": "Bar & Restaurant",
    "types": "bar, restaurant, food, point_of_interest, establishment"
  },
  {
    "place_id": "ChIJNxuVRfED9YgRmzlCKsPpZsw",
    "name": "Our Bar ATL",
    "street_address": "339 Edgewood Avenue Southeast",
    "city": "Atlanta",
    "state": "GA",
    "zip_code": "30312",
    "latitude": 33.75422,
    "longitude": -84.3764755,
    "website": "http://www.ourbaratl.com/",
    "category": "Bar & Restaurant",
    "types": "bar, restaurant, food, point_of_interest, establishment"
  },
  {
    "place_id": "ChIJ9yhb-XgF9YgRaVqoaS9j75Y",
    "name": "Mrs. P\u2019s Bar & Kitchen",
    "street_address": "551 Ponce De Leon Avenue Northeast",
    "city": "Atlanta",
    "state": "GA",
    "zip_code": "30308",
    "latitude": 33.7732713,
    "longitude": -84.3688969,
    "website": "https://www.mrspsatl.com/",
    "category": "Bar & Restaurant",
    "types": "restaurant, bar, food, point_of_interest, establishment"
  },
  {
    "place_id": "ChIJIbJGUBMB9YgREbTqz7asRfc",
    "name": "Wylie & Rum Island Grill",
    "street_address": "45 Moreland Avenue Southeast",
    "city": "Atlanta",
    "state": "GA",
    "zip_code": "30316",
    "latitude": 33.7520098,
    "longitude": -84.3495298,
    "website": "http://wylieandrum.com/",
    "category": "Bar & Restaurant",
    "types": "restaurant, bar, food, point_of_interest, establishment"
  },
  {
    "place_id": "ChIJmT1LTLQD9YgR-Svo7Mi-BpA",
    "name": "Red's Beer Garden",
    "street_address": "1328 Boulevard Southeast",
    "city": "Atlanta",
    "state": "GA",
    "zip_code": "30315",
    "latitude": 33.7184524,
    "longitude": -84.36812859999999,
    "website": "https://www.redsbeergarden.com/",
    "category": "Bar & Restaurant",
    "types": "bar, restaurant, food, point_of_interest, establishment"
  },
  {
    "place_id": "ChIJNXMrm1wH9YgRV_-C6rDcVhQ",
    "name": "O'Sullivans Irish Pub",
    "street_address": "111 Sycamore Street",
    "city": "Decatur",
    "state": "GA",
    "zip_code": "30030",
    "latitude": 33.7744064,
    "longitude": -84.29617789999999,
    "website": "http://osullivanspub.com/",
    "category": "Bar & Restaurant",
    "types": "bar, restaurant, food, point_of_interest, establishment"
  },
  {
    "place_id": "ChIJnbqTNd6p9YgRO4hjN3a1m5I",
    "name": "The Stratford Pub",
    "street_address": "17 North Avondale Road",
    "city": "Avondale Estates",
    "state": "GA",
    "zip_code": "30002",
    "latitude": 33.7765532,
    "longitude": -84.2671896,
    "website": "https://stratfordpub.com/",
    "category": "Bar & Restaurant",
    "types": "restaurant, bar, food, point_of_interest, establishment"
  },
  {
    "place_id": "ChIJuQO-7CIH9YgRH-fhSpjOWy4",
    "name": "Marlay House Irish Pub",
    "street_address": "426 West Ponce de Leon Avenue",
    "city": "Decatur",
    "state": "GA",
    "zip_code": "30030",
    "latitude": 33.7753921,
    "longitude": -84.3033741,
    "website": "https://www.themarlayhouse.com/",
    "category": "Bar & Restaurant",
    "types": "bar, restaurant, food, point_of_interest, establishment"
  },
  {
    "place_id": "ChIJd2V9zy0H9YgRPDz_MCkvvQc",
    "name": "Steinbecks Restaurant",
    "street_address": "659 East Lake Drive",
    "city": "Decatur",
    "state": "GA",
    "zip_code": "30030",
    "latitude": 33.7592037,
    "longitude": -84.3035233,
    "website": "http://steinbecksbar.com/",
    "category": "Bar & Restaurant",
    "types": "bar, restaurant, food, point_of_interest, establishment"
  },
  {
    "place_id": "ChIJNYKbAKgH9YgRuD6nAddeTRY",
    "name": "Wheelhouse Craft Pub and Kitchen",
    "street_address": "1479 Scott Boulevard",
    "city": "Decatur",
    "state": "GA",
    "zip_code": "30030",
    "latitude": 33.7928423,
    "longitude": -84.2906441,
    "website": "https://www.wheelhousepubdecatur.com/",
    "category": "Bar & Restaurant",
    "types": "restaurant, bar, food, point_of_interest, establishment"
  },
  {
    "place_id": "ChIJb7R4rXQH9YgRt-lSDfTSEjo",
    "name": "Melton's App & Tap",
    "street_address": "2500 North Decatur Road",
    "city": "Decatur",
    "state": "GA",
    "zip_code": "30033",
    "latitude": 33.794096,
    "longitude": -84.2909525,
    "website": "http://www.meltonsappandtap.com/",
    "category": "Bar & Restaurant",
    "types": "bar, restaurant, point_of_interest, food, establishment"
  },
  {
    "place_id": "ChIJEyy6vbQH9YgRcEJ-U5PPgtg",
    "name": "LongHorn Steakhouse",
    "street_address": "2892 North Druid Hills Road Northeast",
    "city": "Atlanta",
    "state": "GA",
    "zip_code": "30329",
    "latitude": 33.8171947,
    "longitude": -84.3110415,
    "website": "https://www.longhornsteakhouse.com/locations/ga/atlanta/atlanta-toco-hills/5562?cmpid=br:lh_ag:ie_ch:loc_ca:LHGMB_sn:gmb_gt:atlanta-ga-5562_pl:locurl_rd:1487",
    "category": "Bar & Restaurant",
    "types": "meal_takeaway, bar, restaurant, food, point_of_interest, establishment"
  },
  {
    "place_id": "ChIJzf_mkGCo9YgRZRAwAQlxChM",
    "name": "Brockett Pub House & Grill",
    "street_address": "4522 East Ponce de Leon Avenue",
    "city": "Clarkston",
    "state": "GA",
    "zip_code": "30021",
    "latitude": 33.8190529,
    "longitude": -84.23185509999999,
    "website": "http://www.brockettpub.com/",
    "category": "Bar & Restaurant",
    "types": "bar, restaurant, food, point_of_interest, establishment"
  },
  {
    "place_id": "ChIJJzN2zi-m9YgRK8Eb4UvqUcA",
    "name": "Billy Bob's New Secrets",
    "street_address": "3962 Lawrenceville Highway",
    "city": "Tucker",
    "state": "GA",
    "zip_code": "30084",
    "latitude": 33.8505677,
    "longitude": -84.2195425,
    "website": "http://billybobssecrets.com/",
    "category": "Bar & Restaurant",
    "types": "bar, restaurant, food, point_of_interest, establishment"
  },
  {
    "place_id": "ChIJyXB21BsE9YgRbKerqaB9zqE",
    "name": "Dugan's Restaurant & Bar",
    "street_address": "4800 Briarcliff Road Northeast",
    "city": "Atlanta",
    "state": "GA",
    "zip_code": "30345",
    "latitude": 33.8494824,
    "longitude": -84.2553855,
    "website": "https://dugansbar.com/",
    "category": "Bar & Restaurant",
    "types": "bar, restaurant, point_of_interest, food, establishment"
  },
  {
    "place_id": "ChIJ8b-gVuen9YgRJ31XiOMHioo",
    "name": "Marlow's Tavern",
    "street_address": "4156 Lavista Road",
    "city": "Tucker",
    "state": "GA",
    "zip_code": "30084",
    "latitude": 33.84705599999999,
    "longitude": -84.2485652,
    "website": "https://www.marlowstavern.com/georgia/northlake",
    "category": "Bar & Restaurant",
    "types": "beauty_salon, bar, restaurant, food, point_of_interest, establishment"
  },
  {
    "place_id": "ChIJHciXAzum9YgRXNRaLoxSosk",
    "name": "The Local No. 7",
    "street_address": "2316 Main Street",
    "city": "Tucker",
    "state": "GA",
    "zip_code": "30084",
    "latitude": 33.85266549999999,
    "longitude": -84.21449910000001,
    "website": "http://thelocal7.com/",
    "category": "Bar & Restaurant",
    "types": "bar, restaurant, food, point_of_interest, establishment"
  },
  {
    "place_id": "ChIJhysX1Nin9YgRbva60tuuSZs",
    "name": "Hudson Grille Tucker",
    "street_address": "2075 Northlake Parkway",
    "city": "Tucker",
    "state": "GA",
    "zip_code": "30084",
    "latitude": 33.8433889,
    "longitude": -84.24354459999999,
    "website": "http://hudsongrille.com/",
    "category": "Bar & Restaurant",
    "types": "bar, restaurant, food, point_of_interest, establishment"
  },
  {
    "place_id": "ChIJY-xYi-Sn9YgRRYAkABJNB0k",
    "name": "JR Crickets Briarcliff Rd",
    "street_address": "4805 Briarcliff Road Northeast",
    "city": "Atlanta",
    "state": "GA",
    "zip_code": "30345",
    "latitude": 33.84849000000001,
    "longitude": -84.25731999999999,
    "website": "https://www.jrcricketsbriarcliff.com/",
    "category": "Bar & Restaurant",
    "types": "bar, restaurant, food, point_of_interest, establishment"
  },
  {
    "place_id": "ChIJuYVZ-eOn9YgRtPDYLsFFGaQ",
    "name": "Blue Ribbon Grill",
    "street_address": "3352 Chamblee Tucker Road",
    "city": "Atlanta",
    "state": "GA",
    "zip_code": "30341",
    "latitude": 33.885933,
    "longitude": -84.25639,
    "website": "http://blueribbongrill.com/",
    "category": "Bar & Restaurant",
    "types": "bar, restaurant, food, point_of_interest, establishment"
  },
  {
    "place_id": "ChIJ68qieFyp9YgRQ8CYhD8Eh5Y",
    "name": "Live Restaurant & Lounge",
    "street_address": "4622 East Ponce de Leon Avenue",
    "city": "Clarkston",
    "state": "GA",
    "zip_code": "30021",
    "latitude": 33.81941339999999,
    "longitude": -84.2275914,
    "website": null,
    "category": "Bar & Restaurant",
    "types": "restaurant, night_club, bar, food, point_of_interest, establishment"
  },
  {
    "place_id": "ChIJ3-kzuDym9YgR9GaM5T2xrtA",
    "name": "LongHorn Steakhouse",
    "street_address": "4315 Hugh Howell Road",
    "city": "Tucker",
    "state": "GA",
    "zip_code": "30084",
    "latitude": 33.851243,
    "longitude": -84.210848,
    "website": "https://www.longhornsteakhouse.com/locations/ga/tucker/tucker/5008?cmpid=br:lh_ag:ie_ch:loc_ca:LHGMB_sn:gmb_gt:tucker-ga-5008_pl:locurl_rd:1004",
    "category": "Bar & Restaurant",
    "types": "bar, meal_takeaway, restaurant, food, point_of_interest, establishment"
  },
  {
    "place_id": "ChIJw6OLY4em9YgRIhECS5xkuIA",
    "name": "Carmen's Kitchen La Casa De Los Chimis",
    "street_address": "4771 Britt Road",
    "city": "Norcross",
    "state": "GA",
    "zip_code": "30093",
    "latitude": 33.8832288,
    "longitude": -84.1923353,
    "website": null,
    "category": "Restaurant",
    "types": "restaurant, food, point_of_interest, establishment"
  },
  {
    "place_id": "ChIJeVKDTACn9YgRJXNfHEOmU6A",
    "name": "The Drink Lab",
    "street_address": "6330 Lawrenceville Highway",
    "city": "Tucker",
    "state": "GA",
    "zip_code": "30084",
    "latitude": 33.8664942,
    "longitude": -84.1858524,
    "website": null,
    "category": "Bar & Restaurant",
    "types": "bar, restaurant, food, point_of_interest, establishment"
  },
  {
    "place_id": "ChIJHzrC_Z-n9YgRIO5FjxifQcA",
    "name": "Three Dollar Cafe",
    "street_address": "3537 Chamblee Tucker Road",
    "city": "Atlanta",
    "state": "GA",
    "zip_code": "30341",
    "latitude": 33.8844685,
    "longitude": -84.24865439999999,
    "website": "http://threedollarcafe.com/",
    "category": "Bar & Restaurant",
    "types": "bar, restaurant, food, point_of_interest, establishment"
  },
  {
    "place_id": "ChIJcwB2oNqp9YgRLwgzyN66UD4",
    "name": "Nostalgia Kitchen + Cocktails",
    "street_address": "5469 Memorial Drive",
    "city": "Stone Mountain",
    "state": "GA",
    "zip_code": "30083",
    "latitude": 33.8000071,
    "longitude": -84.2142523,
    "website": "https://www.nostalgiarestaurants.com/",
    "category": "Bar & Restaurant",
    "types": "restaurant, night_club, bar, food, point_of_interest, establishment"
  },
  {
    "place_id": "ChIJ2XS1WvCv9YgRlVK_1scsa3U",
    "name": "Jack's Sports Bar&Grill",
    "street_address": "1580 East Park Place Boulevard",
    "city": "Stone Mountain",
    "state": "GA",
    "zip_code": "30087",
    "latitude": 33.8256885,
    "longitude": -84.1136132,
    "website": "http://jackssportsbar.com/",
    "category": "Bar & Restaurant",
    "types": "bar, restaurant, food, point_of_interest, establishment"
  },
  {
    "place_id": "ChIJ1xg_FM2o9YgRi9d7j0YNW4U",
    "name": "Duckanoo Grill",
    "street_address": "6198 Memorial Drive",
    "city": "Stone Mountain",
    "state": "GA",
    "zip_code": "30083",
    "latitude": 33.8065014,
    "longitude": -84.1874267,
    "website": "https://duckanoo.com/?utm_source=google",
    "category": "Bar & Restaurant",
    "types": "night_club, bar, restaurant, food, point_of_interest, establishment"
  },
  {
    "place_id": "ChIJQSdixqSp9YgRJcxBy8KvUvI",
    "name": "Baraka Shawarma Stone Mountain",
    "street_address": "6200 Memorial Drive",
    "city": "Stone Mountain",
    "state": "GA",
    "zip_code": "30083",
    "latitude": 33.8072179,
    "longitude": -84.1877966,
    "website": "https://stonemountain.barakashawarmaatl.com/",
    "category": "Restaurant",
    "types": "restaurant, food, point_of_interest, establishment"
  },
  {
    "place_id": "ChIJ7WM1Dzum9YgRf2fdOFACE6g",
    "name": "Las Colinas Mexican Grill",
    "street_address": "2327 Main Street",
    "city": "Tucker",
    "state": "GA",
    "zip_code": "30084",
    "latitude": 33.8530614,
    "longitude": -84.21415329999999,
    "website": "https://lascolinasmexgrill.com/",
    "category": "Restaurant",
    "types": "restaurant, food, point_of_interest, establishment"
  },
  {
    "place_id": "ChIJg-AqB7Gv9YgRGW6gcmZFHcg",
    "name": "The Commons Restaurant",
    "street_address": "1145 Stonewall Jackson Drive",
    "city": "Stone Mountain",
    "state": "GA",
    "zip_code": "30083",
    "latitude": 33.8121647,
    "longitude": -84.13007329999999,
    "website": "https://atlantaevergreen.com/dining/",
    "category": "Restaurant",
    "types": "restaurant, food, point_of_interest, establishment"
  },
  {
    "place_id": "ChIJTTrP41wV9YgRDWmZXANcF0A",
    "name": "Hamp & Harry's",
    "street_address": "168 Roswell Street Northeast",
    "city": "Marietta",
    "state": "GA",
    "zip_code": "30060",
    "latitude": 33.9521262,
    "longitude": -84.5483126,
    "website": "https://www.hampandharrys.com/",
    "category": "Restaurant",
    "types": "restaurant, food, point_of_interest, establishment"
  },
  {
    "place_id": "ChIJQTuVGuQT9YgRi8We4MCxraE",
    "name": "Rusty Barrel",
    "street_address": "138 Powers Ferry Road",
    "city": "Marietta",
    "state": "GA",
    "zip_code": "30067",
    "latitude": 33.9482425,
    "longitude": -84.5070564,
    "website": "https://www.rustybarrelusa.com/",
    "category": "Bar & Restaurant",
    "types": "bar, restaurant, food, point_of_interest, establishment"
  },
  {
    "place_id": "ChIJtX0ar4YX9YgRtColCX-RYb4",
    "name": "Saddle Up - Original Murphs",
    "street_address": "1679 Joyner Avenue Southeast",
    "city": "Marietta",
    "state": "GA",
    "zip_code": "30060",
    "latitude": 33.9115847,
    "longitude": -84.5445982,
    "website": null,
    "category": "Restaurant",
    "types": "restaurant, food, point_of_interest, establishment"
  },
  {
    "place_id": "ChIJScWRfiQU9YgR2RRr3z6QxPk",
    "name": "Johnnie MacCracken's Celtic Firehouse Pub",
    "street_address": "15 Atlanta Street Southeast",
    "city": "Marietta",
    "state": "GA",
    "zip_code": "30060",
    "latitude": 33.95185699999999,
    "longitude": -84.54883509999999,
    "website": "http://www.johnniemaccrackens.com/",
    "category": "Bar & Restaurant",
    "types": "bar, restaurant, food, point_of_interest, establishment"
  },
  {
    "place_id": "ChIJjY-wxQQU9YgRitpTeQlNEwI",
    "name": "Mulligans Food and Spirits",
    "street_address": "698 Roswell Street Northeast",
    "city": "Marietta",
    "state": "GA",
    "zip_code": "30060",
    "latitude": 33.950478,
    "longitude": -84.5319066,
    "website": null,
    "category": "Bar & Restaurant",
    "types": "bar, restaurant, food, point_of_interest, establishment"
  },
  {
    "place_id": "ChIJdQhMo0wV9YgR4R5vS1SuTr4",
    "name": "Three Roses Tavern",
    "street_address": "105 North Park Square",
    "city": "Marietta",
    "state": "GA",
    "zip_code": "30060",
    "latitude": 33.9534918,
    "longitude": -84.54942849999999,
    "website": "http://www.threerosestavern.com/",
    "category": "Bar & Restaurant",
    "types": "restaurant, bar, food, point_of_interest, establishment"
  },
  {
    "place_id": "ChIJh6hKJcAW9YgRo9m4vBuf6Eo",
    "name": "Wings Pub",
    "street_address": "1368 Atlanta Road Southeast",
    "city": "Marietta",
    "state": "GA",
    "zip_code": "30060",
    "latitude": 33.9194983,
    "longitude": -84.5426959,
    "website": null,
    "category": "Bar & Restaurant",
    "types": "bar, restaurant, food, point_of_interest, establishment"
  },
  {
    "place_id": "ChIJmcrzNyQU9YgR8R57MYdKxic",
    "name": "Two Birds Taphouse",
    "street_address": "52 Powder Springs Street",
    "city": "Marietta",
    "state": "GA",
    "zip_code": "30064",
    "latitude": 33.9506862,
    "longitude": -84.5504225,
    "website": "https://www.twobirdstaphouse.com/",
    "category": "Bar & Restaurant",
    "types": "restaurant, bar, food, point_of_interest, establishment"
  },
  {
    "place_id": "ChIJTXEK99AV9YgR5ZyXzirWG1k",
    "name": "Monkey Barrel",
    "street_address": "688 Whitlock Avenue Northwest",
    "city": "Marietta",
    "state": "GA",
    "zip_code": "30064",
    "latitude": 33.952956,
    "longitude": -84.5727557,
    "website": "https://monkeybarrelmarietta.com/",
    "category": "Bar & Restaurant",
    "types": "bar, restaurant, point_of_interest, food, establishment"
  },
  {
    "place_id": "ChIJPfonUdoV9YgRgs7mU9_VBsI",
    "name": "Marietta Melt Yard",
    "street_address": "800 Whitlock Avenue Northwest",
    "city": "Marietta",
    "state": "GA",
    "zip_code": "30064",
    "latitude": 33.9529517,
    "longitude": -84.5766934,
    "website": "http://www.meltyard.com/",
    "category": "Bar & Restaurant",
    "types": "restaurant, bar, point_of_interest, food, establishment"
  },
  {
    "place_id": "ChIJG8Dk23YV9YgRPK0W5HzMgVU",
    "name": "Keegan's Public House",
    "street_address": "1625 Ridenour Boulevard",
    "city": "Kennesaw",
    "state": "GA",
    "zip_code": "30152",
    "latitude": 33.9946036,
    "longitude": -84.5926959,
    "website": "http://keegansirishpub.net/",
    "category": "Bar & Restaurant",
    "types": "bar, restaurant, food, point_of_interest, establishment"
  },
  {
    "place_id": "ChIJ98JdXp0W9YgRsc370DAxiA4",
    "name": "The Pub",
    "street_address": "500 Powder Springs Street",
    "city": "Marietta",
    "state": "GA",
    "zip_code": "30064",
    "latitude": 33.942886,
    "longitude": -84.55410599999999,
    "website": "https://www.hilton.com/en/hotels/atlmahf-hilton-atlanta-marietta-hotel-and-conference-center/dining/?SEO_id=GMB--R-ATLMAHF-2&y_source=1_MzYwMTQ4OTItNzE1LWxvY2F0aW9uLndlYnNpdGU%3D",
    "category": "Restaurant",
    "types": "restaurant, food, point_of_interest, establishment"
  },
  {
    "place_id": "ChIJyXUjrHEV9YgRheooHx0Hkvk",
    "name": "Marietta Proper",
    "street_address": "9 West Park Square",
    "city": "Marietta",
    "state": "GA",
    "zip_code": "30060",
    "latitude": 33.9523669,
    "longitude": -84.55048459999999,
    "website": "https://www.mariettaproper.com/",
    "category": "Bar & Restaurant",
    "types": "bakery, cafe, bar, store, restaurant, food, point_of_interest, establishment"
  },
  {
    "place_id": "ChIJ2YRqeuUT9YgROoKoWa7aiBo",
    "name": "Harold's Chicken & Ice Bar",
    "street_address": "1477 Roswell Road",
    "city": "Marietta",
    "state": "GA",
    "zip_code": "30062",
    "latitude": 33.95248709999999,
    "longitude": -84.509462,
    "website": "http://www.haroldschickenmarietta.com/",
    "category": "Bar & Restaurant",
    "types": "restaurant, bar, point_of_interest, food, establishment"
  },
  {
    "place_id": "ChIJeSyskoQU9YgRTW1JciMbpbs",
    "name": "The Place Bar \u00b7 Grill \u00b7 Nightclub",
    "street_address": "700 Sandy Plains Road",
    "city": "Marietta",
    "state": "GA",
    "zip_code": "30066",
    "latitude": 33.9959296,
    "longitude": -84.52822739999999,
    "website": "http://www.theplacebargrill.com/",
    "category": "Bar & Restaurant",
    "types": "bar, night_club, restaurant, point_of_interest, food, establishment"
  },
  {
    "place_id": "ChIJO6nWFiUU9YgRZOihUnrhhic",
    "name": "Stockyard Burgers and Bones",
    "street_address": "26 Mill Street",
    "city": "Marietta",
    "state": "GA",
    "zip_code": "30060",
    "latitude": 33.953493,
    "longitude": -84.550797,
    "website": "http://www.stockyardburger.com/",
    "category": "Bar & Restaurant",
    "types": "bar, restaurant, food, point_of_interest, establishment"
  },
  {
    "place_id": "ChIJtWHg6yQU9YgRT4bi8MtYg3g",
    "name": "Willie Rae's Social House",
    "street_address": "25 North Park Square",
    "city": "Marietta",
    "state": "GA",
    "zip_code": "30060",
    "latitude": 33.9534273,
    "longitude": -84.5499317,
    "website": "http://wrsocialhouse.com/",
    "category": "Bar & Restaurant",
    "types": "bar, restaurant, food, point_of_interest, establishment"
  },
  {
    "place_id": "ChIJc01IoWAL9YgRjm2Ks0pLhIQ",
    "name": "North River Tavern",
    "street_address": "8879 Roswell Road",
    "city": "Sandy Springs",
    "state": "GA",
    "zip_code": "30350",
    "latitude": 34.00117300000001,
    "longitude": -84.3500306,
    "website": "https://www.northrivertavern.com/",
    "category": "Bar & Restaurant",
    "types": "bar, restaurant, food, point_of_interest, establishment"
  },
  {
    "place_id": "ChIJ_5Nj1KwM9YgRH6_QTPwbMn4",
    "name": "Mac McGee",
    "street_address": "936 Canton Street",
    "city": "Roswell",
    "state": "GA",
    "zip_code": "30076",
    "latitude": 34.0240222,
    "longitude": -84.3616567,
    "website": "https://macmcgeepubs.com/",
    "category": "Bar & Restaurant",
    "types": "bar, restaurant, food, point_of_interest, establishment"
  },
  {
    "place_id": "ChIJPRR3K1Nz9YgRMkP7DBdV8fQ",
    "name": "1920 Tavern",
    "street_address": "948 Canton Street",
    "city": "Roswell",
    "state": "GA",
    "zip_code": "30075",
    "latitude": 34.0243836,
    "longitude": -84.3615985,
    "website": "http://1920tavern.com/",
    "category": "Bar & Restaurant",
    "types": "bar, restaurant, point_of_interest, food, establishment"
  },
  {
    "place_id": "ChIJmR1NBI9z9YgRF2wagIdlkO8",
    "name": "Loyal Tavern",
    "street_address": "950 Canton Street",
    "city": "Roswell",
    "state": "GA",
    "zip_code": "30075",
    "latitude": 34.024452,
    "longitude": -84.36166,
    "website": "http://loyaltavern.com/",
    "category": "Bar & Restaurant",
    "types": "bar, restaurant, point_of_interest, food, establishment"
  },
  {
    "place_id": "ChIJ4_Jx3a8M9YgR1UaVpfdzQCQ",
    "name": "The Mill Kitchen and Bar",
    "street_address": "590 Mimosa Boulevard",
    "city": "Roswell",
    "state": "GA",
    "zip_code": "30075",
    "latitude": 34.014732,
    "longitude": -84.3639735,
    "website": "http://themillkitchenandbar.com/",
    "category": "Bar & Restaurant",
    "types": "bar, restaurant, food, point_of_interest, establishment"
  },
  {
    "place_id": "ChIJH7BSoN909YgRqnfLMR7bMbo",
    "name": "Miller's Ale House",
    "street_address": "10750 Davis Drive",
    "city": "Alpharetta",
    "state": "GA",
    "zip_code": "30009",
    "latitude": 34.0419917,
    "longitude": -84.3139229,
    "website": "https://millersalehouse.com/locations/alpharetta/?utm_source=gmb&utm_medium=organic",
    "category": "Bar & Restaurant",
    "types": "restaurant, bar, meal_takeaway, food, point_of_interest, establishment"
  },
  {
    "place_id": "ChIJie3FcVFz9YgRaQu8EY6fFhg",
    "name": "North End Kitchen & Bar",
    "street_address": "1170 Canton Street",
    "city": "Roswell",
    "state": "GA",
    "zip_code": "30075",
    "latitude": 34.03048,
    "longitude": -84.361696,
    "website": "https://northendkitchen.com/",
    "category": "Bar & Restaurant",
    "types": "bar, restaurant, food, point_of_interest, establishment"
  },
  {
    "place_id": "ChIJN8YRj68M9YgRjm_HhrGZ8b0",
    "name": "Chaplins Bar and Grill",
    "street_address": "555 South Atlanta Street",
    "city": "Roswell",
    "state": "GA",
    "zip_code": "30075",
    "latitude": 34.0131017,
    "longitude": -84.36227810000001,
    "website": "http://www.chaplinsbarandgrill.com/",
    "category": "Bar & Restaurant",
    "types": "bar, restaurant, food, point_of_interest, establishment"
  },
  {
    "place_id": "ChIJPRR3K1Nz9YgRN9r-arnNl0U",
    "name": "Salt Factory Pub - Roswell",
    "street_address": "952 Canton Street",
    "city": "Roswell",
    "state": "GA",
    "zip_code": "30075",
    "latitude": 34.0245707,
    "longitude": -84.3616976,
    "website": "http://saltfactorypub.com/",
    "category": "Bar & Restaurant",
    "types": "bar, restaurant, food, point_of_interest, establishment"
  },
  {
    "place_id": "ChIJSU1halNz9YgRoS3l1wn7zmc",
    "name": "Standard at Roswell",
    "street_address": "994 Alpharetta Street",
    "city": "Roswell",
    "state": "GA",
    "zip_code": "30075",
    "latitude": 34.0256238,
    "longitude": -84.3605898,
    "website": "https://standardrestaurantgroup.com/roswell/",
    "category": "Bar & Restaurant",
    "types": "restaurant, meal_takeaway, bar, food, point_of_interest, establishment"
  },
  {
    "place_id": "ChIJp3MgIL8N9YgRVr0_a06qxM8",
    "name": "Proper Hop Taphouse",
    "street_address": "587 Atlanta Street",
    "city": "Roswell",
    "state": "GA",
    "zip_code": "30075",
    "latitude": 34.0148204,
    "longitude": -84.362561,
    "website": "http://www.properhoptaphouse.com/",
    "category": "Bar & Restaurant",
    "types": "bar, restaurant, food, point_of_interest, establishment"
  },
  {
    "place_id": "ChIJozKrXwB19YgRThzb25wxj4g",
    "name": "Voodoo Brewing Co - Roswell, GA",
    "street_address": "1010 Mansell Road",
    "city": "Roswell",
    "state": "GA",
    "zip_code": "30076",
    "latitude": 34.0429995,
    "longitude": -84.3273512,
    "website": "https://roswell.voodoobrewery.com/",
    "category": "Bar & Restaurant",
    "types": "bar, restaurant, food, point_of_interest, establishment"
  },
  {
    "place_id": "ChIJo4jybg5z9YgRtSyf_4iDXZg",
    "name": "Marlow's Tavern",
    "street_address": "625 West Crossville Road",
    "city": "Roswell",
    "state": "GA",
    "zip_code": "30075",
    "latitude": 34.060286,
    "longitude": -84.38135799999999,
    "website": "https://www.marlowstavern.com/georgia/roswell",
    "category": "Bar & Restaurant",
    "types": "beauty_salon, bar, restaurant, food, point_of_interest, establishment"
  },
  {
    "place_id": "ChIJyYNk0NJz9YgRHS-eV5cLhts",
    "name": "Lola's Burger & Tequila Bar",
    "street_address": "944 Canton Street",
    "city": "Roswell",
    "state": "GA",
    "zip_code": "30075",
    "latitude": 34.0242296,
    "longitude": -84.3615962,
    "website": "https://lolasburgerbar.com/",
    "category": "Restaurant",
    "types": "restaurant, food, point_of_interest, establishment"
  },
  {
    "place_id": "ChIJKfZQi7Z09YgR5K2-6ZAelBA",
    "name": "Brookwood Grill",
    "street_address": "880 Holcomb Bridge Road",
    "city": "Roswell",
    "state": "GA",
    "zip_code": "30076",
    "latitude": 34.0291558,
    "longitude": -84.3357505,
    "website": "http://brookwoodgrill.com/",
    "category": "Restaurant",
    "types": "restaurant, food, point_of_interest, establishment"
  },
  {
    "place_id": "ChIJZZatiSoL9YgRs__LcCvZLB0",
    "name": "From the Earth Brewing Company",
    "street_address": "1570 Holcomb Bridge Road",
    "city": "Roswell",
    "state": "GA",
    "zip_code": "30076",
    "latitude": 34.0197289,
    "longitude": -84.3128428,
    "website": "https://www.ftebrewing.com/",
    "category": "Bar & Restaurant",
    "types": "bar, restaurant, food, point_of_interest, establishment"
  },
  {
    "place_id": "ChIJEdgAoLx09YgRZO-Kc3A7PBQ",
    "name": "Mazzy's Sports Bar & Grill (Roswell)",
    "street_address": "10729 Alpharetta Highway",
    "city": "Roswell",
    "state": "GA",
    "zip_code": "30076",
    "latitude": 34.0404213,
    "longitude": -84.34058619999999,
    "website": "http://www.mazzys.com/",
    "category": "Bar & Restaurant",
    "types": "bar, restaurant, food, point_of_interest, establishment"
  },
  {
    "place_id": "ChIJsxomE1Zz9YgRPfwMD_cvyJw",
    "name": "Lucky's Burger & Brew",
    "street_address": "1144 Alpharetta Street",
    "city": "Roswell",
    "state": "GA",
    "zip_code": "30075",
    "latitude": 34.0301486,
    "longitude": -84.3555104,
    "website": "http://www.luckysburgerandbrew.com/",
    "category": "Bar & Restaurant",
    "types": "bar, restaurant, food, point_of_interest, establishment"
  },
  {
    "place_id": "ChIJr4FQrSNz9YgRh8KSEMyp--0",
    "name": "The Vick On Canton",
    "street_address": "1182 Canton Street",
    "city": "Roswell",
    "state": "GA",
    "zip_code": "30075",
    "latitude": 34.0309595,
    "longitude": -84.3617539,
    "website": "http://thevickatl.com/",
    "category": "Bar & Restaurant",
    "types": "restaurant, cafe, bar, store, food, point_of_interest, establishment"
  },
  {
    "place_id": "ChIJ0dJM5XwL9YgRMmOASRelHio",
    "name": "Three Dollar Cafe Dunwoody (Northridge)",
    "street_address": "8595 Roswell Road Northeast",
    "city": "Atlanta",
    "state": "GA",
    "zip_code": "30350",
    "latitude": 33.98843890000001,
    "longitude": -84.3510087,
    "website": "http://threedollarcafe.com/",
    "category": "Bar & Restaurant",
    "types": "cafe, bar, restaurant, food, point_of_interest, establishment"
  },
  {
    "place_id": "ChIJLcZmK1Nz9YgRfnoRyZpLrr4",
    "name": "Roux On Canton",
    "street_address": "946 Canton Street",
    "city": "Roswell",
    "state": "GA",
    "zip_code": "30075",
    "latitude": 34.02429040000001,
    "longitude": -84.3616803,
    "website": "http://rouxoncanton.com/",
    "category": "Bar & Restaurant",
    "types": "bar, restaurant, food, point_of_interest, establishment"
  },
  {
    "place_id": "ChIJW05n7z0N9YgR5BYIG9VxBB0",
    "name": "Rock N Taco Roswell",
    "street_address": "928 Canton Street",
    "city": "Roswell",
    "state": "GA",
    "zip_code": "30075",
    "latitude": 34.0237007,
    "longitude": -84.36168579999999,
    "website": "http://www.therockntaco.com/",
    "category": "Bar & Restaurant",
    "types": "restaurant, bar, food, point_of_interest, establishment"
  },
  {
    "place_id": "ChIJccAIMVNz9YgRV-wJwjorVhg",
    "name": "Zest",
    "street_address": "957 Canton Street",
    "city": "Roswell",
    "state": "GA",
    "zip_code": "30075",
    "latitude": 34.0247572,
    "longitude": -84.3614128,
    "website": "https://www.zestoncantonstreet.com/",
    "category": "Bar & Restaurant",
    "types": "bar, restaurant, food, point_of_interest, establishment"
  },
  {
    "place_id": "ChIJ88u9A1pz9YgRNpdulKTE2Eo",
    "name": "Canton St. Social",
    "street_address": "14 Elizabeth Way",
    "city": "Roswell",
    "state": "GA",
    "zip_code": "30075",
    "latitude": 34.024313,
    "longitude": -84.36107899999999,
    "website": "https://www.cantonstsocial.com/",
    "category": "Bar & Restaurant",
    "types": "bar, restaurant, food, point_of_interest, establishment"
  },
  {
    "place_id": "ChIJo1P2bzNz9YgRqe0IFtUaEQg",
    "name": "Pinkies Up Beer and Wine",
    "street_address": "30 East Crossville Road",
    "city": "Roswell",
    "state": "GA",
    "zip_code": "30075",
    "latitude": 34.0472497,
    "longitude": -84.3595698,
    "website": "http://www.pinkiesupbw.com/",
    "category": "Bar & Restaurant",
    "types": "liquor_store, bar, restaurant, food, point_of_interest, store, establishment"
  },
  {
    "place_id": "ChIJPxmYNx919YgRi9Oq0u19Q08",
    "name": "Topgolf Alpharetta",
    "street_address": "10900 Westside Parkway",
    "city": "Alpharetta",
    "state": "GA",
    "zip_code": "30009",
    "latitude": 34.0448269,
    "longitude": -84.3085054,
    "website": "https://topgolf.com/us/alpharetta/",
    "category": "Bar & Restaurant",
    "types": "restaurant, bar, food, point_of_interest, health, establishment"
  },
  {
    "place_id": "ChIJ4X-EEKh19YgRVQE9JDdpJ5c",
    "name": "Bad Daddy's Burger Bar",
    "street_address": "10800 Alpharetta Highway",
    "city": "Roswell",
    "state": "GA",
    "zip_code": "30076",
    "latitude": 34.043569,
    "longitude": -84.3433349,
    "website": "https://www.baddaddysburgerbar.com/locations/bad-daddys-burger-bar-roswell",
    "category": "Bar & Restaurant",
    "types": "bar, restaurant, food, point_of_interest, establishment"
  }
]