[
  {
    "place_id": "ChIJQyfp5wm1RIYRuYHlan7PCQs",
    "name": "Upstairs at Caroline",
    "street_address": "109 East 7th Street",
    "city": "Austin",
    "state": "TX",
    "zip_code": "78701",
    "latitude": 30.2686635,
    "longitude": -97.7420691,
    "website": "https://www.carolinerestaurant.com/upstairs-at-caroline?utm_source=google&utm_medium=organic&utm_campaign=business_listing",
    "category": "Bar & Restaurant",
    "types": "bar, restaurant, food, point_of_interest, establishment"
  },
  {
    "place_id": "ChIJKXF6xXO1RIYRm1Mk86PvJak",
    "name": "The Pub",
    "street_address": "214 West 4th Street",
    "city": "Austin",
    "state": "TX",
    "zip_code": "78701",
    "latitude": 30.2669961,
    "longitude": -97.7453625,
    "website": "http://thepubatx.com/",
    "category": "Bar & Restaurant",
    "types": "bar, restaurant, food, point_of_interest, establishment"
  },
  {
    "place_id": "ChIJW3sENn-1RIYRGjtbjA74zn0",
    "name": "The Dead Rabbit, Austin",
    "street_address": "204 East 6th Street",
    "city": "Austin",
    "state": "TX",
    "zip_code": "78701",
    "latitude": 30.26772069999999,
    "longitude": -97.7411286,
    "website": "https://thedeadrabbit.com/?utm_source=google_business_profile&utm_medium=gbp_view_website&utm_campaign=google_business_profile",
    "category": "Bar & Restaurant",
    "types": "bar, restaurant, point_of_interest, food, establishment"
  },
  {
    "place_id": "ChIJxcCceAi1RIYR9AqXT8eWDyc",
    "name": "Corner Restaurant",
    "street_address": "110 East 2nd Street",
    "city": "Austin",
    "state": "TX",
    "zip_code": "78701",
    "latitude": 30.2645703,
    "longitude": -97.7438317,
    "website": "https://www.cornerrestaurantaustin.com/?utm_source=google&utm_medium=organic&utm_campaign=business_listing",
    "category": "Bar & Restaurant",
    "types": "restaurant, bar, food, point_of_interest, establishment"
  },
  {
    "place_id": "ChIJAysW9qe1RIYRnKIB5zCoa2E",
    "name": "Bouldin Acres",
    "street_address": "2027 South Lamar Boulevard",
    "city": "Austin",
    "state": "TX",
    "zip_code": "78704",
    "latitude": 30.2482149,
    "longitude": -97.76864479999999,
    "website": "http://bouldinacres.com/",
    "category": "Bar & Restaurant",
    "types": "bar, restaurant, point_of_interest, food, establishment"
  },
  {
    "place_id": "ChIJV4Bx_di0RIYRypD5mgDrIoA",
    "name": "Black Sheep Lodge",
    "street_address": "2108 South Lamar Boulevard",
    "city": "Austin",
    "state": "TX",
    "zip_code": "78704",
    "latitude": 30.2483722,
    "longitude": -97.7711278,
    "website": "http://www.blacksheeplodge.com/",
    "category": "Bar & Restaurant",
    "types": "bar, restaurant, point_of_interest, food, establishment"
  },
  {
    "place_id": "ChIJlSUzQ4S1RIYRbLP0LUrWPiw",
    "name": "Posse East",
    "street_address": "2900 Duval Street",
    "city": "Austin",
    "state": "TX",
    "zip_code": "78705",
    "latitude": 30.2913921,
    "longitude": -97.7347072,
    "website": "http://www.posseeast.com/",
    "category": "Bar & Restaurant",
    "types": "bar, restaurant, food, point_of_interest, establishment"
  },
  {
    "place_id": "ChIJzTkDkai1RIYR9PpN5L6zHD0",
    "name": "Moonshine Grill",
    "street_address": "303 Red River Street",
    "city": "Austin",
    "state": "TX",
    "zip_code": "78701",
    "latitude": 30.2637562,
    "longitude": -97.7380259,
    "website": "http://www.moonshinegrill.com/",
    "category": "Bar & Restaurant",
    "types": "bar, restaurant, food, point_of_interest, establishment"
  },
  {
    "place_id": "ChIJKaWPOsS1RIYRgsOYPQjX0Zs",
    "name": "Frazier's Long & Low",
    "street_address": "2538 Elmont Drive",
    "city": "Austin",
    "state": "TX",
    "zip_code": "78741",
    "latitude": 30.2393217,
    "longitude": -97.71983929999999,
    "website": "http://www.fraziersbar.com/",
    "category": "Bar & Restaurant",
    "types": "bar, restaurant, point_of_interest, food, establishment"
  },
  {
    "place_id": "ChIJYYwdDIS1RIYR-X_xPdANlfk",
    "name": "Crown & Anchor Pub",
    "street_address": "2911 San Jacinto Boulevard",
    "city": "Austin",
    "state": "TX",
    "zip_code": "78705",
    "latitude": 30.2925013,
    "longitude": -97.7356368,
    "website": "http://www.crownandanchorpub.com/",
    "category": "Bar & Restaurant",
    "types": "bar, restaurant, food, point_of_interest, establishment"
  },
  {
    "place_id": "ChIJ2zs563K1RIYRjjycoAPyT1E",
    "name": "The Tavern",
    "street_address": "922 West 12th Street",
    "city": "Austin",
    "state": "TX",
    "zip_code": "78703",
    "latitude": 30.277075,
    "longitude": -97.7511169,
    "website": "http://www.tavernaustin.com/",
    "category": "Bar & Restaurant",
    "types": "bar, restaurant, food, point_of_interest, establishment"
  },
  {
    "place_id": "ChIJWyzDNbe1RIYRQYsW6rGnggM",
    "name": "White Tiger",
    "street_address": "1321 South Congress Avenue",
    "city": "Austin",
    "state": "TX",
    "zip_code": "78704",
    "latitude": 30.2503133,
    "longitude": -97.7491185,
    "website": null,
    "category": "Bar & Restaurant",
    "types": "bar, restaurant, food, point_of_interest, establishment"
  },
  {
    "place_id": "ChIJy7DAoe21RIYR8g_OUyJeW6w",
    "name": "Lou's Barton Springs",
    "street_address": "1608 Barton Springs Road",
    "city": "Austin",
    "state": "TX",
    "zip_code": "78704",
    "latitude": 30.2624471,
    "longitude": -97.7616614,
    "website": "https://lousaustin.com/",
    "category": "Bar & Restaurant",
    "types": "bar, restaurant, food, point_of_interest, establishment"
  },
  {
    "place_id": "ChIJH5NqBIC1RIYRW-84tXdUYV8",
    "name": "Hopfields",
    "street_address": "3110 Guadalupe Street",
    "city": "Austin",
    "state": "TX",
    "zip_code": "78705",
    "latitude": 30.2985231,
    "longitude": -97.7409648,
    "website": "http://hopfieldsaustin.com/",
    "category": "Bar & Restaurant",
    "types": "bar, restaurant, food, point_of_interest, establishment"
  },
  {
    "place_id": "ChIJ9X4h5Vi0RIYRvztzx5pbZCU",
    "name": "Whip in",
    "street_address": "1950 South Interstate 35 Frontage Road",
    "city": "Austin",
    "state": "TX",
    "zip_code": "78704",
    "latitude": 30.2380576,
    "longitude": -97.7394478,
    "website": "https://whipin.com/",
    "category": "Bar & Restaurant",
    "types": "convenience_store, liquor_store, bar, store, restaurant, food, point_of_interest, establishment"
  },
  {
    "place_id": "ChIJrS3m3_i1RIYR1W5mi2PlZYI",
    "name": "B.D. Riley's Irish Pub at Mueller",
    "street_address": "1905 Aldrich Street",
    "city": "Austin",
    "state": "TX",
    "zip_code": "78723",
    "latitude": 30.29820429999999,
    "longitude": -97.7050625,
    "website": "https://bdrileys.com/",
    "category": "Bar & Restaurant",
    "types": "bar, restaurant, food, point_of_interest, establishment"
  },
  {
    "place_id": "ChIJqeQrKAS1RIYRqNjvY4sWv8Q",
    "name": "Marker 10 Spirits & Cuisine",
    "street_address": "208 Barton Springs Road",
    "city": "Austin",
    "state": "TX",
    "zip_code": "78704",
    "latitude": 30.2608535,
    "longitude": -97.7468198,
    "website": "https://www.hyatt.com/en-US/hotel/texas/hyatt-regency-austin/ausra/dining?src=prop_misc_ausra_other_google-bus_m10",
    "category": "Bar & Restaurant",
    "types": "bar, meal_takeaway, restaurant, food, point_of_interest, establishment"
  },
  {
    "place_id": "ChIJ44YMYae1RIYR2BeEz44Rm8A",
    "name": "The Driskill Bar",
    "street_address": "604 Brazos Street",
    "city": "Austin",
    "state": "TX",
    "zip_code": "78701",
    "latitude": 30.2685378,
    "longitude": -97.7416331,
    "website": "https://driskillhotel.com/dining/the-driskill-bar/",
    "category": "Bar & Restaurant",
    "types": "bar, restaurant, food, point_of_interest, establishment"
  },
  {
    "place_id": "ChIJf0ia8-y1RIYR-xO1mwc4hpo",
    "name": "Haymaker",
    "street_address": "2310 Manor Road",
    "city": "Austin",
    "state": "TX",
    "zip_code": "78722",
    "latitude": 30.28482349999999,
    "longitude": -97.71758559999999,
    "website": "http://www.haymakeraustin.com/",
    "category": "Bar & Restaurant",
    "types": "bar, restaurant, food, point_of_interest, establishment"
  },
  {
    "place_id": "ChIJsdixM1CzRIYRqib6RW0vgww",
    "name": "The Little Darlin'",
    "street_address": "6507 Circle South Road",
    "city": "Austin",
    "state": "TX",
    "zip_code": "78745",
    "latitude": 30.1945091,
    "longitude": -97.7767964,
    "website": "http://thelittledarlin.com/",
    "category": "Restaurant",
    "types": "restaurant, point_of_interest, food, establishment"
  },
  {
    "place_id": "ChIJwxc_DA5LW4YREZAiRsXfdJg",
    "name": "Doc's Backyard Grill",
    "street_address": "5207 Brodie Lane",
    "city": "Sunset Valley",
    "state": "TX",
    "zip_code": "78745",
    "latitude": 30.2306656,
    "longitude": -97.8178276,
    "website": "https://www.eatdrinkdocs.com/",
    "category": "Bar & Restaurant",
    "types": "bar, restaurant, food, point_of_interest, establishment"
  },
  {
    "place_id": "ChIJvxjQnau0RIYR1VaBXGLqsmM",
    "name": "Rusty Cannon Pub",
    "street_address": "730 West Stassney Lane",
    "city": "Austin",
    "state": "TX",
    "zip_code": "78745",
    "latitude": 30.2099851,
    "longitude": -97.7825099,
    "website": null,
    "category": "Bar & Restaurant",
    "types": "bar, restaurant, food, point_of_interest, establishment"
  },
  {
    "place_id": "ChIJg0X4XctNW4YRDOV1NQEvFdc",
    "name": "Five Four Restaurant & Drafthouse- S Austin",
    "street_address": "127 Ralph Ablanedo Drive",
    "city": "Austin",
    "state": "TX",
    "zip_code": "78745",
    "latitude": 30.17267009999999,
    "longitude": -97.7833793,
    "website": "https://www.54thstreetrestaurants.com/",
    "category": "Restaurant",
    "types": "restaurant, food, point_of_interest, establishment"
  },
  {
    "place_id": "ChIJ__9PNnFMW4YRjKITXe7hPw0",
    "name": "Vincent's",
    "street_address": "8916 Brodie Lane",
    "city": "Austin",
    "state": "TX",
    "zip_code": "78748",
    "latitude": 30.1947343,
    "longitude": -97.84350719999999,
    "website": "http://www.vincentspub.com/",
    "category": "Bar & Restaurant",
    "types": "meal_takeaway, bar, restaurant, point_of_interest, food, establishment"
  },
  {
    "place_id": "ChIJWRLOz12zRIYR9W91cTeM36I",
    "name": "Twin Peaks",
    "street_address": "701 East Stassney Lane",
    "city": "Austin",
    "state": "TX",
    "zip_code": "78745",
    "latitude": 30.198867,
    "longitude": -97.7662081,
    "website": "https://twinpeaksrestaurant.com/locations/austin-stassney-tx",
    "category": "Bar & Restaurant",
    "types": "bar, restaurant, food, point_of_interest, establishment"
  },
  {
    "place_id": "ChIJwR0TUtZMW4YR9TA7L3qhUe4",
    "name": "Waterloo Ice House Southpark Meadows",
    "street_address": "9600 South Interstate 35 Frontage Road",
    "city": "Austin",
    "state": "TX",
    "zip_code": "78748",
    "latitude": 30.1614614,
    "longitude": -97.79252090000001,
    "website": "https://www.waterlooicehouse.com/",
    "category": "Bar & Restaurant",
    "types": "bar, restaurant, food, point_of_interest, establishment"
  },
  {
    "place_id": "ChIJsfWaSN5NW4YRvj-_2VeGsyA",
    "name": "Brick\u2019s Pub",
    "street_address": "1807 West Slaughter Lane",
    "city": "Austin",
    "state": "TX",
    "zip_code": "78748",
    "latitude": 30.1710086,
    "longitude": -97.8242334,
    "website": "https://www.bricktopspub.com/",
    "category": "Bar & Restaurant",
    "types": "bar, restaurant, food, point_of_interest, establishment"
  },
  {
    "place_id": "ChIJoU8waFyzRIYRGVNelvfbKQ4",
    "name": "Buffalo Wild Wings",
    "street_address": "901 Little Texas Lane",
    "city": "Austin",
    "state": "TX",
    "zip_code": "78745",
    "latitude": 30.1968765,
    "longitude": -97.7677612,
    "website": "https://www.buffalowildwings.com/locations/us/tx/austin/901-little-texas-ln/sports-bar-1307?utm_source=google%20my%20business&utm_medium=organic&utm_campaign=website%20link",
    "category": "Bar & Restaurant",
    "types": "meal_takeaway, bar, restaurant, food, point_of_interest, establishment"
  },
  {
    "place_id": "ChIJs6-KANy0RIYRRTcMhnhoFaE",
    "name": "The Austin Beer Garden Brewing Co.",
    "street_address": "1305 West Oltorf Street",
    "city": "Austin",
    "state": "TX",
    "zip_code": "78704",
    "latitude": 30.24533009999999,
    "longitude": -97.7688939,
    "website": "http://www.theabgb.com/",
    "category": "Bar & Restaurant",
    "types": "bar, restaurant, food, point_of_interest, establishment"
  },
  {
    "place_id": "ChIJO4jOvfxNW4YRcfOQ2vtvO5s",
    "name": "Wicked Wings South Austin",
    "street_address": "615 West Slaughter Lane",
    "city": "Austin",
    "state": "TX",
    "zip_code": "78748",
    "latitude": 30.1724302,
    "longitude": -97.80122990000001,
    "website": "https://m.facebook.com/Wicked-Wings-Slaughter-231941207482671/",
    "category": "Bar & Restaurant",
    "types": "restaurant, bar, food, point_of_interest, establishment"
  },
  {
    "place_id": "ChIJf0QRHKRNW4YRLPaxTpf0JfE",
    "name": "Golden Hour Cafe & Wine Bar",
    "street_address": "7731 Menchaca Road",
    "city": "Austin",
    "state": "TX",
    "zip_code": "78745",
    "latitude": 30.1937568,
    "longitude": -97.8106832,
    "website": "http://www.goldenhouratx.com/",
    "category": "Bar & Restaurant",
    "types": "cafe, liquor_store, bar, store, restaurant, food, point_of_interest, establishment"
  },
  {
    "place_id": "ChIJn8euM61NW4YRgFyyd0snEjA",
    "name": "Armadillo Den",
    "street_address": "10106 Menchaca Road",
    "city": "Austin",
    "state": "TX",
    "zip_code": "78748",
    "latitude": 30.17033039999999,
    "longitude": -97.8261086,
    "website": "https://armadillodenaustin.com/",
    "category": "Bar & Restaurant",
    "types": "bar, restaurant, food, point_of_interest, establishment"
  },
  {
    "place_id": "ChIJZ4J8QEOzRIYRs9G-x9urvE8",
    "name": "Applebee's Grill + Bar",
    "street_address": "6315 South Interstate 35 Frontage Road",
    "city": "Austin",
    "state": "TX",
    "zip_code": "78744",
    "latitude": 30.1928484,
    "longitude": -97.7674516,
    "website": "https://restaurants.applebees.com/en-us/tx/austin/6315-s-interstate-highway-35-80001?utm_source=google&utm_medium=organic&utm_campaign=google_my_business&utm_term=80001&utm_content=website",
    "category": "Bar & Restaurant",
    "types": "restaurant, bar, food, point_of_interest, establishment"
  },
  {
    "place_id": "ChIJJbL3Qji1RIYRmEzR1Md8VLY",
    "name": "Murray's Tavern",
    "street_address": "2316 Webberville Road",
    "city": "Austin",
    "state": "TX",
    "zip_code": "78702",
    "latitude": 30.262685,
    "longitude": -97.7154072,
    "website": "https://murraysaustin.com/",
    "category": "Restaurant",
    "types": "restaurant, food, point_of_interest, establishment"
  },
  {
    "place_id": "ChIJHa8koQ61RIYRDD-niQj3Y3w",
    "name": "Little Woodrow's West 6th",
    "street_address": "520 West 6th Street",
    "city": "Austin",
    "state": "TX",
    "zip_code": "78701",
    "latitude": 30.26975839999999,
    "longitude": -97.7481007,
    "website": "https://littlewoodrows.com/locations/west-6th/",
    "category": "Bar & Restaurant",
    "types": "bar, restaurant, food, point_of_interest, establishment"
  },
  {
    "place_id": "ChIJzRuHv3bKRIYR641mvIAp4-c",
    "name": "Hyde Park Bar & Grill",
    "street_address": "4206 Duval Street",
    "city": "Austin",
    "state": "TX",
    "zip_code": "78751",
    "latitude": 30.3042176,
    "longitude": -97.72667399999999,
    "website": "http://hpbng.com/",
    "category": "Bar & Restaurant",
    "types": "bar, restaurant, food, point_of_interest, establishment"
  },
  {
    "place_id": "ChIJ3ZkkpT-3RIYRQjO_3dhOLxw",
    "name": "The Front Page",
    "street_address": "1023 Springdale Road",
    "city": "Austin",
    "state": "TX",
    "zip_code": "78721",
    "latitude": 30.2674175,
    "longitude": -97.6938615,
    "website": "https://www.thefrontpage.pub/",
    "category": "Bar & Restaurant",
    "types": "restaurant, bar, food, point_of_interest, establishment"
  },
  {
    "place_id": "ChIJgS3Mxba1RIYRn89uoQtahTY",
    "name": "Yellow Jacket Social Club",
    "street_address": "1704 East 5th Street",
    "city": "Austin",
    "state": "TX",
    "zip_code": "78702",
    "latitude": 30.26172739999999,
    "longitude": -97.72463479999999,
    "website": "http://www.theyellowjacketsocialclub.com/",
    "category": "Bar & Restaurant",
    "types": "restaurant, bar, food, point_of_interest, establishment"
  },
  {
    "place_id": "ChIJL93NWA21RIYRYMu8fYt490M",
    "name": "Shoal Creek Saloon",
    "street_address": "909 North Lamar Boulevard",
    "city": "Austin",
    "state": "TX",
    "zip_code": "78703",
    "latitude": 30.2742389,
    "longitude": -97.7523528,
    "website": "http://www.shoalcreeksaloon.com/",
    "category": "Bar & Restaurant",
    "types": "bar, restaurant, point_of_interest, food, establishment"
  },
  {
    "place_id": "ChIJl3fmDgS1RIYRn7I4OdQsOnw",
    "name": "Aussie's",
    "street_address": "306 Barton Springs Road",
    "city": "Austin",
    "state": "TX",
    "zip_code": "78704",
    "latitude": 30.25895670000001,
    "longitude": -97.7481954,
    "website": "http://www.aussiesaustin.com/",
    "category": "Bar & Restaurant",
    "types": "bar, restaurant, food, point_of_interest, establishment"
  },
  {
    "place_id": "ChIJ2bQ4lIY1W4YRq6CVPipK_Cs",
    "name": "County Line",
    "street_address": "6500 Bee Caves Road",
    "city": "Austin",
    "state": "TX",
    "zip_code": "78746",
    "latitude": 30.2975856,
    "longitude": -97.8358839,
    "website": "http://www.countyline.com/",
    "category": "Bar & Restaurant",
    "types": "bar, restaurant, food, point_of_interest, establishment"
  },
  {
    "place_id": "ChIJYU6LYda1RIYRmqEpTOaw5XQ",
    "name": "Uptown Sports Club",
    "street_address": "1200 East 6th Street",
    "city": "Austin",
    "state": "TX",
    "zip_code": "78702",
    "latitude": 30.264495,
    "longitude": -97.730284,
    "website": "http://uptownsports.club/",
    "category": "Bar & Restaurant",
    "types": "bar, restaurant, food, point_of_interest, establishment"
  },
  {
    "place_id": "ChIJ20zQ16u1RIYRHXxs8v4BacY",
    "name": "Banger's Sausage House & Beer Garden",
    "street_address": "79 Rainey Street",
    "city": "Austin",
    "state": "TX",
    "zip_code": "78701",
    "latitude": 30.2589511,
    "longitude": -97.7385214,
    "website": "http://www.bangersaustin.com/",
    "category": "Bar & Restaurant",
    "types": "bar, restaurant, point_of_interest, food, establishment"
  },
  {
    "place_id": "ChIJiwdYeae1RIYRQmltbCQ80Mc",
    "name": "Friends Bar",
    "street_address": "208 East 6th Street",
    "city": "Austin",
    "state": "TX",
    "zip_code": "78701",
    "latitude": 30.2676767,
    "longitude": -97.7409976,
    "website": "http://www.friendsbar.com/",
    "category": "Bar & Restaurant",
    "types": "bar, restaurant, food, point_of_interest, establishment"
  },
  {
    "place_id": "ChIJIeohJQm1RIYRG-NyRBlsnuw",
    "name": "The Roosevelt Room",
    "street_address": "307 West 5th Street",
    "city": "Austin",
    "state": "TX",
    "zip_code": "78701",
    "latitude": 30.2677886,
    "longitude": -97.74627729999999,
    "website": "http://www.therooseveltroomatx.com/",
    "category": "Bar & Restaurant",
    "types": "bar, restaurant, food, point_of_interest, establishment"
  },
  {
    "place_id": "ChIJi0ZEZwi1RIYRSpGdWA3gZiI",
    "name": "Mort Subite Belgian Beer Bar",
    "street_address": "308 Congress Avenue",
    "city": "Austin",
    "state": "TX",
    "zip_code": "78701",
    "latitude": 30.265718,
    "longitude": -97.7439904,
    "website": null,
    "category": "Bar & Restaurant",
    "types": "bar, restaurant, food, point_of_interest, establishment"
  },
  {
    "place_id": "ChIJz0VP7Ke1RIYRMCTWwLcB35Q",
    "name": "Champions Austin Restaurant & Bar",
    "street_address": "300 East 4th Street",
    "city": "Austin",
    "state": "TX",
    "zip_code": "78701",
    "latitude": 30.2655444,
    "longitude": -97.7401793,
    "website": "https://www.championsrestaurantatx.com/?utm_source=google&utm_medium=organic&utm_campaign=business_listing",
    "category": "Bar & Restaurant",
    "types": "bar, restaurant, point_of_interest, food, establishment"
  },
  {
    "place_id": "ChIJh9llkWy1RIYRWGVFHRDXv98",
    "name": "Foxy's Proper Pub",
    "street_address": "201 Brazos Street",
    "city": "Austin",
    "state": "TX",
    "zip_code": "78701",
    "latitude": 30.2642743,
    "longitude": -97.7425402,
    "website": "https://www.foxysproperpub.com/",
    "category": "Bar & Restaurant",
    "types": "bar, restaurant, food, point_of_interest, establishment"
  },
  {
    "place_id": "ChIJv1KpvLC1RIYRxITBkRCSwss",
    "name": "Postino South Lamar",
    "street_address": "1301 South Lamar Boulevard",
    "city": "Austin",
    "state": "TX",
    "zip_code": "78704",
    "latitude": 30.2537506,
    "longitude": -97.762278,
    "website": "https://www.postinowinecafe.com/locations/postino-south-lamar?utm_source=Google&utm_medium=Listing_CTA&utm_campaign=Google&utm_content=South_Lamar",
    "category": "Bar & Restaurant",
    "types": "bar, restaurant, food, point_of_interest, establishment"
  },
  {
    "place_id": "ChIJwd-t5ge1RIYRfg8ZQBcWbYE",
    "name": "Cedar Door Patio Bar & Grill",
    "street_address": "201 Brazos Street",
    "city": "Austin",
    "state": "TX",
    "zip_code": "78701",
    "latitude": 30.2640927,
    "longitude": -97.7425827,
    "website": "http://www.cedardooraustin.com/",
    "category": "Bar & Restaurant",
    "types": "bar, restaurant, food, point_of_interest, establishment"
  },
  {
    "place_id": "ChIJUx3pXfu0RIYRHYxsf5OVPMw",
    "name": "June's",
    "street_address": "1722 South Congress Avenue",
    "city": "Austin",
    "state": "TX",
    "zip_code": "78704",
    "latitude": 30.2462863,
    "longitude": -97.751199,
    "website": "http://junesallday.com/",
    "category": "Bar & Restaurant",
    "types": "bar, restaurant, food, point_of_interest, establishment"
  },
  {
    "place_id": "ChIJEVl8mr21RIYRk51Kelb4bpA",
    "name": "BBG'S",
    "street_address": "214 East 6th Street",
    "city": "Austin",
    "state": "TX",
    "zip_code": "78701",
    "latitude": 30.2676276,
    "longitude": -97.74083429999999,
    "website": "http://bbgsaustin.com/",
    "category": "Bar & Restaurant",
    "types": "bar, restaurant, food, point_of_interest, establishment"
  },
  {
    "place_id": "ChIJUVUvo3LLRIYRzZQ9FPkQr0w",
    "name": "The Golden Horn",
    "street_address": "5420 Airport Boulevard",
    "city": "Austin",
    "state": "TX",
    "zip_code": "78751",
    "latitude": 30.3167782,
    "longitude": -97.7141546,
    "website": "http://www.thegoldenhornatx.com/",
    "category": "Bar & Restaurant",
    "types": "bar, restaurant, food, point_of_interest, establishment"
  },
  {
    "place_id": "ChIJYVfkTBvKRIYRBqVJfxvNW3I",
    "name": "Knomad Bar",
    "street_address": "1213 Corona Drive",
    "city": "Austin",
    "state": "TX",
    "zip_code": "78723",
    "latitude": 30.312582,
    "longitude": -97.70488399999999,
    "website": "http://knomadbar.com/",
    "category": "Bar & Restaurant",
    "types": "bar, restaurant, food, point_of_interest, establishment"
  },
  {
    "place_id": "ChIJe851K8m1RIYRCAtuaL2yc-k",
    "name": "The Cavalier",
    "street_address": "2400 Webberville Road",
    "city": "Austin",
    "state": "TX",
    "zip_code": "78702",
    "latitude": 30.2629185,
    "longitude": -97.7146911,
    "website": "http://www.thecavalieratx.com/",
    "category": "Bar & Restaurant",
    "types": "restaurant, bar, point_of_interest, food, establishment"
  },
  {
    "place_id": "ChIJU804EpXLRIYRgfdABBd5sxA",
    "name": "Easy Tiger - The Linc",
    "street_address": "6406 North Interstate 35 Frontage Road",
    "city": "Austin",
    "state": "TX",
    "zip_code": "78752",
    "latitude": 30.3272944,
    "longitude": -97.7072153,
    "website": "https://www.easytigerusa.com/location/north/",
    "category": "Bar & Restaurant",
    "types": "restaurant, cafe, bakery, bar, food, point_of_interest, store, establishment"
  },
  {
    "place_id": "ChIJrQOu2V_KRIYR2bL87Ooc-jg",
    "name": "Billy's On Burnet",
    "street_address": "2105 Hancock Drive",
    "city": "Austin",
    "state": "TX",
    "zip_code": "78756",
    "latitude": 30.321987,
    "longitude": -97.739792,
    "website": "http://www.billysonburnet.com/",
    "category": "Bar & Restaurant",
    "types": "bar, restaurant, food, point_of_interest, establishment"
  },
  {
    "place_id": "ChIJe5Fr03m1RIYRBeohh0J9LOQ",
    "name": "Cain & Abel's",
    "street_address": "907 West 24th Street",
    "city": "Austin",
    "state": "TX",
    "zip_code": "78705",
    "latitude": 30.2879027,
    "longitude": -97.7473784,
    "website": "https://abels.com/",
    "category": "Bar & Restaurant",
    "types": "bar, restaurant, food, point_of_interest, establishment"
  },
  {
    "place_id": "ChIJBZD51gK1RIYRzi5BMDN28uU",
    "name": "Second Bar + Kitchen at East Austin Hotel",
    "street_address": "1108 East 6th Street",
    "city": "Austin",
    "state": "TX",
    "zip_code": "78702",
    "latitude": 30.26463889999999,
    "longitude": -97.730751,
    "website": "https://eastaustinhotel.com/food-drink/second-bar-kitchen/",
    "category": "Restaurant",
    "types": "restaurant, food, point_of_interest, establishment"
  },
  {
    "place_id": "ChIJGYM_kn61RIYRWFglP5e5CZI",
    "name": "Central District Brewing",
    "street_address": "417 Red River Street",
    "city": "Austin",
    "state": "TX",
    "zip_code": "78701",
    "latitude": 30.2652758,
    "longitude": -97.7375225,
    "website": "http://centraldistrictbrewing.com/",
    "category": "Bar & Restaurant",
    "types": "bar, restaurant, food, point_of_interest, establishment"
  },
  {
    "place_id": "ChIJBV56WDxLW4YR-BvHmGIBSVQ",
    "name": "Oasthouse Kitchen + Bar",
    "street_address": "5701 West Slaughter Lane",
    "city": "Austin",
    "state": "TX",
    "zip_code": "78749",
    "latitude": 30.2000335,
    "longitude": -97.8679794,
    "website": "https://oasthouseaustin.com/",
    "category": "Bar & Restaurant",
    "types": "bar, restaurant, point_of_interest, food, establishment"
  },
  {
    "place_id": "ChIJ9a_Bh_hLW4YR9OrxrtaaAqA",
    "name": "Backspin Texas Sports Bar & Grill",
    "street_address": "5000 West Slaughter Lane",
    "city": "Austin",
    "state": "TX",
    "zip_code": "78749",
    "latitude": 30.2007177,
    "longitude": -97.8645923,
    "website": "https://www.backspinsportsbar.com/",
    "category": "Bar & Restaurant",
    "types": "bar, restaurant, food, point_of_interest, establishment"
  },
  {
    "place_id": "ChIJwxc_DA5LW4YR8_92m4iZzxo",
    "name": "BJ's Restaurant & Brewhouse",
    "street_address": "5207 Brodie Lane",
    "city": "Sunset Valley",
    "state": "TX",
    "zip_code": "78745",
    "latitude": 30.2316536,
    "longitude": -97.8168989,
    "website": "https://www.bjsrestaurants.com/locations/tx/sunset-valley?utm_source=google&utm_medium=organic&utm_campaign=google_my_business",
    "category": "Bar & Restaurant",
    "types": "restaurant, bar, food, point_of_interest, establishment"
  },
  {
    "place_id": "ChIJm9HyQBu1RIYRjNu0JZnNP-U",
    "name": "Pinthouse Brewing",
    "street_address": "2201 East Ben White Boulevard",
    "city": "Austin",
    "state": "TX",
    "zip_code": "78741",
    "latitude": 30.2153808,
    "longitude": -97.7423669,
    "website": "https://pinthouse.com/pinthouse-ben-white",
    "category": "Bar & Restaurant",
    "types": "bar, restaurant, food, point_of_interest, establishment"
  },
  {
    "place_id": "ChIJLc3ZWHLMRIYRy_PUu0lLWNY",
    "name": "Jack & Ginger's",
    "street_address": "11500B Rock Rose Avenue",
    "city": "Austin",
    "state": "TX",
    "zip_code": "78758",
    "latitude": 30.4012239,
    "longitude": -97.7229163,
    "website": "http://jackandgingers.pub/",
    "category": "Bar & Restaurant",
    "types": "bar, restaurant, food, point_of_interest, establishment"
  },
  {
    "place_id": "ChIJzXWjFG3MRIYRTWyFqpc_I-Q",
    "name": "Yard House",
    "street_address": "11800 Domain Boulevard",
    "city": "Austin",
    "state": "TX",
    "zip_code": "78758",
    "latitude": 30.4043517,
    "longitude": -97.7214832,
    "website": "https://www.yardhouse.com/locations/tx/austin/austin-domain-northside/8366?cmpid=br:yh_ag:ie_ch:loc_ca:YHGMB_sn:gmb_gt:austin-tx-8366_pl:locurl_rd:1062",
    "category": "Bar & Restaurant",
    "types": "bar, meal_takeaway, restaurant, food, point_of_interest, establishment"
  },
  {
    "place_id": "ChIJAdEIt6XLRIYRSi2zflsJlRo",
    "name": "COVER 3 Anderson Lane",
    "street_address": "2700 West Anderson Lane",
    "city": "Austin",
    "state": "TX",
    "zip_code": "78757",
    "latitude": 30.35867499999999,
    "longitude": -97.735078,
    "website": "https://cover-3.com/",
    "category": "Bar & Restaurant",
    "types": "restaurant, bar, food, point_of_interest, establishment"
  },
  {
    "place_id": "ChIJT8pdAQfNRIYRPUuZnoCclic",
    "name": "Little Woodrow's Parmer",
    "street_address": "6301 West Parmer Lane",
    "city": "Austin",
    "state": "TX",
    "zip_code": "78729",
    "latitude": 30.4455127,
    "longitude": -97.744726,
    "website": "https://littlewoodrows.com/locations/parmer-lane/",
    "category": "Bar & Restaurant",
    "types": "bar, restaurant, food, point_of_interest, establishment"
  },
  {
    "place_id": "ChIJL_jXUoLMRIYRBMm1Y9nXShg",
    "name": "Knotty Deck & Bar",
    "street_address": "9721 Arboretum Boulevard",
    "city": "Austin",
    "state": "TX",
    "zip_code": "78759",
    "latitude": 30.3920732,
    "longitude": -97.7499668,
    "website": "https://www.marriott.com/en-us/hotels/aussh-renaissance-austin-hotel/dining/?scid=feed67b0-9a2f-4de1-8df6-114544116108",
    "category": "Bar & Restaurant",
    "types": "bar, restaurant, food, point_of_interest, establishment"
  },
  {
    "place_id": "ChIJvVDq0bjLRIYRN_PpIHzzI0c",
    "name": "Bouldin Acres",
    "street_address": "1806 West Braker Lane",
    "city": "Austin",
    "state": "TX",
    "zip_code": "78758",
    "latitude": 30.3912908,
    "longitude": -97.7049189,
    "website": "https://www.bouldinacres.com/",
    "category": "Bar & Restaurant",
    "types": "bar, restaurant, food, point_of_interest, establishment"
  },
  {
    "place_id": "ChIJydim-sbLRIYR4gznE5gE5kQ",
    "name": "Mister Tramps Sports Pub",
    "street_address": "8565 Research Boulevard",
    "city": "Austin",
    "state": "TX",
    "zip_code": "78758",
    "latitude": 30.3614382,
    "longitude": -97.7162305,
    "website": "https://mistertramps.org/",
    "category": "Bar & Restaurant",
    "types": "bar, restaurant, food, point_of_interest, establishment"
  },
  {
    "place_id": "ChIJ3XrPgnLMRIYRq6P7aTCi_dw",
    "name": "Lavaca Street Bar - Rock Rose",
    "street_address": "11420 Rock Rose Avenue",
    "city": "Austin",
    "state": "TX",
    "zip_code": "78758",
    "latitude": 30.4005853,
    "longitude": -97.72315569999999,
    "website": "https://lavacastdomain.com/",
    "category": "Bar & Restaurant",
    "types": "bar, restaurant, point_of_interest, food, establishment"
  },
  {
    "place_id": "ChIJ2_PpUHLMRIYRZOgy6AZl8tw",
    "name": "Dogwood Domain",
    "street_address": "11420 Rock Rose Avenue",
    "city": "Austin",
    "state": "TX",
    "zip_code": "78758",
    "latitude": 30.40098789999999,
    "longitude": -97.7230103,
    "website": "https://www.thedogwoodrockrose.com/",
    "category": "Bar & Restaurant",
    "types": "bar, restaurant, food, point_of_interest, establishment"
  },
  {
    "place_id": "ChIJF6yCeL3LRIYRDuz31cW_KEo",
    "name": "Waterloo Ice House Burnet Road",
    "street_address": "8600 Burnet Road",
    "city": "Austin",
    "state": "TX",
    "zip_code": "78757",
    "latitude": 30.3679235,
    "longitude": -97.7281608,
    "website": "https://www.waterlooicehouse.com/",
    "category": "Bar & Restaurant",
    "types": "bar, restaurant, food, point_of_interest, establishment"
  },
  {
    "place_id": "ChIJdTXqCmHJRIYRagsETFn00uY",
    "name": "Botanero Sports Bar",
    "street_address": "9616 North Lamar Boulevard",
    "city": "Austin",
    "state": "TX",
    "zip_code": "78753",
    "latitude": 30.3658163,
    "longitude": -97.6966621,
    "website": "https://botanerosportsbar.com/",
    "category": "Bar & Restaurant",
    "types": "bar, restaurant, food, point_of_interest, establishment"
  },
  {
    "place_id": "ChIJ61HnOu7JRIYR3OAan3kDIyA",
    "name": "Walnut Creek Pub",
    "street_address": "11806 North Lamar Boulevard",
    "city": "Austin",
    "state": "TX",
    "zip_code": "78753",
    "latitude": 30.38902869999999,
    "longitude": -97.68355249999999,
    "website": "http://walnutcreekpub.com/",
    "category": "Bar & Restaurant",
    "types": "bar, restaurant, point_of_interest, food, establishment"
  },
  {
    "place_id": "ChIJQfXiQPLJRIYRYu8Xcls7evI",
    "name": "El Oceano Sports Bar",
    "street_address": "9515 North Lamar Boulevard",
    "city": "Austin",
    "state": "TX",
    "zip_code": "78753",
    "latitude": 30.3650148,
    "longitude": -97.69492699999999,
    "website": "https://eloceanosportbar.com/",
    "category": "Bar & Restaurant",
    "types": "bar, restaurant, food, point_of_interest, establishment"
  },
  {
    "place_id": "ChIJ38yyfhrLRIYRcZBNA1xwzSU",
    "name": "Boulevard Bar & Grill",
    "street_address": "3616 Far West Boulevard",
    "city": "Austin",
    "state": "TX",
    "zip_code": "78731",
    "latitude": 30.355118,
    "longitude": -97.75572199999999,
    "website": null,
    "category": "Bar & Restaurant",
    "types": "bar, restaurant, food, point_of_interest, establishment"
  },
  {
    "place_id": "ChIJ2wqREYnORIYRl30f5xIz7Sc",
    "name": "Raggedy Anne's",
    "street_address": "2113 Wells Branch Parkway",
    "city": "Austin",
    "state": "TX",
    "zip_code": "78728",
    "latitude": 30.43612509999999,
    "longitude": -97.68435989999999,
    "website": null,
    "category": "Bar & Restaurant",
    "types": "bar, restaurant, food, point_of_interest, establishment"
  },
  {
    "place_id": "ChIJhZHxXcfORIYRlUb1E7J5BfI",
    "name": "Buffalo Wild Wings",
    "street_address": "13000 North Interstate Highway 35",
    "city": "Austin",
    "state": "TX",
    "zip_code": "78753",
    "latitude": 30.41120199999999,
    "longitude": -97.67507859999999,
    "website": "https://www.buffalowildwings.com/locations/us/tx/austin/13000-n-i-35/sports-bar-1298?utm_source=google%20my%20business&utm_medium=organic&utm_campaign=website%20link",
    "category": "Bar & Restaurant",
    "types": "meal_takeaway, bar, restaurant, food, point_of_interest, establishment"
  },
  {
    "place_id": "ChIJ8UmtYobMRIYRmH1mx0KMD5g",
    "name": "Saltgrass Steak House",
    "street_address": "10614 Research Boulevard",
    "city": "Austin",
    "state": "TX",
    "zip_code": "78759",
    "latitude": 30.3976343,
    "longitude": -97.747086,
    "website": "https://www.saltgrass.com/location/saltgrass-austin/",
    "category": "Restaurant",
    "types": "restaurant, point_of_interest, food, establishment"
  },
  {
    "place_id": "ChIJDy1qfd_MRIYR7waI4mlIDoU",
    "name": "The Water Tank",
    "street_address": "7309 McNeil Drive",
    "city": "Austin",
    "state": "TX",
    "zip_code": "78729",
    "latitude": 30.435,
    "longitude": -97.7669444,
    "website": "http://www.austinwatertank.com/",
    "category": "Bar & Restaurant",
    "types": "bar, restaurant, food, point_of_interest, establishment"
  },
  {
    "place_id": "ChIJi6NkRvPMRIYRbpSAqmUJOZA",
    "name": "Punch Bowl Social",
    "street_address": "11310 Domain Drive",
    "city": "Austin",
    "state": "TX",
    "zip_code": "78758",
    "latitude": 30.4000608,
    "longitude": -97.7254286,
    "website": "https://punchbowlsocial.com/location/austin-domain-texas/",
    "category": "Restaurant",
    "types": "restaurant, food, point_of_interest, establishment"
  },
  {
    "place_id": "ChIJ1eAeVnLMRIYR_VB5FIj_LuE",
    "name": "Culinary Dropout",
    "street_address": "11721 Rock Rose Avenue",
    "city": "Austin",
    "state": "TX",
    "zip_code": "78758",
    "latitude": 30.4034725,
    "longitude": -97.72151230000001,
    "website": "https://www.culinarydropout.com/locations/austin-tx/?utm_source=Google&utm_medium=Organic&utm_campaign=Maps",
    "category": "Bar & Restaurant",
    "types": "bar, store, restaurant, food, point_of_interest, establishment"
  },
  {
    "place_id": "ChIJbbOMMZTLRIYRnRlOzcsaHdg",
    "name": "Emerald Tavern Games and Cafe",
    "street_address": "9012 Research Boulevard",
    "city": "Austin",
    "state": "TX",
    "zip_code": "78758",
    "latitude": 30.3715207,
    "longitude": -97.7245856,
    "website": "http://www.emeraldtaverngames.com/",
    "category": "Restaurant",
    "types": "restaurant, point_of_interest, food, establishment"
  },
  {
    "place_id": "ChIJVS_jWYbLRIYR5KzHw77oJt0",
    "name": "BJ's Restaurant & Brewhouse",
    "street_address": "10515 MoPac Expressway",
    "city": "Austin",
    "state": "TX",
    "zip_code": "78759",
    "latitude": 30.3921902,
    "longitude": -97.73240860000001,
    "website": "http://www.bjsrestaurants.com/locations/tx/austin-arbor-walk",
    "category": "Bar & Restaurant",
    "types": "restaurant, bar, food, point_of_interest, establishment"
  },
  {
    "place_id": "ChIJwy0_vPbJRIYRFmzx62I0uZU",
    "name": "Michelobos Sports Bar & Restaurant Inc",
    "street_address": "900 East Braker Lane",
    "city": "Austin",
    "state": "TX",
    "zip_code": "78753",
    "latitude": 30.3765044,
    "longitude": -97.6728213,
    "website": "https://michelobos.com/",
    "category": "Bar & Restaurant",
    "types": "restaurant, bar, food, point_of_interest, establishment"
  },
  {
    "place_id": "ChIJTRWi9hLLRIYRZ9Q6N7RjZu0",
    "name": "The Bon Aire",
    "street_address": "9070 Research Boulevard",
    "city": "Austin",
    "state": "TX",
    "zip_code": "78758",
    "latitude": 30.3734367,
    "longitude": -97.7283234,
    "website": "https://www.bonaireatx.com/",
    "category": "Bar & Restaurant",
    "types": "bar, restaurant, food, point_of_interest, establishment"
  },
  {
    "place_id": "ChIJVRV1coLORIYRg5mDWq0_NhE",
    "name": "Uptown Lounge Craft Kitchen & Cocktails",
    "street_address": "13205 Burnet Road",
    "city": "Austin",
    "state": "TX",
    "zip_code": "78727",
    "latitude": 30.4319981,
    "longitude": -97.69846489999999,
    "website": "https://www.choicehotels.com/texas/austin/cambria-hotels/txi94",
    "category": "Bar & Restaurant",
    "types": "restaurant, bar, food, point_of_interest, establishment"
  },
  {
    "place_id": "ChIJH1-bLbXNRIYRbQSAc9heiAk",
    "name": "The Boat",
    "street_address": "10931 Stonelake Boulevard",
    "city": "Austin",
    "state": "TX",
    "zip_code": "78759",
    "latitude": 30.3977018,
    "longitude": -97.7333479,
    "website": "https://theboatatx.com/",
    "category": "Restaurant",
    "types": "restaurant, food, point_of_interest, establishment"
  },
  {
    "place_id": "ChIJj4J4QkrLRIYR3VD-TIG2grk",
    "name": "Turnstile Bar and Restaurant",
    "street_address": "10025 Burnet Road",
    "city": "Austin",
    "state": "TX",
    "zip_code": "78758",
    "latitude": 30.3840666,
    "longitude": -97.72336489999999,
    "website": "http://www.turnstilebrews.com/",
    "category": "Bar & Restaurant",
    "types": "restaurant, cafe, bar, point_of_interest, food, store, establishment"
  },
  {
    "place_id": "ChIJcfV7jgjLRIYRuIv7OOd-q8I",
    "name": "Gimmicks",
    "street_address": "2007 Kramer Lane",
    "city": "Austin",
    "state": "TX",
    "zip_code": "78758",
    "latitude": 30.3880704,
    "longitude": -97.7098311,
    "website": null,
    "category": "Bar & Restaurant",
    "types": "bar, restaurant, food, point_of_interest, establishment"
  },
  {
    "place_id": "ChIJWaq-de_MRIYRoGjOA3oYWvo",
    "name": "Pour House",
    "street_address": "11835 Jollyville Road",
    "city": "Austin",
    "state": "TX",
    "zip_code": "78759",
    "latitude": 30.4229145,
    "longitude": -97.7553454,
    "website": "http://pourhousepintsandpies.com/",
    "category": "Bar & Restaurant",
    "types": "bar, restaurant, food, point_of_interest, establishment"
  },
  {
    "place_id": "ChIJfzZrjnbMRIYR1xXKHhh1irM",
    "name": "The Water Trough",
    "street_address": "10901 Domain Drive",
    "city": "Austin",
    "state": "TX",
    "zip_code": "78758",
    "latitude": 30.3949476,
    "longitude": -97.726314,
    "website": "https://www.watertroughrestaurant.com/",
    "category": "Bar & Restaurant",
    "types": "restaurant, bar, food, point_of_interest, establishment"
  },
  {
    "place_id": "ChIJvUkBJ_LORIYRkzRm_fuUuro",
    "name": "Spinners",
    "street_address": "14106 North Interstate 35 Frontage Road",
    "city": "Austin",
    "state": "TX",
    "zip_code": "78728",
    "latitude": 30.4308031,
    "longitude": -97.6713193,
    "website": "https://www.spinnersaustin.com/",
    "category": "Bar & Restaurant",
    "types": "bar, restaurant, food, point_of_interest, establishment"
  },
  {
    "place_id": "ChIJCSdDWMItW4YRHjdMiIyKWaM",
    "name": "The Fieldhouse at the Crossover",
    "street_address": "1717 Scottsdale Drive",
    "city": "Leander",
    "state": "TX",
    "zip_code": "78641",
    "latitude": 30.5472831,
    "longitude": -97.81395719999999,
    "website": "https://www.thefieldhousetexas.com/",
    "category": "Bar & Restaurant",
    "types": "bar, restaurant, food, point_of_interest, establishment"
  },
  {
    "place_id": "ChIJFXJZv_rTRIYRqWFoMYJHmtU",
    "name": "Firewater Sports Bar Cafe",
    "street_address": "13010 West Parmer Lane",
    "city": "Cedar Park",
    "state": "TX",
    "zip_code": "78613",
    "latitude": 30.5335935,
    "longitude": -97.78129419999999,
    "website": "http://firewatersportsbar.com/",
    "category": "Bar & Restaurant",
    "types": "restaurant, bar, food, point_of_interest, establishment"
  },
  {
    "place_id": "ChIJg_3DS0ItW4YRrDJuYnT6390",
    "name": "The Good Lot",
    "street_address": "2500 West New Hope Drive",
    "city": "Cedar Park",
    "state": "TX",
    "zip_code": "78613",
    "latitude": 30.5235659,
    "longitude": -97.86481359999999,
    "website": "http://thegoodlotcp.com/",
    "category": "Bar & Restaurant",
    "types": "bar, restaurant, food, point_of_interest, establishment"
  },
  {
    "place_id": "ChIJoXfF61wtW4YRyJYCAFLQROw",
    "name": "Five Four Restaurant & Drafthouse- Cedar Park",
    "street_address": "1320 East New Hope Drive",
    "city": "Cedar Park",
    "state": "TX",
    "zip_code": "78613",
    "latitude": 30.5361822,
    "longitude": -97.815483,
    "website": "https://www.54thstreetrestaurants.com/cedar-park-tx.html",
    "category": "Restaurant",
    "types": "restaurant, food, point_of_interest, establishment"
  },
  {
    "place_id": "ChIJ2RZ8eoEtW4YRu7QsSixQZwg",
    "name": "Mag's - Cedar Park",
    "street_address": "1420 Cypress Creek Road",
    "city": "Cedar Park",
    "state": "TX",
    "zip_code": "78613",
    "latitude": 30.4818791,
    "longitude": -97.83028379999999,
    "website": "http://www.magstexas.com/",
    "category": "Bar & Restaurant",
    "types": "bar, restaurant, food, point_of_interest, establishment"
  },
  {
    "place_id": "ChIJ4Vfrfn8tW4YROxj05tRLHo4",
    "name": "Sunset Bar and Grill",
    "street_address": "2011 Little Elm Trail",
    "city": "Cedar Park",
    "state": "TX",
    "zip_code": "78613",
    "latitude": 30.4802036,
    "longitude": -97.8287596,
    "website": null,
    "category": "Bar & Restaurant",
    "types": "bar, restaurant, food, point_of_interest, establishment"
  },
  {
    "place_id": "ChIJQR2J-awtW4YR9MY52usywFQ",
    "name": "The Post Tavern",
    "street_address": "601 West Whitestone Boulevard",
    "city": "Cedar Park",
    "state": "TX",
    "zip_code": "78613",
    "latitude": 30.519495,
    "longitude": -97.8360733,
    "website": null,
    "category": "Bar & Restaurant",
    "types": "bar, restaurant, point_of_interest, food, establishment"
  },
  {
    "place_id": "ChIJTdFijaAyW4YR6X5io263Oq4",
    "name": "Glass Half Full Taproom",
    "street_address": "14028 U.S. 183",
    "city": "Austin",
    "state": "TX",
    "zip_code": "78717",
    "latitude": 30.4757806,
    "longitude": -97.8042667,
    "website": "https://drafthouse.com/austin/theater-bar/lakeline",
    "category": "Bar & Restaurant",
    "types": "bar, restaurant, food, point_of_interest, establishment"
  },
  {
    "place_id": "ChIJG7UIHP4sW4YRydsC30Uldec",
    "name": "Whitestone Brewery",
    "street_address": "401 East Whitestone Boulevard",
    "city": "Cedar Park",
    "state": "TX",
    "zip_code": "78613",
    "latitude": 30.5223581,
    "longitude": -97.827213,
    "website": "http://www.whitestonebrewery.com/",
    "category": "Bar & Restaurant",
    "types": "bar, restaurant, food, point_of_interest, establishment"
  },
  {
    "place_id": "ChIJBboCkGYtW4YRFAWMhI7Shqc",
    "name": "WARPATH PIZZA (Cedar Park)",
    "street_address": "401 Cypress Creek Road",
    "city": "Cedar Park",
    "state": "TX",
    "zip_code": "78613",
    "latitude": 30.4977812,
    "longitude": -97.82078969999999,
    "website": "https://www.warpathpizza.com/",
    "category": "Bar & Restaurant",
    "types": "bar, restaurant, food, point_of_interest, establishment"
  },
  {
    "place_id": "ChIJl8vg5bnSRIYR2n5Zy0YnaNM",
    "name": "The League Kitchen & Tavern",
    "street_address": "10526 West Parmer Lane",
    "city": "Austin",
    "state": "TX",
    "zip_code": "78717",
    "latitude": 30.4977799,
    "longitude": -97.7737358,
    "website": "https://www.leaguekitchen.com/",
    "category": "Restaurant",
    "types": "restaurant, food, point_of_interest, establishment"
  },
  {
    "place_id": "ChIJsQ-GJP4sW4YR8ijR82U9kb0",
    "name": "Shooters Billiards & Sports Bar",
    "street_address": "601 East Whitestone Boulevard",
    "city": "Cedar Park",
    "state": "TX",
    "zip_code": "78613",
    "latitude": 30.5239199,
    "longitude": -97.82489079999999,
    "website": "http://www.shootersbilliards.net/",
    "category": "Bar & Restaurant",
    "types": "bar, restaurant, food, point_of_interest, establishment"
  },
  {
    "place_id": "ChIJZWZBNf0sW4YRObhnm8euT50",
    "name": "BJ's Restaurant & Brewhouse",
    "street_address": "1001 East Whitestone Boulevard",
    "city": "Cedar Park",
    "state": "TX",
    "zip_code": "78613",
    "latitude": 30.5251426,
    "longitude": -97.81885849999999,
    "website": "https://www.bjsrestaurants.com/locations/tx/cedar-park?utm_source=google&utm_medium=organic&utm_campaign=google_my_business",
    "category": "Bar & Restaurant",
    "types": "restaurant, bar, point_of_interest, food, establishment"
  },
  {
    "place_id": "ChIJ_3HmBQItW4YRx4J37IYMAqs",
    "name": "Blue Corn Harvest Bar & Grill Cedar Park",
    "street_address": "700 East Whitestone Boulevard",
    "city": "Cedar Park",
    "state": "TX",
    "zip_code": "78613",
    "latitude": 30.5227472,
    "longitude": -97.821625,
    "website": "http://www.bluecornharvest.com/",
    "category": "Restaurant",
    "types": "restaurant, food, point_of_interest, establishment"
  },
  {
    "place_id": "ChIJ_T-rqYEtW4YRIELibGgYwOE",
    "name": "Mouton's Bistro & Bar",
    "street_address": "1821 South Lakeline Boulevard",
    "city": "Cedar Park",
    "state": "TX",
    "zip_code": "78613",
    "latitude": 30.4798954,
    "longitude": -97.83192319999999,
    "website": "https://moutonsbistro.com/?utm_source=google",
    "category": "Restaurant",
    "types": "restaurant, food, point_of_interest, establishment"
  },
  {
    "place_id": "ChIJLQcKH68zW4YRWN0kc1lEEjM",
    "name": "Slackers Brewing Co.",
    "street_address": "12233 Ranch Road 620 North",
    "city": "Austin",
    "state": "TX",
    "zip_code": "78750",
    "latitude": 30.4622236,
    "longitude": -97.8140669,
    "website": "https://www.slackersbrewing.com/",
    "category": "Bar & Restaurant",
    "types": "cafe, bar, restaurant, food, point_of_interest, store, establishment"
  },
  {
    "place_id": "ChIJCapLReIsW4YRYRV94Q0vw7s",
    "name": "The Grove Wine Bar & Kitchen - Cedar Park",
    "street_address": "1310 East Whitestone Boulevard",
    "city": "Cedar Park",
    "state": "TX",
    "zip_code": "78613",
    "latitude": 30.52415909999999,
    "longitude": -97.81418579999999,
    "website": "https://www.grovewinebar.com/cedar-park/",
    "category": "Bar & Restaurant",
    "types": "restaurant, bar, food, point_of_interest, establishment"
  }
]