[
  {
    "place_id": "ChIJRdfvtXUDyIkRw_OWYBYwqvs",
    "name": "The Dive",
    "street_address": "3123 Elliott Street",
    "city": "Baltimore",
    "state": "MD",
    "zip_code": "21224",
    "latitude": 39.2791112,
    "longitude": -76.5716819,
    "website": "https://www.thedivebaltimore.com/",
    "category": "Bar & Restaurant",
    "types": "restaurant, bar, food, point_of_interest, establishment"
  },
  {
    "place_id": "ChIJ7doKwkoFyIkRT97-s9IWSUM",
    "name": "The Royal Blue",
    "street_address": "1733 Maryland Avenue",
    "city": "Baltimore",
    "state": "MD",
    "zip_code": "21201",
    "latitude": 39.3096448,
    "longitude": -76.6176818,
    "website": "http://www.royalbluebar.com/",
    "category": "Restaurant",
    "types": "restaurant, food, point_of_interest, establishment"
  },
  {
    "place_id": "ChIJf3M2eWUDyIkR1p0csPWc0mo",
    "name": "The Outpost American Tavern",
    "street_address": "1032 Riverside Avenue",
    "city": "Baltimore",
    "state": "MD",
    "zip_code": "21230",
    "latitude": 39.2774396,
    "longitude": -76.6091409,
    "website": "http://theoutpostbaltimore.com/",
    "category": "Bar & Restaurant",
    "types": "bar, restaurant, food, point_of_interest, establishment"
  },
  {
    "place_id": "ChIJL2tbEHYDyIkRuf8xCkZY4Ro",
    "name": "Riverside Taphouse",
    "street_address": "1542 Light Street",
    "city": "Baltimore",
    "state": "MD",
    "zip_code": "21230",
    "latitude": 39.2717565,
    "longitude": -76.61179030000001,
    "website": "http://riversidetaphouse.com/",
    "category": "Restaurant",
    "types": "restaurant, food, point_of_interest, establishment"
  },
  {
    "place_id": "ChIJG8yhGXUDyIkRNgwrV_z8i-M",
    "name": "Rye Street Tavern",
    "street_address": "225 East Cromwell Street",
    "city": "Baltimore",
    "state": "MD",
    "zip_code": "21230",
    "latitude": 39.263625,
    "longitude": -76.60674639999999,
    "website": "https://www.ryestreettavern.com/",
    "category": "Restaurant",
    "types": "restaurant, point_of_interest, food, establishment"
  },
  {
    "place_id": "ChIJu5X5YGkDyIkRr8zv6o_fjNY",
    "name": "Delia Foley's",
    "street_address": "1439 South Charles Street",
    "city": "Baltimore",
    "state": "MD",
    "zip_code": "21230",
    "latitude": 39.27274699999999,
    "longitude": -76.6138763,
    "website": "http://deliafoleys.pub/",
    "category": "Bar & Restaurant",
    "types": "bar, restaurant, food, point_of_interest, establishment"
  },
  {
    "place_id": "ChIJG-kHovcDyIkRqChJwwFmUoo",
    "name": "of Love & Regret",
    "street_address": "1028 South Conkling Street",
    "city": "Baltimore",
    "state": "MD",
    "zip_code": "21224",
    "latitude": 39.2807454,
    "longitude": -76.566988,
    "website": "http://www.olarbmore.com/",
    "category": "Bar & Restaurant",
    "types": "restaurant, bar, food, point_of_interest, establishment"
  },
  {
    "place_id": "ChIJH2z7bZYEyIkRSnylC_bMboU",
    "name": "The Brewer's Art",
    "street_address": "1106 North Charles Street",
    "city": "Baltimore",
    "state": "MD",
    "zip_code": "21201",
    "latitude": 39.3027445,
    "longitude": -76.6161317,
    "website": "http://www.thebrewersart.com/",
    "category": "Bar & Restaurant",
    "types": "bar, restaurant, food, point_of_interest, establishment"
  },
  {
    "place_id": "ChIJGXnlum4DyIkRcIJINottl88",
    "name": "Don't Know Tavern",
    "street_address": "1453 Light Street",
    "city": "Baltimore",
    "state": "MD",
    "zip_code": "21230",
    "latitude": 39.2730177,
    "longitude": -76.61165690000001,
    "website": "https://dontknowtavern.com/",
    "category": "Bar & Restaurant",
    "types": "bar, restaurant, food, point_of_interest, establishment"
  },
  {
    "place_id": "ChIJK5GSVGsDyIkRMPVQyG7yE-k",
    "name": "The William Fell Tavern",
    "street_address": "814 South Broadway",
    "city": "Baltimore",
    "state": "MD",
    "zip_code": "21231",
    "latitude": 39.28201889999999,
    "longitude": -76.59353200000001,
    "website": "https://www.hilton.com/en/hotels/zbpafup-the-william-fell-baltimore/dining/?SEO_id=GMB--R-ZBPAFUP-1&y_source=1_MjAxNDM2ODkyNS03MTUtbG9jYXRpb24ud2Vic2l0ZQ%3D%3D",
    "category": "Restaurant",
    "types": "restaurant, food, point_of_interest, establishment"
  },
  {
    "place_id": "ChIJjyArdmADyIkRXzNcc2UBTDc",
    "name": "Pratt Street Ale House",
    "street_address": "206 West Pratt Street",
    "city": "Baltimore",
    "state": "MD",
    "zip_code": "21201",
    "latitude": 39.28658840000001,
    "longitude": -76.61815589999999,
    "website": "http://www.prattstreetalehouse.com/",
    "category": "Bar & Restaurant",
    "types": "bar, restaurant, food, point_of_interest, establishment"
  },
  {
    "place_id": "ChIJ8cyTYtsEyIkR10w2MPZgq1Q",
    "name": "29th Street Tavern",
    "street_address": "398 West 29th Street",
    "city": "Baltimore",
    "state": "MD",
    "zip_code": "21211",
    "latitude": 39.3214264,
    "longitude": -76.62402879999999,
    "website": "https://29thstreettavern.com/",
    "category": "Bar & Restaurant",
    "types": "bar, restaurant, food, point_of_interest, establishment"
  },
  {
    "place_id": "ChIJX04NzDsFyIkR4B5GfmOcbQQ",
    "name": "The Canton Local",
    "street_address": "801 South Decker Avenue",
    "city": "Baltimore",
    "state": "MD",
    "zip_code": "21224",
    "latitude": 39.2831988,
    "longitude": -76.5733071,
    "website": "http://www.thecantonlocal.com/",
    "category": "Bar & Restaurant",
    "types": "restaurant, bar, food, point_of_interest, establishment"
  },
  {
    "place_id": "ChIJQ2mMD54EyIkRkbNmWiBwSpU",
    "name": "Peter's Pour House",
    "street_address": "111 Mercer Street",
    "city": "Baltimore",
    "state": "MD",
    "zip_code": "21202",
    "latitude": 39.28840509999999,
    "longitude": -76.6129977,
    "website": "http://www.peterspourhouse.com/",
    "category": "Bar & Restaurant",
    "types": "bar, restaurant, food, point_of_interest, establishment"
  },
  {
    "place_id": "ChIJoziexl4DyIkRpa8puhRKY7E",
    "name": "Pickles Pub",
    "street_address": "520 Washington Boulevard",
    "city": "Baltimore",
    "state": "MD",
    "zip_code": "21230",
    "latitude": 39.2854634,
    "longitude": -76.6229615,
    "website": "http://www.picklespub.com/",
    "category": "Bar & Restaurant",
    "types": "bar, restaurant, food, point_of_interest, establishment"
  },
  {
    "place_id": "ChIJoxCu6Z4DyIkRFwuaEPtQ1vU",
    "name": "City Limits",
    "street_address": "1700 East Fort Avenue",
    "city": "Baltimore",
    "state": "MD",
    "zip_code": "21230",
    "latitude": 39.26818589999999,
    "longitude": -76.59079899999999,
    "website": "http://www.citylimitssportsbar.com/",
    "category": "Bar & Restaurant",
    "types": "bar, restaurant, food, point_of_interest, establishment"
  },
  {
    "place_id": "ChIJFwikK28DyIkRRqwJgNEWgG8",
    "name": "The Brewer's Cask",
    "street_address": "1236 Light Street",
    "city": "Baltimore",
    "state": "MD",
    "zip_code": "21230",
    "latitude": 39.27510439999999,
    "longitude": -76.61222699999999,
    "website": "https://brewers-cask.com/",
    "category": "Bar & Restaurant",
    "types": "bar, restaurant, food, point_of_interest, establishment"
  },
  {
    "place_id": "ChIJZxV2AlcDyIkRd6FAlfFh8GA",
    "name": "Union Hill Kitchen & Craft Bar",
    "street_address": "938 South Conkling Street",
    "city": "Baltimore",
    "state": "MD",
    "zip_code": "21224",
    "latitude": 39.2816535,
    "longitude": -76.56716589999999,
    "website": "https://www.unionhillbal.com/",
    "category": "Restaurant",
    "types": "restaurant, food, point_of_interest, establishment"
  },
  {
    "place_id": "ChIJSRublXEDyIkRqTSWZweU1VU",
    "name": "Captain Larry's",
    "street_address": "601 East Fort Avenue",
    "city": "Baltimore",
    "state": "MD",
    "zip_code": "21230",
    "latitude": 39.2727408,
    "longitude": -76.604941,
    "website": "http://www.captainlarrys.com",
    "category": "Bar & Restaurant",
    "types": "bar, restaurant, point_of_interest, food, establishment"
  },
  {
    "place_id": "ChIJL9GGjvQDyIkRNMOTx1r84Pc",
    "name": "Lighthouse Tavern",
    "street_address": "1226 South Clinton Street",
    "city": "Baltimore",
    "state": "MD",
    "zip_code": "21224",
    "latitude": 39.2785018,
    "longitude": -76.5696473,
    "website": null,
    "category": "Bar & Restaurant",
    "types": "bar, restaurant, food, point_of_interest, establishment"
  },
  {
    "place_id": "ChIJn96ACV8DyIkR5AoVo1yjsk0",
    "name": "The Yard",
    "street_address": "110 South Eutaw Street",
    "city": "Baltimore",
    "state": "MD",
    "zip_code": "21201",
    "latitude": 39.2867783,
    "longitude": -76.6214164,
    "website": "https://www.marriott.com/en-us/hotels/bwiih-baltimore-marriott-inner-harbor-at-camden-yards/dining/?scid=feed67b0-9a2f-4de1-8df6-114544116108",
    "category": "Restaurant",
    "types": "restaurant, point_of_interest, food, establishment"
  },
  {
    "place_id": "ChIJ49gjP3wDyIkR6A4h0AMFb_I",
    "name": "Loch Bar - Baltimore",
    "street_address": "240 International Drive",
    "city": "Baltimore",
    "state": "MD",
    "zip_code": "21202",
    "latitude": 39.2823354,
    "longitude": -76.6022886,
    "website": "http://www.lochbarbaltimore.com/",
    "category": "Bar & Restaurant",
    "types": "bar, restaurant, food, point_of_interest, establishment"
  },
  {
    "place_id": "ChIJYzOAvHEDyIkR7V-QdnhUHVQ",
    "name": "Barfly's",
    "street_address": "620 East Fort Avenue",
    "city": "Baltimore",
    "state": "MD",
    "zip_code": "21230",
    "latitude": 39.2729785,
    "longitude": -76.6046985,
    "website": "http://barflysbaltimore.com/",
    "category": "Bar & Restaurant",
    "types": "bar, restaurant, food, point_of_interest, establishment"
  },
  {
    "place_id": "ChIJbUZ0gYkDyIkRzKoCB1zILqk",
    "name": "Mahaffey's Pub",
    "street_address": "2706 Dillon Street",
    "city": "Baltimore",
    "state": "MD",
    "zip_code": "21224",
    "latitude": 39.2812338,
    "longitude": -76.5780364,
    "website": "http://www.mahaffeyspubbaltimore.com/",
    "category": "Bar & Restaurant",
    "types": "bar, restaurant, food, point_of_interest, establishment"
  },
  {
    "place_id": "ChIJo-RuYZYEyIkRdXu3r1Qni28",
    "name": "The Owl Bar",
    "street_address": "1 East Chase Street",
    "city": "Baltimore",
    "state": "MD",
    "zip_code": "21202",
    "latitude": 39.3021234,
    "longitude": -76.6153327,
    "website": "https://www.theowlbar.com/",
    "category": "Bar & Restaurant",
    "types": "night_club, bar, restaurant, food, point_of_interest, establishment"
  },
  {
    "place_id": "ChIJudRjGp4EyIkR-OOJDDakZN0",
    "name": "The Water Street Tavern & Key West Patio Bar Happy Grape Liquor store",
    "street_address": "102 Water Street",
    "city": "Baltimore",
    "state": "MD",
    "zip_code": "21202",
    "latitude": 39.288362,
    "longitude": -76.613303,
    "website": "https://www.eatatwaterstreet.com/",
    "category": "Bar & Restaurant",
    "types": "liquor_store, bar, store, restaurant, food, point_of_interest, establishment"
  },
  {
    "place_id": "ChIJidWga4sDyIkRxbCZDYoEFXw",
    "name": "The Starting Lineup Bar and Grill",
    "street_address": "213 Penn Street",
    "city": "Baltimore",
    "state": "MD",
    "zip_code": "21230",
    "latitude": 39.28559489999999,
    "longitude": -76.62569959999999,
    "website": null,
    "category": "Bar & Restaurant",
    "types": "bar, restaurant, food, point_of_interest, establishment"
  },
  {
    "place_id": "ChIJ4Wg6l2gDyIkREYobcFuRpjE",
    "name": "MaGerk's Pub & Grill Federal Hill",
    "street_address": "1061 South Charles Street",
    "city": "Baltimore",
    "state": "MD",
    "zip_code": "21230",
    "latitude": 39.2769582,
    "longitude": -76.6141434,
    "website": "http://www.magerks.com/",
    "category": "Bar & Restaurant",
    "types": "bar, restaurant, food, point_of_interest, establishment"
  },
  {
    "place_id": "ChIJkyLCzZQDyIkRPJS2J_-KDf8",
    "name": "Brew Brothers",
    "street_address": "1525 Russell Street",
    "city": "Baltimore",
    "state": "MD",
    "zip_code": "21230",
    "latitude": 39.2738153,
    "longitude": -76.6266983,
    "website": "https://www.caesars.com/horseshoe-baltimore/restaurants/brew-brothers",
    "category": "Restaurant",
    "types": "restaurant, food, point_of_interest, establishment"
  },
  {
    "place_id": "ChIJH-zfyb8EyIkR8VdIMpZ46Qk",
    "name": "The Brass Tap",
    "street_address": "1205 West Mount Royal Avenue",
    "city": "Baltimore",
    "state": "MD",
    "zip_code": "21217",
    "latitude": 39.3067686,
    "longitude": -76.61960599999999,
    "website": "https://www.brasstapbeerbar.com/baltimore",
    "category": "Bar & Restaurant",
    "types": "bar, restaurant, food, point_of_interest, establishment"
  },
  {
    "place_id": "ChIJAU63VocDyIkRzaZY3ToqgGk",
    "name": "Ale Mary's",
    "street_address": "1939 Fleet Street",
    "city": "Baltimore",
    "state": "MD",
    "zip_code": "21231",
    "latitude": 39.2846252,
    "longitude": -76.5888387,
    "website": "https://www.alemarys.com/",
    "category": "Bar & Restaurant",
    "types": "bar, restaurant, food, point_of_interest, establishment"
  },
  {
    "place_id": "ChIJz4CB1pgEyIkRWF-zI367Ns8",
    "name": "Mick O'Shea's Irish Pub",
    "street_address": "328 North Charles Street",
    "city": "Baltimore",
    "state": "MD",
    "zip_code": "21201",
    "latitude": 39.293432,
    "longitude": -76.6155915,
    "website": "http://mickosheas.com/",
    "category": "Bar & Restaurant",
    "types": "bar, restaurant, food, point_of_interest, establishment"
  },
  {
    "place_id": "ChIJAeeuAIsDyIkRNzLyNal6oWE",
    "name": "Claddagh Pub",
    "street_address": "2918 O Donnell Street",
    "city": "Baltimore",
    "state": "MD",
    "zip_code": "21224",
    "latitude": 39.28048380000001,
    "longitude": -76.5748376,
    "website": "http://www.claddaghbaltimore.com/",
    "category": "Bar & Restaurant",
    "types": "bar, restaurant, food, point_of_interest, establishment"
  },
  {
    "place_id": "ChIJWXUe85gEyIkRSTlgdzZO1Lc",
    "name": "Poets Modern Cocktails & Eats",
    "street_address": "24 West Franklin Street",
    "city": "Baltimore",
    "state": "MD",
    "zip_code": "21201",
    "latitude": 39.2953649,
    "longitude": -76.61664929999999,
    "website": "https://www.ihg.com/hotelindigo/hotels/us/en/baltimore/balhn/hoteldetail/dining",
    "category": "Bar & Restaurant",
    "types": "restaurant, bar, food, point_of_interest, establishment"
  },
  {
    "place_id": "ChIJCanTAgsEyIkR00tUfglEAPE",
    "name": "Annabel Lee Tavern",
    "street_address": "601 South Clinton Street",
    "city": "Baltimore",
    "state": "MD",
    "zip_code": "21224",
    "latitude": 39.2853718,
    "longitude": -76.5696986,
    "website": "https://www.theannabelleetavern.com/",
    "category": "Bar & Restaurant",
    "types": "tourist_attraction, bar, restaurant, food, point_of_interest, establishment"
  },
  {
    "place_id": "ChIJfz1hWCMEyIkR2UUcy6bgxc0",
    "name": "Garden Bar jay spot",
    "street_address": "4811 Erdman Avenue",
    "city": "Baltimore",
    "state": "MD",
    "zip_code": "21205",
    "latitude": 39.306995,
    "longitude": -76.5598861,
    "website": null,
    "category": "Bar & Restaurant",
    "types": "bar, restaurant, point_of_interest, food, establishment"
  },
  {
    "place_id": "ChIJJx0nKSgFyIkRpP0gknkYJww",
    "name": "Frazier's On the Avenue",
    "street_address": "919 West 36th Street",
    "city": "Baltimore",
    "state": "MD",
    "zip_code": "21211",
    "latitude": 39.33099269999999,
    "longitude": -76.63199709999999,
    "website": "http://fraziersontheavenue.net/",
    "category": "Bar & Restaurant",
    "types": "bar, restaurant, food, point_of_interest, establishment"
  },
  {
    "place_id": "ChIJEcYGtrscyIkRRAef9l2Hk5o",
    "name": "Spirits West",
    "street_address": "2601 Wilkens Avenue",
    "city": "Baltimore",
    "state": "MD",
    "zip_code": "21223",
    "latitude": 39.2787505,
    "longitude": -76.6560483,
    "website": null,
    "category": "Bar & Restaurant",
    "types": "bar, restaurant, food, point_of_interest, establishment"
  },
  {
    "place_id": "ChIJsZXACJ4DyIkRcEDNddYLRUg",
    "name": "James Joyce Irish Pub & Restaurant",
    "street_address": "616 President Street",
    "city": "Baltimore",
    "state": "MD",
    "zip_code": "21202",
    "latitude": 39.2836991,
    "longitude": -76.6022261,
    "website": "https://jamesjoycebaltimore.com/",
    "category": "Bar & Restaurant",
    "types": "bar, restaurant, food, point_of_interest, establishment"
  },
  {
    "place_id": "ChIJwV9OjSYFyIkRT1F5ww0O6vw",
    "name": "Ash\u2014Bar",
    "street_address": "2 East Read Street",
    "city": "Baltimore",
    "state": "MD",
    "zip_code": "21202",
    "latitude": 39.2997931,
    "longitude": -76.6155026,
    "website": "https://ash.world/dining/ash-bar-baltimore/",
    "category": "Restaurant",
    "types": "restaurant, food, point_of_interest, establishment"
  },
  {
    "place_id": "ChIJoeFwdSsDyIkRk-9HjApCVnk",
    "name": "Hollinswood Inn Liquors & Bar",
    "street_address": "2839 Annapolis Road",
    "city": "Baltimore",
    "state": "MD",
    "zip_code": "21230",
    "latitude": 39.25398229999999,
    "longitude": -76.6384527,
    "website": null,
    "category": "Bar & Restaurant",
    "types": "liquor_store, bar, restaurant, food, store, point_of_interest, establishment"
  },
  {
    "place_id": "ChIJ93PnsoEDyIkRtnZr4kihKzY",
    "name": "Max's Taphouse",
    "street_address": "737 South Broadway",
    "city": "Baltimore",
    "state": "MD",
    "zip_code": "21231",
    "latitude": 39.2826448,
    "longitude": -76.5930146,
    "website": "https://maxs.com/",
    "category": "Bar & Restaurant",
    "types": "bar, restaurant, food, point_of_interest, establishment"
  },
  {
    "place_id": "ChIJN3jEpYEDyIkRKmBEs8dnmc8",
    "name": "Slainte Irish Pub and Restaurant",
    "street_address": "1700 Thames Street",
    "city": "Baltimore",
    "state": "MD",
    "zip_code": "21231",
    "latitude": 39.2820547,
    "longitude": -76.59251379999999,
    "website": "http://slaintepub.com/",
    "category": "Bar & Restaurant",
    "types": "bar, restaurant, point_of_interest, food, establishment"
  },
  {
    "place_id": "ChIJERhPlIkDyIkRxd3I75QYles",
    "name": "Hudson Street Stack House",
    "street_address": "2626 Hudson Street",
    "city": "Baltimore",
    "state": "MD",
    "zip_code": "21224",
    "latitude": 39.2822003,
    "longitude": -76.5789223,
    "website": "https://hudsonstreetstackhouse.com/",
    "category": "Bar & Restaurant",
    "types": "bar, restaurant, food, point_of_interest, establishment"
  },
  {
    "place_id": "ChIJh4U4GAoEyIkRbHXk-jp6g6s",
    "name": "Knotty Pine",
    "street_address": "801 South Conkling Street",
    "city": "Baltimore",
    "state": "MD",
    "zip_code": "21224",
    "latitude": 39.28348819999999,
    "longitude": -76.56678529999999,
    "website": "http://knottypinebmore.com/",
    "category": "Bar & Restaurant",
    "types": "restaurant, bar, food, point_of_interest, establishment"
  },
  {
    "place_id": "ChIJge7TaIoDyIkRWm6xG6Ewz0A",
    "name": "Lee's Pint & Shell",
    "street_address": "2844 Hudson Street",
    "city": "Baltimore",
    "state": "MD",
    "zip_code": "21224",
    "latitude": 39.2824196,
    "longitude": -76.5756999,
    "website": "http://www.leespintandshell.com/",
    "category": "Bar & Restaurant",
    "types": "bar, restaurant, food, point_of_interest, establishment"
  },
  {
    "place_id": "ChIJ11stsIsDyIkR_skzvCPCSWw",
    "name": "Speakeasy Saloon & Dining House",
    "street_address": "2840 O Donnell Street",
    "city": "Baltimore",
    "state": "MD",
    "zip_code": "21224",
    "latitude": 39.2805612,
    "longitude": -76.5755428,
    "website": null,
    "category": "Bar & Restaurant",
    "types": "bar, restaurant, food, point_of_interest, establishment"
  },
  {
    "place_id": "ChIJX7Zb7wkEyIkRjJZISbDELlI",
    "name": "Huck's American Craft",
    "street_address": "3728 Hudson Street",
    "city": "Baltimore",
    "state": "MD",
    "zip_code": "21224",
    "latitude": 39.2828226,
    "longitude": -76.565135,
    "website": "http://hucksamericancraft.com/",
    "category": "Bar & Restaurant",
    "types": "bar, restaurant, food, point_of_interest, establishment"
  },
  {
    "place_id": "ChIJxQvxUb8FyIkRcWB8iQPfiCg",
    "name": "Maggie's Farm",
    "street_address": "4341 Harford Road",
    "city": "Baltimore",
    "state": "MD",
    "zip_code": "21214",
    "latitude": 39.33945719999999,
    "longitude": -76.5724949,
    "website": "http://www.maggiesfarmmd.com/",
    "category": "Bar & Restaurant",
    "types": "bar, restaurant, food, point_of_interest, establishment"
  },
  {
    "place_id": "ChIJMZFWoMYFyIkRXXB490INSek",
    "name": "The Hamilton Sports Bar and Grill",
    "street_address": "5506 Harford Road",
    "city": "Baltimore",
    "state": "MD",
    "zip_code": "21214",
    "latitude": 39.3526625,
    "longitude": -76.5616015,
    "website": null,
    "category": "Restaurant",
    "types": "restaurant, food, point_of_interest, establishment"
  },
  {
    "place_id": "ChIJv6h2Z68ayIkRF3U3y9WvlpQ",
    "name": "Mt. Washington Tavern",
    "street_address": "5700 Newbury Street",
    "city": "Baltimore",
    "state": "MD",
    "zip_code": "21209",
    "latitude": 39.3674389,
    "longitude": -76.6523694,
    "website": "https://www.mtwashingtontavern.com/",
    "category": "Bar & Restaurant",
    "types": "bar, restaurant, food, point_of_interest, establishment"
  },
  {
    "place_id": "ChIJa4Jg9NwEyIkR30vcjuVJBww",
    "name": "R. House",
    "street_address": "301 West 29th Street",
    "city": "Baltimore",
    "state": "MD",
    "zip_code": "21211",
    "latitude": 39.3217366,
    "longitude": -76.6223048,
    "website": "https://r.housebaltimore.com/",
    "category": "Bar & Restaurant",
    "types": "bar, restaurant, food, point_of_interest, establishment"
  },
  {
    "place_id": "ChIJHzgxupUEyIkReKHd7BYjrTc",
    "name": "Turp's Sports Bar & Restaurant",
    "street_address": "1317 North Charles Street",
    "city": "Baltimore",
    "state": "MD",
    "zip_code": "21201",
    "latitude": 39.3051394,
    "longitude": -76.6159179,
    "website": "http://www.turpsonline.com/",
    "category": "Bar & Restaurant",
    "types": "meal_takeaway, bar, restaurant, food, point_of_interest, establishment"
  },
  {
    "place_id": "ChIJkwx_9GUEyIkR7Z2nGu3FpNU",
    "name": "The Winston Lounge",
    "street_address": "2343 East Monument Street",
    "city": "Baltimore",
    "state": "MD",
    "zip_code": "21205",
    "latitude": 39.2986838,
    "longitude": -76.5838631,
    "website": null,
    "category": "Bar & Restaurant",
    "types": "bar, restaurant, food, point_of_interest, establishment"
  },
  {
    "place_id": "ChIJ69REtaQFyIkRxBU-oIQS3vM",
    "name": "Micky's Joint",
    "street_address": "5402 Harford Road",
    "city": "Baltimore",
    "state": "MD",
    "zip_code": "21214",
    "latitude": 39.3514792,
    "longitude": -76.5624938,
    "website": "https://sites.google.com/view/mickysjoint/home",
    "category": "Bar & Restaurant",
    "types": "bar, restaurant, food, point_of_interest, establishment"
  },
  {
    "place_id": "ChIJJb2wnmMFyIkR58W4w6ER4x8",
    "name": "Swallow At the Hollow",
    "street_address": "5921 York Road",
    "city": "Baltimore",
    "state": "MD",
    "zip_code": "21212",
    "latitude": 39.3648797,
    "longitude": -76.6097262,
    "website": "https://www.thehollowbaltimore.com/",
    "category": "Bar & Restaurant",
    "types": "bar, restaurant, food, point_of_interest, establishment"
  },
  {
    "place_id": "ChIJ_1XIJygFyIkRIMtbjxaB-64",
    "name": "Avenue Kitchen & Bar",
    "street_address": "911 West 36th Street",
    "city": "Baltimore",
    "state": "MD",
    "zip_code": "21211",
    "latitude": 39.3310217,
    "longitude": -76.6317743,
    "website": "https://avenuekitchenbar.com/",
    "category": "Bar & Restaurant",
    "types": "bar, restaurant, food, point_of_interest, establishment"
  },
  {
    "place_id": "ChIJnb2G4TUFyIkRKBhamLI0tk8",
    "name": "Johnny's",
    "street_address": "4800 Roland Avenue",
    "city": "Baltimore",
    "state": "MD",
    "zip_code": "21210",
    "latitude": 39.350589,
    "longitude": -76.635648,
    "website": "https://johnnysdownstairs.com/",
    "category": "Bar & Restaurant",
    "types": "cafe, bar, store, restaurant, food, point_of_interest, establishment"
  },
  {
    "place_id": "ChIJ4S7mcQsDyIkRrkk1HszGLSs",
    "name": "Section 771",
    "street_address": "504 Washington Boulevard",
    "city": "Baltimore",
    "state": "MD",
    "zip_code": "21230",
    "latitude": 39.2856354,
    "longitude": -76.622563,
    "website": "https://section771.com/",
    "category": "Bar & Restaurant",
    "types": "bar, restaurant, food, point_of_interest, establishment"
  },
  {
    "place_id": "ChIJ9bKrHHUEyIkRHFINLbKCnOY",
    "name": "O'Donnell's Pub & Grille",
    "street_address": "531 South Potomac Street",
    "city": "Baltimore",
    "state": "MD",
    "zip_code": "21224",
    "latitude": 39.285444,
    "longitude": -76.57419399999999,
    "website": null,
    "category": "Bar & Restaurant",
    "types": "bar, restaurant, food, point_of_interest, establishment"
  },
  {
    "place_id": "ChIJA_cquLgFyIkRrmDSUksqbx0",
    "name": "Koco's Pub",
    "street_address": "4301 Harford Road",
    "city": "Baltimore",
    "state": "MD",
    "zip_code": "21214",
    "latitude": 39.3386254,
    "longitude": -76.57331649999999,
    "website": "http://www.kocospub.com/",
    "category": "Bar & Restaurant",
    "types": "bar, restaurant, point_of_interest, food, establishment"
  },
  {
    "place_id": "ChIJB0a_g3gEyIkRa2H2K_8sHlg",
    "name": "Kislings Tavern",
    "street_address": "2100 Fleet Street",
    "city": "Baltimore",
    "state": "MD",
    "zip_code": "21231",
    "latitude": 39.2850295,
    "longitude": -76.5868428,
    "website": "https://www.baltimoresbestwings.com/",
    "category": "Bar & Restaurant",
    "types": "bar, restaurant, food, point_of_interest, establishment"
  },
  {
    "place_id": "ChIJrdyKf2EDyIkRDMA3l4gxtEc",
    "name": "Phillips Seafood",
    "street_address": "601 East Pratt Street",
    "city": "Baltimore",
    "state": "MD",
    "zip_code": "21202",
    "latitude": 39.2863965,
    "longitude": -76.6071466,
    "website": "http://www.phillipsseafood.com/",
    "category": "Bar & Restaurant",
    "types": "bar, restaurant, point_of_interest, food, establishment"
  },
  {
    "place_id": "ChIJ31vtLJcFyIkRxfmccs1MrdU",
    "name": "LB Tavern",
    "street_address": "20 West Baltimore Street",
    "city": "Baltimore",
    "state": "MD",
    "zip_code": "21201",
    "latitude": 39.2897519,
    "longitude": -76.616125,
    "website": "http://www.lordbaltimorehotel.com/dining-and-entertainment/lb-tavern",
    "category": "Bar & Restaurant",
    "types": "bar, restaurant, food, point_of_interest, establishment"
  },
  {
    "place_id": "ChIJwxPStTQdyIkRqHs1-8HEgY0",
    "name": "Shannon's Pub & Grille",
    "street_address": "4401 Annapolis Road",
    "city": "Baltimore Highlands",
    "state": "MD",
    "zip_code": "21227",
    "latitude": 39.233512,
    "longitude": -76.64123599999999,
    "website": "http://www.shannonspub.com/",
    "category": "Bar & Restaurant",
    "types": "bar, restaurant, food, point_of_interest, establishment"
  },
  {
    "place_id": "ChIJhaVnXXEDyIkR3j375ptYok4",
    "name": "Wiley Gunters",
    "street_address": "823 East Fort Avenue",
    "city": "Baltimore",
    "state": "MD",
    "zip_code": "21230",
    "latitude": 39.2717499,
    "longitude": -76.60222999999999,
    "website": "http://www.wileygunters.com/",
    "category": "Bar & Restaurant",
    "types": "bar, restaurant, food, point_of_interest, establishment"
  },
  {
    "place_id": "ChIJj9cPpoEDyIkRMXPTk3lx6Ws",
    "name": "Kooper's Tavern",
    "street_address": "1702 Thames Street",
    "city": "Baltimore",
    "state": "MD",
    "zip_code": "21231",
    "latitude": 39.2820546,
    "longitude": -76.5924508,
    "website": "http://www.kooperstavern.com/",
    "category": "Bar & Restaurant",
    "types": "bar, restaurant, food, point_of_interest, establishment"
  },
  {
    "place_id": "ChIJReclSIADyIkRxYiGDxMpRDc",
    "name": "Todd Conner's",
    "street_address": "700 South Broadway",
    "city": "Baltimore",
    "state": "MD",
    "zip_code": "21231",
    "latitude": 39.283403,
    "longitude": -76.5935831,
    "website": "http://www.toddconners.com/",
    "category": "Bar & Restaurant",
    "types": "bar, restaurant, food, point_of_interest, establishment"
  },
  {
    "place_id": "ChIJfZqz5QoEyIkRnd9Dv2aioeI",
    "name": "The Pig & Rooster Smokehouse",
    "street_address": "3242 Foster Avenue",
    "city": "Baltimore",
    "state": "MD",
    "zip_code": "21224",
    "latitude": 39.28466940000001,
    "longitude": -76.5700026,
    "website": "http://pigandroostersmokehouse.com/",
    "category": "Bar & Restaurant",
    "types": "bar, restaurant, food, point_of_interest, establishment"
  },
  {
    "place_id": "ChIJZ3lxzYkDyIkRqwgKR_gd3FA",
    "name": "Smaltimore",
    "street_address": "2522 Fait Avenue",
    "city": "Baltimore",
    "state": "MD",
    "zip_code": "21224",
    "latitude": 39.2831889,
    "longitude": -76.5804753,
    "website": "http://www.smaltimoremd.com/",
    "category": "Bar & Restaurant",
    "types": "bar, restaurant, food, point_of_interest, establishment"
  },
  {
    "place_id": "ChIJL-HCqSoFyIkRbOnPhTEQGLo",
    "name": "Blue Pit BBQ",
    "street_address": "1601 Union Avenue",
    "city": "Baltimore",
    "state": "MD",
    "zip_code": "21211",
    "latitude": 39.3319142,
    "longitude": -76.6408331,
    "website": "https://bluepitbbq.com/",
    "category": "Bar & Restaurant",
    "types": "bar, restaurant, food, point_of_interest, establishment"
  },
  {
    "place_id": "ChIJESZ_I4oDyIkRi5Z33tKtIBU",
    "name": "HomeSlyce - Canton",
    "street_address": "900 South Kenwood Avenue",
    "city": "Baltimore",
    "state": "MD",
    "zip_code": "21224",
    "latitude": 39.2820217,
    "longitude": -76.5771388,
    "website": "https://homeslyce.com/locations/canton/?utm_source=GMBlisting&utm_medium=organic",
    "category": "Bar & Restaurant",
    "types": "meal_delivery, meal_takeaway, bar, restaurant, point_of_interest, food, establishment"
  },
  {
    "place_id": "ChIJU-yWHYsDyIkROButW35IJlI",
    "name": "Sopro",
    "street_address": "3000 O Donnell Street",
    "city": "Baltimore",
    "state": "MD",
    "zip_code": "21224",
    "latitude": 39.2805548,
    "longitude": -76.5738695,
    "website": "https://www.sopro-baltimore.com/",
    "category": "Bar & Restaurant",
    "types": "bar, restaurant, food, point_of_interest, establishment"
  },
  {
    "place_id": "ChIJW8DHingEyIkRzbGrapHrKFA",
    "name": "Johnny Rad's Pizzeria Tavern",
    "street_address": "2108 Eastern Avenue",
    "city": "Baltimore",
    "state": "MD",
    "zip_code": "21231",
    "latitude": 39.2860452,
    "longitude": -76.5865575,
    "website": "http://www.johnnyrads.com/",
    "category": "Bar & Restaurant",
    "types": "bar, restaurant, food, point_of_interest, establishment"
  },
  {
    "place_id": "ChIJ8z1N6oEDyIkRlnWrOGutZhk",
    "name": "Barcocina",
    "street_address": "1629 Thames Street",
    "city": "Baltimore",
    "state": "MD",
    "zip_code": "21231",
    "latitude": 39.28125819999999,
    "longitude": -76.59333430000001,
    "website": "http://www.barcocina.com/",
    "category": "Bar & Restaurant",
    "types": "bar, restaurant, food, point_of_interest, establishment"
  },
  {
    "place_id": "ChIJ_eYBWAoEyIkRC5MqRhIGYec",
    "name": "The Chasseur",
    "street_address": "3328 Foster Avenue",
    "city": "Baltimore",
    "state": "MD",
    "zip_code": "21224",
    "latitude": 39.2846729,
    "longitude": -76.56902989999999,
    "website": "https://chasseurbaltimore.com/",
    "category": "Restaurant",
    "types": "restaurant, food, point_of_interest, establishment"
  }
]