[
  {
    "place_id": "ChIJ5d-S5Sb5rlQRfnG6jmU1yDA",
    "name": "13th Street Pub and Grill",
    "street_address": "1520 North 13th Street",
    "city": "Boise",
    "state": "ID",
    "zip_code": "83702",
    "latitude": 43.63007450000001,
    "longitude": -116.2031542,
    "website": "http://www.13pubandgrill.com/",
    "category": "Bar & Restaurant",
    "types": "bar, restaurant, food, point_of_interest, establishment"
  },
  {
    "place_id": "ChIJ-xwRr_P4rlQRjoJg6aDrMuE",
    "name": "The Shed",
    "street_address": "1010 South La Pointe Street",
    "city": "Boise",
    "state": "ID",
    "zip_code": "83706",
    "latitude": 43.6085777,
    "longitude": -116.2126935,
    "website": "https://www.facebook.com/theshedboise/",
    "category": "Bar & Restaurant",
    "types": "bar, restaurant, food, point_of_interest, establishment"
  },
  {
    "place_id": "ChIJtcho6-T4rlQR_Mg8TK-Jbwc",
    "name": "Taphouse Pub & Eatery | Downtown Boise",
    "street_address": "760 West Main Street",
    "city": "Boise",
    "state": "ID",
    "zip_code": "83702",
    "latitude": 43.615481,
    "longitude": -116.2027931,
    "website": "http://taphouseboise.com/",
    "category": "Bar & Restaurant",
    "types": "bar, restaurant, food, point_of_interest, establishment"
  },
  {
    "place_id": "ChIJNw1RhEz4rlQRJss6Nw1LIec",
    "name": "The Refuge Restaurant & Lounge",
    "street_address": "404 East Parkcenter Boulevard",
    "city": "Boise",
    "state": "ID",
    "zip_code": "83706",
    "latitude": 43.596218,
    "longitude": -116.1771075,
    "website": "http://www.therefugeboise.com/",
    "category": "Bar & Restaurant",
    "types": "bar, restaurant, food, point_of_interest, establishment"
  },
  {
    "place_id": "ChIJC-VK_u_4rlQRzcexdy_Wq-s",
    "name": "Double Tap Pub",
    "street_address": "409 South 8th Street",
    "city": "Boise",
    "state": "ID",
    "zip_code": "83702",
    "latitude": 43.6131844,
    "longitude": -116.2064694,
    "website": "http://www.doubletapboise.com/",
    "category": "Bar & Restaurant",
    "types": "bar, restaurant, food, point_of_interest, establishment"
  },
  {
    "place_id": "ChIJixETestXrlQRq9OmzXYhJfA",
    "name": "Charlie Brown's",
    "street_address": "5783 West Overland Road",
    "city": "Boise",
    "state": "ID",
    "zip_code": "83705",
    "latitude": 43.589141,
    "longitude": -116.25333,
    "website": null,
    "category": "Bar & Restaurant",
    "types": "bar, restaurant, food, point_of_interest, establishment"
  },
  {
    "place_id": "ChIJ13Z0K9P-rlQRZ8uf1TNcC2Q",
    "name": "O'Michael's Pub & Grill",
    "street_address": "2433 North Bogus Basin Road",
    "city": "Boise",
    "state": "ID",
    "zip_code": "83702",
    "latitude": 43.641853,
    "longitude": -116.208742,
    "website": "http://omichaelspub.com/",
    "category": "Bar & Restaurant",
    "types": "bar, restaurant, food, point_of_interest, establishment"
  },
  {
    "place_id": "ChIJFbQleOb4rlQR0PP2cuoILr8",
    "name": "Owyhee Tavern",
    "street_address": "1109 West Main Street",
    "city": "Boise",
    "state": "ID",
    "zip_code": "83702",
    "latitude": 43.6173309,
    "longitude": -116.2073474,
    "website": "http://www.owyheetavern.com/",
    "category": "Bar & Restaurant",
    "types": "restaurant, bar, food, point_of_interest, establishment"
  },
  {
    "place_id": "ChIJy7Wj9Wr5rlQRwbJerZAkMyw",
    "name": "The James Kitchen & Bar",
    "street_address": "1030 South Broadway Avenue",
    "city": "Boise",
    "state": "ID",
    "zip_code": "83706",
    "latitude": 43.6000242,
    "longitude": -116.1932383,
    "website": "http://www.thejamesboise.com/",
    "category": "Bar & Restaurant",
    "types": "bar, restaurant, point_of_interest, food, establishment"
  },
  {
    "place_id": "ChIJBTg-RmT4rlQRR9z-gBgFrQk",
    "name": "Quinn's Restaurant & Lounge",
    "street_address": "1005 South Vista Avenue",
    "city": "Boise",
    "state": "ID",
    "zip_code": "83705",
    "latitude": 43.59502,
    "longitude": -116.214031,
    "website": "https://www.quinnsrestaurant.com/",
    "category": "Bar & Restaurant",
    "types": "bar, restaurant, food, point_of_interest, establishment"
  },
  {
    "place_id": "ChIJF1_rrG75rlQREbTo4F8WeMc",
    "name": "Oldspeak Bar",
    "street_address": "3640 West Chinden Boulevard",
    "city": "Garden City",
    "state": "ID",
    "zip_code": "83714",
    "latitude": 43.624792,
    "longitude": -116.2416287,
    "website": "http://oldspeakbar.com/",
    "category": "Bar & Restaurant",
    "types": "book_store, bar, store, restaurant, food, point_of_interest, establishment"
  },
  {
    "place_id": "ChIJkajDOBL_rlQRkhYe1GyaO6E",
    "name": "The Local",
    "street_address": "5616 West State Street",
    "city": "Garden City",
    "state": "ID",
    "zip_code": "83703",
    "latitude": 43.6566337,
    "longitude": -116.2587978,
    "website": "http://thelocalboise.com/",
    "category": "Bar & Restaurant",
    "types": "restaurant, bar, food, point_of_interest, establishment"
  },
  {
    "place_id": "ChIJs-SmHin5rlQRW-k3QKy50Gg",
    "name": "Lost Grove Brewing - Hyde Park",
    "street_address": "1602 North 13th Street",
    "city": "Boise",
    "state": "ID",
    "zip_code": "83702",
    "latitude": 43.63036330000001,
    "longitude": -116.2030596,
    "website": "https://www.lostgrovebrewing.com/",
    "category": "Bar & Restaurant",
    "types": "bar, restaurant, food, point_of_interest, establishment"
  },
  {
    "place_id": "ChIJV8GAiDD_rlQRy2w6mA_wY3c",
    "name": "The Lift",
    "street_address": "4091 West State Street",
    "city": "Boise",
    "state": "ID",
    "zip_code": "83703",
    "latitude": 43.6428724,
    "longitude": -116.2399985,
    "website": "http://theliftboise.com/",
    "category": "Bar & Restaurant",
    "types": "bar, restaurant, food, point_of_interest, establishment"
  },
  {
    "place_id": "ChIJh5cdf-T4rlQRoLk7ABLyeH8",
    "name": "Bittercreek Alehouse",
    "street_address": "246 North 8th Street",
    "city": "Boise",
    "state": "ID",
    "zip_code": "83702",
    "latitude": 43.6165919,
    "longitude": -116.2023165,
    "website": "https://www.bittercreekalehouse.com/",
    "category": "Bar & Restaurant",
    "types": "bar, restaurant, food, point_of_interest, establishment"
  },
  {
    "place_id": "ChIJF33Dxfj4rlQRimp7ZpViRpU",
    "name": "The River Room",
    "street_address": "401 South Broadway Avenue",
    "city": "Boise",
    "state": "ID",
    "zip_code": "83702",
    "latitude": 43.60789700000001,
    "longitude": -116.1942118,
    "website": "http://www.wholefoodsmarket.com/stores/boise?utm_source=google&utm_medium=organic&utm_campaign=listings",
    "category": "Bar & Restaurant",
    "types": "bar, restaurant, food, point_of_interest, establishment"
  },
  {
    "place_id": "ChIJQ1ilxNdXrlQReECPd1VwEC4",
    "name": "Overland Bar",
    "street_address": "3907 West Overland Road",
    "city": "Boise",
    "state": "ID",
    "zip_code": "83705",
    "latitude": 43.5896126,
    "longitude": -116.2301494,
    "website": null,
    "category": "Bar & Restaurant",
    "types": "bar, restaurant, food, point_of_interest, establishment"
  },
  {
    "place_id": "ChIJ3RE6J9P-rlQRtG3Ye4_P7zs",
    "name": "Highlands Hollow Brewhouse",
    "street_address": "2455 N Highlands Holw",
    "city": "Boise",
    "state": "ID",
    "zip_code": "83702",
    "latitude": 43.6424377,
    "longitude": -116.2086825,
    "website": "http://www.highlandshollow.com/",
    "category": "Bar & Restaurant",
    "types": "bar, restaurant, food, point_of_interest, establishment"
  },
  {
    "place_id": "ChIJ6xO7rPr4rlQRDHnaJtgAatY",
    "name": "Solid Grill & Bar",
    "street_address": "405 South 8th Street",
    "city": "Boise",
    "state": "ID",
    "zip_code": "83702",
    "latitude": 43.6134647,
    "longitude": -116.2061773,
    "website": "http://solidboise.com/",
    "category": "Bar & Restaurant",
    "types": "restaurant, bar, food, point_of_interest, establishment"
  },
  {
    "place_id": "ChIJK2xpVFJWrlQRsY9VcUcr8rw",
    "name": "Legends Pub & Grill",
    "street_address": "7609 West Overland Road",
    "city": "Boise",
    "state": "ID",
    "zip_code": "83709",
    "latitude": 43.5885391,
    "longitude": -116.2771632,
    "website": "http://legendsboise.com/",
    "category": "Bar & Restaurant",
    "types": "bar, restaurant, food, point_of_interest, establishment"
  },
  {
    "place_id": "ChIJpw_6V65XrlQRtjkSkT1Poso",
    "name": "Beers Pizza & Sports Pub - Boise",
    "street_address": "9140 West Emerald Street",
    "city": "Boise",
    "state": "ID",
    "zip_code": "83704",
    "latitude": 43.6117965,
    "longitude": -116.2958577,
    "website": "https://www.beerssportspub.com/",
    "category": "Bar & Restaurant",
    "types": "bar, restaurant, food, point_of_interest, establishment"
  },
  {
    "place_id": "ChIJmZXo7PpXrlQRjb4NMNS99Y0",
    "name": "13th Street Pub & Grill",
    "street_address": "3201 West Airport Way",
    "city": "Boise",
    "state": "ID",
    "zip_code": "83705",
    "latitude": 43.5689617,
    "longitude": -116.2220017,
    "website": "https://13pubandgrill.com/",
    "category": "Bar & Restaurant",
    "types": "bar, restaurant, food, point_of_interest, establishment"
  },
  {
    "place_id": "ChIJFzWJRwdVrlQRXkI5s7D1OsU",
    "name": "The Harp",
    "street_address": "1435 North Eagle Road",
    "city": "Meridian",
    "state": "ID",
    "zip_code": "83642",
    "latitude": 43.6177121,
    "longitude": -116.3551695,
    "website": "https://theharppub.com/",
    "category": "Bar & Restaurant",
    "types": "bar, restaurant, food, point_of_interest, establishment"
  },
  {
    "place_id": "ChIJi-ccQ-lWrlQRq1jLmoAB4wM",
    "name": "Hooligans Pub",
    "street_address": "10704 West Overland Road",
    "city": "Boise",
    "state": "ID",
    "zip_code": "83709",
    "latitude": 43.59068039999999,
    "longitude": -116.3160512,
    "website": "https://www.hooliganspubboise.com/",
    "category": "Bar & Restaurant",
    "types": "bar, restaurant, food, point_of_interest, establishment"
  },
  {
    "place_id": "ChIJPTabj0xRrlQRYeGiL2oRB5w",
    "name": "Giggy D's",
    "street_address": "1505 South Eagle Road",
    "city": "Meridian",
    "state": "ID",
    "zip_code": "83642",
    "latitude": 43.59145840000001,
    "longitude": -116.3562969,
    "website": "https://www.giggyds.com/",
    "category": "Bar & Restaurant",
    "types": "bar, restaurant, food, point_of_interest, establishment"
  },
  {
    "place_id": "ChIJ20c6spv_rlQRI0Om78crvL8",
    "name": "Brixx Craft House",
    "street_address": "7700 West State Street",
    "city": "Boise",
    "state": "ID",
    "zip_code": "83714",
    "latitude": 43.6715522,
    "longitude": -116.2835407,
    "website": "https://www.brixxcrafthouse.com/",
    "category": "Bar & Restaurant",
    "types": "bar, restaurant, food, point_of_interest, establishment"
  },
  {
    "place_id": "ChIJuXN9TGb_rlQR6_ezUv-V9DE",
    "name": "Players Pub & Grill",
    "street_address": "5504 Alworth Street",
    "city": "Garden City",
    "state": "ID",
    "zip_code": "83714",
    "latitude": 43.6479731,
    "longitude": -116.273643,
    "website": null,
    "category": "Restaurant",
    "types": "restaurant, point_of_interest, food, establishment"
  },
  {
    "place_id": "ChIJ9VgJCRZUrlQRS6dF1WrJRTo",
    "name": "Yard House",
    "street_address": "3693 East Longwing Lane",
    "city": "Meridian",
    "state": "ID",
    "zip_code": "83646",
    "latitude": 43.62158549999999,
    "longitude": -116.3484509,
    "website": "https://www.yardhouse.com/locations/id/meridian/boise-village-at-meridian/8351?cmpid=br:yh_ag:ie_ch:loc_ca:YHGMB_sn:gmb_gt:meridian-id-8351_pl:locurl_rd:1048",
    "category": "Bar & Restaurant",
    "types": "meal_takeaway, bar, restaurant, food, point_of_interest, establishment"
  },
  {
    "place_id": "ChIJA_-uB09RrlQRHRqXzaWDqVE",
    "name": "Rudy's Pub & Grill",
    "street_address": "2310 East Overland Road",
    "city": "Meridian",
    "state": "ID",
    "zip_code": "83642",
    "latitude": 43.59055559999999,
    "longitude": -116.3647222,
    "website": "https://rudyspubgrill.com/",
    "category": "Bar & Restaurant",
    "types": "bar, restaurant, food, point_of_interest, establishment"
  },
  {
    "place_id": "ChIJAwmz9gz_rlQRkQBLNmf0aUM",
    "name": "Capitol Bar",
    "street_address": "6100 West State Street",
    "city": "Boise",
    "state": "ID",
    "zip_code": "83703",
    "latitude": 43.6600723,
    "longitude": -116.2647247,
    "website": "https://www.thecapbar.com/",
    "category": "Bar & Restaurant",
    "types": "bar, restaurant, food, point_of_interest, establishment"
  },
  {
    "place_id": "ChIJF06kstRRrlQR_tzL5zjDRt4",
    "name": "Dusty Rose Reserve",
    "street_address": "2020 East Overland Road",
    "city": "Meridian",
    "state": "ID",
    "zip_code": "83642",
    "latitude": 43.5907064,
    "longitude": -116.3692766,
    "website": "https://dustyrosereserve.com/",
    "category": "Bar & Restaurant",
    "types": "restaurant, bar, food, point_of_interest, establishment"
  },
  {
    "place_id": "ChIJ25AnbVNWrlQRs9sk7tZN0QQ",
    "name": "Twin Peaks",
    "street_address": "7751 West Spectrum Street",
    "city": "Boise",
    "state": "ID",
    "zip_code": "83709",
    "latitude": 43.5872716,
    "longitude": -116.2786299,
    "website": "https://twinpeaksrestaurant.com/locations/boise-id",
    "category": "Bar & Restaurant",
    "types": "bar, restaurant, food, point_of_interest, establishment"
  },
  {
    "place_id": "ChIJDzmNzU5RrlQRmF5VtnQLrME",
    "name": "Gramercy Park Pub & Grill",
    "street_address": "1626 South Wells Avenue",
    "city": "Meridian",
    "state": "ID",
    "zip_code": "83642",
    "latitude": 43.5900031,
    "longitude": -116.3615016,
    "website": "https://www.gramercypub.com/",
    "category": "Restaurant",
    "types": "restaurant, food, point_of_interest, establishment"
  },
  {
    "place_id": "ChIJr21L8C9UrlQRGuz82yTEi-M",
    "name": "Sockeye Grill & Brewery",
    "street_address": "12542 West Fairview Avenue",
    "city": "Boise",
    "state": "ID",
    "zip_code": "83713",
    "latitude": 43.6204544,
    "longitude": -116.3384258,
    "website": "http://sockeyebrew.com/",
    "category": "Bar & Restaurant",
    "types": "bar, restaurant, food, point_of_interest, establishment"
  },
  {
    "place_id": "ChIJtTAHmLhVrlQRI3kyIXJFdzs",
    "name": "Sam's Smokehouse And Saloon",
    "street_address": "3395 North Five Mile Road",
    "city": "Boise",
    "state": "ID",
    "zip_code": "83713",
    "latitude": 43.635393,
    "longitude": -116.31473,
    "website": "http://samssmokehouseandsaloon.com/",
    "category": "Bar & Restaurant",
    "types": "bar, restaurant, food, point_of_interest, establishment"
  },
  {
    "place_id": "ChIJoyDXQTH_rlQRR-UF6GlmQ9A",
    "name": "Heritage Social Club - Bar & Grill",
    "street_address": "5467 North Glenwood Street",
    "city": "Boise",
    "state": "ID",
    "zip_code": "83714",
    "latitude": 43.6546029,
    "longitude": -116.2805028,
    "website": "https://heritagesocialclub.com/",
    "category": "Bar & Restaurant",
    "types": "bar, restaurant, food, point_of_interest, establishment"
  },
  {
    "place_id": "ChIJ1wi94RJWrlQR7P1AqzPfdlw",
    "name": "Applebee's Grill + Bar",
    "street_address": "7845 West Emerald Street",
    "city": "Boise",
    "state": "ID",
    "zip_code": "83704",
    "latitude": 43.6121062,
    "longitude": -116.2796438,
    "website": "https://restaurants.applebees.com/en-us/id/boise/7845-west-emerald-84079?utm_source=google&utm_medium=organic&utm_campaign=google_my_business&utm_term=84079&utm_content=website",
    "category": "Bar & Restaurant",
    "types": "restaurant, bar, food, point_of_interest, establishment"
  },
  {
    "place_id": "ChIJX4Q-lUlXrlQRQ0_M4JXRwHE",
    "name": "Voodoo Brewing Company- Boise",
    "street_address": "9931 West Cable Car Street",
    "city": "Boise",
    "state": "ID",
    "zip_code": "83709",
    "latitude": 43.59089760000001,
    "longitude": -116.3050587,
    "website": "https://boise.voodoobrewery.com/",
    "category": "Bar & Restaurant",
    "types": "bar, restaurant, food, point_of_interest, establishment"
  },
  {
    "place_id": "ChIJ-zyesIH3rlQR3ymfaWmLyFQ",
    "name": "Tavern At Bown Crossing",
    "street_address": "3111 South Bown Way",
    "city": "Boise",
    "state": "ID",
    "zip_code": "83706",
    "latitude": 43.57424700000001,
    "longitude": -116.155269,
    "website": "https://www.tavernatbown.com/",
    "category": "Bar & Restaurant",
    "types": "restaurant, bar, food, point_of_interest, establishment"
  },
  {
    "place_id": "ChIJaeSgyMP4rlQRKWa5CWXveXM",
    "name": "Gil's K-Nine Bar",
    "street_address": "2506 West Main Street",
    "city": "Boise",
    "state": "ID",
    "zip_code": "83702",
    "latitude": 43.6220771,
    "longitude": -116.2215175,
    "website": null,
    "category": "Bar & Restaurant",
    "types": "bar, restaurant, food, point_of_interest, establishment"
  },
  {
    "place_id": "ChIJ_cdl0-T4rlQRHCNt4yG-lE4",
    "name": "Bar Gernika",
    "street_address": "202 South Capitol Boulevard",
    "city": "Boise",
    "state": "ID",
    "zip_code": "83702",
    "latitude": 43.6140229,
    "longitude": -116.2029431,
    "website": "http://www.bargernika.com/",
    "category": "Bar & Restaurant",
    "types": "bar, restaurant, food, point_of_interest, establishment"
  },
  {
    "place_id": "ChIJr3LtgOP4rlQR69DD6KaJe7A",
    "name": "Prost German Pub",
    "street_address": "274 North 8th Street",
    "city": "Boise",
    "state": "ID",
    "zip_code": "83702",
    "latitude": 43.61677779999999,
    "longitude": -116.2021556,
    "website": "http://www.prostboise.com/main/",
    "category": "Bar & Restaurant",
    "types": "bar, restaurant, food, point_of_interest, establishment"
  },
  {
    "place_id": "ChIJMaCY_PT_rlQRAdkBm7FTsFA",
    "name": "Sockeye Alehouse",
    "street_address": "3823 North Garden Center Way",
    "city": "Boise",
    "state": "ID",
    "zip_code": "83703",
    "latitude": 43.6547592,
    "longitude": -116.2344138,
    "website": "http://sockeyebrew.com/",
    "category": "Bar & Restaurant",
    "types": "bar, restaurant, food, point_of_interest, establishment"
  },
  {
    "place_id": "ChIJkW57Tzr_rlQRYxDLataKAbM",
    "name": "Burger N Brew",
    "street_address": "4295 West State Street",
    "city": "Boise",
    "state": "ID",
    "zip_code": "83703",
    "latitude": 43.6447009,
    "longitude": -116.2427344,
    "website": "http://www.burgernbrew.com/",
    "category": "Bar & Restaurant",
    "types": "bar, restaurant, food, point_of_interest, establishment"
  },
  {
    "place_id": "ChIJLb-WC0RUrlQRT1cyRaBK52M",
    "name": "Oak Barrel of Eagle Restaurant and Lounge",
    "street_address": "1065 East Winding Creek Drive",
    "city": "Eagle",
    "state": "ID",
    "zip_code": "83616",
    "latitude": 43.6938286,
    "longitude": -116.3406502,
    "website": "http://www.oakbarrelofeagle.com/",
    "category": "Bar & Restaurant",
    "types": "restaurant, meal_takeaway, bar, food, point_of_interest, establishment"
  },
  {
    "place_id": "ChIJeaPJEqWrr1QRtnxFHuFGLHo",
    "name": "Old State Saloon",
    "street_address": "50 East State Street",
    "city": "Eagle",
    "state": "ID",
    "zip_code": "83616",
    "latitude": 43.6953078,
    "longitude": -116.353354,
    "website": "http://oldstatesaloon.com/",
    "category": "Bar & Restaurant",
    "types": "bar, cafe, restaurant, food, point_of_interest, store, establishment"
  },
  {
    "place_id": "ChIJPzzxsrWqr1QRJx0Tm0bnFV0",
    "name": "Bardenay Restaurant & Distillery | Eagle",
    "street_address": "155 East Riverside Drive",
    "city": "Eagle",
    "state": "ID",
    "zip_code": "83616",
    "latitude": 43.6866344,
    "longitude": -116.3522409,
    "website": "http://www.bardenay.com/",
    "category": "Bar & Restaurant",
    "types": "bar, restaurant, food, point_of_interest, establishment"
  },
  {
    "place_id": "ChIJM3kNkfBVrlQRKsaVMyCIWYw",
    "name": "Giggy D's",
    "street_address": "6252 North Linder Road",
    "city": "Meridian",
    "state": "ID",
    "zip_code": "83646",
    "latitude": 43.6617159,
    "longitude": -116.4132871,
    "website": "https://www.giggyds.com/",
    "category": "Bar & Restaurant",
    "types": "restaurant, bar, food, point_of_interest, establishment"
  },
  {
    "place_id": "ChIJpVtERZhVrlQRxWqrfBQGEVw",
    "name": "Tavern at Eagle Island",
    "street_address": "6500 North Linder Road",
    "city": "Meridian",
    "state": "ID",
    "zip_code": "83646",
    "latitude": 43.66354699999999,
    "longitude": -116.413331,
    "website": "http://www.tavernateagleisland.com/",
    "category": "Bar & Restaurant",
    "types": "restaurant, bar, food, point_of_interest, establishment"
  },
  {
    "place_id": "ChIJJbmTObqqr1QRPxAQMemqd98",
    "name": "Rembrandts",
    "street_address": "93 South Eagle Road",
    "city": "Eagle",
    "state": "ID",
    "zip_code": "83616",
    "latitude": 43.6945421,
    "longitude": -116.354432,
    "website": "https://www.rembrandtseagle.com/",
    "category": "Bar & Restaurant",
    "types": "restaurant, bar, point_of_interest, food, establishment"
  },
  {
    "place_id": "ChIJjRBxQD2rr1QR72o8Xyur-60",
    "name": "Coyne's Restaurant & Bar",
    "street_address": "676 East Riverside Drive",
    "city": "Eagle",
    "state": "ID",
    "zip_code": "83616",
    "latitude": 43.6895711,
    "longitude": -116.3460396,
    "website": "https://coynesrestaurant.com/",
    "category": "Restaurant",
    "types": "restaurant, food, point_of_interest, establishment"
  },
  {
    "place_id": "ChIJhSL92ipVrlQR9Nnz4X-peyE",
    "name": "Good Apple Taphouse",
    "street_address": "1728 East McMillan Road",
    "city": "Meridian",
    "state": "ID",
    "zip_code": "83646",
    "latitude": 43.6491218,
    "longitude": -116.3727095,
    "website": "http://gataphouse.com/",
    "category": "Bar & Restaurant",
    "types": "bar, restaurant, food, point_of_interest, establishment"
  },
  {
    "place_id": "ChIJQW0lVbqqr1QROdJyK1KSbmI",
    "name": "Smoky Mountain Pizzeria Grill",
    "street_address": "127 East State Street",
    "city": "Eagle",
    "state": "ID",
    "zip_code": "83616",
    "latitude": 43.69489490000001,
    "longitude": -116.3523918,
    "website": "http://www.smokymountainpizza.com/",
    "category": "Restaurant",
    "types": "restaurant, food, point_of_interest, establishment"
  },
  {
    "place_id": "ChIJhZIg5t1VrlQRlNMHsdUbQio",
    "name": "Crave Kitchen & Bar",
    "street_address": "165 East Colchester Drive",
    "city": "Eagle",
    "state": "ID",
    "zip_code": "83616",
    "latitude": 43.6713022,
    "longitude": -116.3527038,
    "website": "http://www.cravekitchenbar.com/",
    "category": "Restaurant",
    "types": "restaurant, food, point_of_interest, establishment"
  },
  {
    "place_id": "ChIJ_x8_JzJTrlQR-DDEh7yRrw0",
    "name": "Eight Thirty Common",
    "street_address": "830 North Main Street",
    "city": "Meridian",
    "state": "ID",
    "zip_code": "83642",
    "latitude": 43.6116406,
    "longitude": -116.3912985,
    "website": "http://830common.com/",
    "category": "Bar & Restaurant",
    "types": "bar, restaurant, food, point_of_interest, establishment"
  },
  {
    "place_id": "ChIJgycdMQJTrlQREAhT9HFksOg",
    "name": "Roosters Tavern on the Green (Lakeview Bar and Grill)",
    "street_address": "4200 West Talamore Boulevard",
    "city": "Meridian",
    "state": "ID",
    "zip_code": "83646",
    "latitude": 43.6264821,
    "longitude": -116.44592,
    "website": "http://www.lakeview-golf.com/",
    "category": "Bar & Restaurant",
    "types": "bar, restaurant, food, point_of_interest, establishment"
  },
  {
    "place_id": "ChIJM6N3Js9TrlQREO4Px2VWvjo",
    "name": "Firehouse Pub & Grill",
    "street_address": "1767 West Franklin Road",
    "city": "Meridian",
    "state": "ID",
    "zip_code": "83642",
    "latitude": 43.6039997,
    "longitude": -116.4159849,
    "website": "http://firehousepubmeridian.com/",
    "category": "Bar & Restaurant",
    "types": "bar, restaurant, food, point_of_interest, establishment"
  },
  {
    "place_id": "ChIJQWJ-1e1TrlQR7HN1zFA_GkU",
    "name": "Heritage Hop Haus",
    "street_address": "729 North Main Street",
    "city": "Meridian",
    "state": "ID",
    "zip_code": "83642",
    "latitude": 43.6108759,
    "longitude": -116.3918121,
    "website": "http://heritagehophaus.com/hop-haus/",
    "category": "Bar & Restaurant",
    "types": "bar, restaurant, food, point_of_interest, establishment"
  },
  {
    "place_id": "ChIJDzszVWRRrlQRDKc2-yle3cA",
    "name": "The Curb Bar and Grill",
    "street_address": "1760 South Meridian Road",
    "city": "Meridian",
    "state": "ID",
    "zip_code": "83642",
    "latitude": 43.5890142,
    "longitude": -116.3931554,
    "website": "http://curbbarandgrill.com/",
    "category": "Bar & Restaurant",
    "types": "bar, restaurant, food, point_of_interest, establishment"
  },
  {
    "place_id": "ChIJ-0bR1kNTrlQRCyoKXu6_BUQ",
    "name": "Rudy's Pub & Grill",
    "street_address": "3035 West McMillan Road",
    "city": "Meridian",
    "state": "ID",
    "zip_code": "83646",
    "latitude": 43.6473739,
    "longitude": -116.4315064,
    "website": "https://rudyspubgrill.com/",
    "category": "Bar & Restaurant",
    "types": "bar, restaurant, food, point_of_interest, establishment"
  },
  {
    "place_id": "ChIJT3X72stTrlQRVcc6sAHGX0o",
    "name": "Vintage '61 Wine Bar & Kitchen",
    "street_address": "1031 North Main Street",
    "city": "Meridian",
    "state": "ID",
    "zip_code": "83642",
    "latitude": 43.61350719999999,
    "longitude": -116.3919422,
    "website": "http://www.vintage61winebar.com/",
    "category": "Restaurant",
    "types": "restaurant, food, point_of_interest, establishment"
  },
  {
    "place_id": "ChIJT29C5J1TrlQRbl7-RmOr6tk",
    "name": "127 Saloon",
    "street_address": "127 East Idaho Avenue",
    "city": "Meridian",
    "state": "ID",
    "zip_code": "83642",
    "latitude": 43.6107694,
    "longitude": -116.3906463,
    "website": "http://127saloon.com/",
    "category": "Bar & Restaurant",
    "types": "bar, restaurant, food, point_of_interest, establishment"
  },
  {
    "place_id": "ChIJCTOJ2bxTrlQRanXMN8Na7ls",
    "name": "Grant's Neighborhood Grill",
    "street_address": "1835 West Cherry Lane",
    "city": "Meridian",
    "state": "ID",
    "zip_code": "83646",
    "latitude": 43.6187371,
    "longitude": -116.4157513,
    "website": "https://grantsgrill.com/",
    "category": "Bar & Restaurant",
    "types": "bar, restaurant, food, point_of_interest, establishment"
  },
  {
    "place_id": "ChIJnY69tNZTrlQRpQl7C2IM7t0",
    "name": "Maddie's Wine and Whiskey",
    "street_address": "835 East Fairview Avenue",
    "city": "Meridian",
    "state": "ID",
    "zip_code": "83642",
    "latitude": 43.61897,
    "longitude": -116.383684,
    "website": "https://www.maddieswineandwhiskey.com/",
    "category": "Bar & Restaurant",
    "types": "bar, restaurant, food, point_of_interest, establishment"
  },
  {
    "place_id": "ChIJIQ6hB6lWrlQRaNzu0n8hlVw",
    "name": "Buffalo Wild Wings",
    "street_address": "3223 East Louise Drive",
    "city": "Meridian",
    "state": "ID",
    "zip_code": "83646",
    "latitude": 43.6027865,
    "longitude": -116.3540946,
    "website": "https://www.buffalowildwings.com/locations/us/id/meridian/3223-e-louise-dr/sports-bar-1240?utm_source=google%20my%20business&utm_medium=organic&utm_campaign=website%20link",
    "category": "Bar & Restaurant",
    "types": "meal_takeaway, bar, restaurant, point_of_interest, food, establishment"
  },
  {
    "place_id": "ChIJp4Qmme1NrlQRdv-DtAxOqQc",
    "name": "Pub and Putt",
    "street_address": "1215 2nd Street South",
    "city": "Nampa",
    "state": "ID",
    "zip_code": "83651",
    "latitude": 43.5774234,
    "longitude": -116.560263,
    "website": "http://www.pubandputt.co/",
    "category": "Restaurant",
    "types": "restaurant, food, point_of_interest, establishment"
  },
  {
    "place_id": "ChIJqwSCSGpMrlQRC87dIe7j9Rw",
    "name": "Whiskey River",
    "street_address": "113 13th Avenue South",
    "city": "Nampa",
    "state": "ID",
    "zip_code": "83651",
    "latitude": 43.5778605,
    "longitude": -116.5593329,
    "website": "https://www.facebook.com/WhiskeyRiverNampa",
    "category": "Bar & Restaurant",
    "types": "bar, restaurant, food, point_of_interest, establishment"
  },
  {
    "place_id": "ChIJ3YZlenBNrlQR0LeLCMPBzbk",
    "name": "JaK*s Place Neighborhood Grill",
    "street_address": "6026 Birch Lane",
    "city": "Nampa",
    "state": "ID",
    "zip_code": "83687",
    "latitude": 43.6127194,
    "longitude": -116.5136861,
    "website": "https://www.jaksplace.rocks/",
    "category": "Bar & Restaurant",
    "types": "restaurant, bar, food, point_of_interest, establishment"
  },
  {
    "place_id": "ChIJqXM2IfZLrlQRGEBgedZf8i8",
    "name": "Getaway Bar & Grill",
    "street_address": "512 12th Avenue Road",
    "city": "Nampa",
    "state": "ID",
    "zip_code": "83686",
    "latitude": 43.56394969999999,
    "longitude": -116.5726665,
    "website": "https://www.facebook.com/getawaybarnampa/",
    "category": "Bar & Restaurant",
    "types": "bar, restaurant, food, point_of_interest, establishment"
  },
  {
    "place_id": "ChIJ2XIMm5pNrlQRdV7l4H6vIWI",
    "name": "TNTs dynamite Bar and grill",
    "street_address": "817 East Karcher Road",
    "city": "Nampa",
    "state": "ID",
    "zip_code": "83687",
    "latitude": 43.6047881,
    "longitude": -116.5623384,
    "website": "https://m.facebook.com/TntsDynamiteGrill/",
    "category": "Bar & Restaurant",
    "types": "bar, restaurant, food, point_of_interest, establishment"
  },
  {
    "place_id": "ChIJGdrpD2xMrlQRHz73iJ64xu4",
    "name": "Brick 29",
    "street_address": "320 11th Avenue South",
    "city": "Nampa",
    "state": "ID",
    "zip_code": "83651",
    "latitude": 43.5771824,
    "longitude": -116.5633032,
    "website": "http://www.brick29.com/",
    "category": "Bar & Restaurant",
    "types": "bar, restaurant, food, point_of_interest, establishment"
  },
  {
    "place_id": "ChIJ9fkoWbhMrlQRE-a5dh5mVHA",
    "name": "WINGERS Restaurant & Alehouse",
    "street_address": "16250 North Marketplace Boulevard",
    "city": "Nampa",
    "state": "ID",
    "zip_code": "83687",
    "latitude": 43.6088396,
    "longitude": -116.5922497,
    "website": "https://wingerbros.com/locations/goto/wingers-restaurant-alehouse-nampa",
    "category": "Bar & Restaurant",
    "types": "bar, restaurant, point_of_interest, food, establishment"
  },
  {
    "place_id": "ChIJR0pFY6JMrlQRSNLCj5apm-0",
    "name": "Applebee's Grill + Bar",
    "street_address": "1527 Caldwell Boulevard",
    "city": "Nampa",
    "state": "ID",
    "zip_code": "83651",
    "latitude": 43.603236,
    "longitude": -116.6003608,
    "website": "https://restaurants.applebees.com/en-us/id/nampa/1527-caldwell-blvd.-84087?utm_source=google&utm_medium=organic&utm_campaign=google_my_business&utm_term=84087&utm_content=website",
    "category": "Bar & Restaurant",
    "types": "restaurant, bar, food, point_of_interest, establishment"
  },
  {
    "place_id": "ChIJP6Lx_aBMrlQRhfz1HcOjEXo",
    "name": "Buffalo Wild Wings",
    "street_address": "2101 North Cassia Street",
    "city": "Nampa",
    "state": "ID",
    "zip_code": "83651",
    "latitude": 43.6033962,
    "longitude": -116.6079238,
    "website": "https://www.buffalowildwings.com/locations/us/id/nampa/2101-n-cassia-st/sports-bar-1241?utm_source=google%20my%20business&utm_medium=organic&utm_campaign=website%20link",
    "category": "Bar & Restaurant",
    "types": "bar, meal_takeaway, restaurant, food, point_of_interest, establishment"
  },
  {
    "place_id": "ChIJkWy3b6FMrlQRpkF_EnnP95A",
    "name": "Smoky Mountain Pizzeria & Grill",
    "street_address": "2007 North Cassia Street",
    "city": "Nampa",
    "state": "ID",
    "zip_code": "83651",
    "latitude": 43.60407639999999,
    "longitude": -116.6061249,
    "website": "http://www.smokymountainpizza.com/",
    "category": "Restaurant",
    "types": "restaurant, food, point_of_interest, establishment"
  },
  {
    "place_id": "ChIJf_yLEgVNrlQRLjC5QAFG-u4",
    "name": "Swirl Wine Shop & Lounge",
    "street_address": "114 13th Avenue South",
    "city": "Nampa",
    "state": "ID",
    "zip_code": "83651",
    "latitude": 43.57748269999999,
    "longitude": -116.5589555,
    "website": null,
    "category": "Bar & Restaurant",
    "types": "bar, restaurant, food, point_of_interest, establishment"
  },
  {
    "place_id": "ChIJ50mmWrlMrlQRc4JdnEQgR_E",
    "name": "Burger Theory",
    "street_address": "16245 North Merchant Way",
    "city": "Nampa",
    "state": "ID",
    "zip_code": "83687",
    "latitude": 43.6096229,
    "longitude": -116.5938406,
    "website": null,
    "category": "Restaurant",
    "types": "restaurant, food, point_of_interest, establishment"
  },
  {
    "place_id": "ChIJeSSv7PJNrlQRd2UqfPUXXek",
    "name": "4T Sports Bar",
    "street_address": "112 13th Avenue South",
    "city": "Nampa",
    "state": "ID",
    "zip_code": "83651",
    "latitude": 43.57759409999999,
    "longitude": -116.5589406,
    "website": "https://4tsportsbarnampa.com/",
    "category": "Bar & Restaurant",
    "types": "bar, restaurant, food, point_of_interest, establishment"
  },
  {
    "place_id": "ChIJb2HMkGpMrlQRIMW9l9_ARvQ",
    "name": "Crescent Brewery",
    "street_address": "1521 Front Street",
    "city": "Nampa",
    "state": "ID",
    "zip_code": "83651",
    "latitude": 43.5766708,
    "longitude": -116.5550741,
    "website": "http://www.crescentbeer.com/",
    "category": "Bar & Restaurant",
    "types": "bar, restaurant, food, point_of_interest, establishment"
  },
  {
    "place_id": "ChIJD5Kc1Hu0r1QR2QllCetdMe0",
    "name": "Stewart's Bar And Grill",
    "street_address": "2805 Blaine Street",
    "city": "Caldwell",
    "state": "ID",
    "zip_code": "83605",
    "latitude": 43.6509125,
    "longitude": -116.6674944,
    "website": "https://stewartsbarandgrill.com/our-menu/",
    "category": "Bar & Restaurant",
    "types": "bar, restaurant, point_of_interest, food, establishment"
  },
  {
    "place_id": "ChIJK_0OzA-0r1QRQgtnBNofIbw",
    "name": "Flying M Coffeeshop",
    "street_address": "724 Arthur Street",
    "city": "Caldwell",
    "state": "ID",
    "zip_code": "83605",
    "latitude": 43.6656352,
    "longitude": -116.6883815,
    "website": "http://flyingmcaldwell.square.site/",
    "category": "Restaurant",
    "types": "art_gallery, bakery, cafe, store, restaurant, food, point_of_interest, establishment"
  },
  {
    "place_id": "ChIJaY-G7Iq1r1QR_IATj0gab0Y",
    "name": "Grit 2C",
    "street_address": "212 South Kimball Avenue",
    "city": "Caldwell",
    "state": "ID",
    "zip_code": "83605",
    "latitude": 43.6655299,
    "longitude": -116.688524,
    "website": "http://grit2c.co/",
    "category": "Restaurant",
    "types": "restaurant, food, point_of_interest, establishment"
  },
  {
    "place_id": "ChIJNyIm4_2xr1QRlTBP8RhxH04",
    "name": "Tacos El Rancho",
    "street_address": "103 West Main Street",
    "city": "Middleton",
    "state": "ID",
    "zip_code": "83644",
    "latitude": 43.7062937,
    "longitude": -116.6244578,
    "website": "http://tacoselranchorestaurant.com/",
    "category": "Restaurant",
    "types": "restaurant, food, point_of_interest, establishment"
  },
  {
    "place_id": "ChIJUUuFog-0r1QRZjg5k-b1HFM",
    "name": "Indian Creek Steakhouse",
    "street_address": "711 Main Street",
    "city": "Caldwell",
    "state": "ID",
    "zip_code": "83605",
    "latitude": 43.6667957,
    "longitude": -116.6875963,
    "website": "https://www.indiancreeksteakhouse.com/",
    "category": "Restaurant",
    "types": "restaurant, food, point_of_interest, establishment"
  },
  {
    "place_id": "ChIJ9TQ7NGq1r1QR9Hp5bZrbjm8",
    "name": "AMANO",
    "street_address": "802 Arthur Street",
    "city": "Caldwell",
    "state": "ID",
    "zip_code": "83605",
    "latitude": 43.6653057,
    "longitude": -116.6881345,
    "website": "http://www.amanorestaurante.com/",
    "category": "Restaurant",
    "types": "restaurant, food, point_of_interest, establishment"
  },
  {
    "place_id": "ChIJgSbhkz-tr1QRguc74mvCVIM",
    "name": "Taphouse Pub & Eatery | Star",
    "street_address": "9765 West State Street",
    "city": "Star",
    "state": "ID",
    "zip_code": "83669",
    "latitude": 43.6912721,
    "longitude": -116.4755994,
    "website": "http://taphouseboise.com/",
    "category": "Bar & Restaurant",
    "types": "bar, restaurant, food, point_of_interest, establishment"
  },
  {
    "place_id": "ChIJEZITTFmsr1QRKd5wBAGAZeE",
    "name": "Sully's Pub & Grill",
    "street_address": "11123 West State Street",
    "city": "Star",
    "state": "ID",
    "zip_code": "83669",
    "latitude": 43.6918349,
    "longitude": -116.4921334,
    "website": "https://www.sullysidaho.com/",
    "category": "Bar & Restaurant",
    "types": "bar, restaurant, food, point_of_interest, establishment"
  },
  {
    "place_id": "ChIJ8xCu5P2tr1QRJJmH2x4H6rk",
    "name": "Proof Craft Kitchen and Cocktails",
    "street_address": "9759 West State Street",
    "city": "Star",
    "state": "ID",
    "zip_code": "83669",
    "latitude": 43.69140489999999,
    "longitude": -116.4753705,
    "website": "https://proofcraftkitchen.com/",
    "category": "Bar & Restaurant",
    "types": "bar, restaurant, food, point_of_interest, establishment"
  },
  {
    "place_id": "ChIJnzywSr6tr1QR0Kf7Dk3uSNk",
    "name": "Rare Steakhouse",
    "street_address": "9840 West State Street",
    "city": "Star",
    "state": "ID",
    "zip_code": "83669",
    "latitude": 43.6923503,
    "longitude": -116.4760271,
    "website": "https://www.raresteakhousestar.com/",
    "category": "Restaurant",
    "types": "restaurant, food, point_of_interest, establishment"
  },
  {
    "place_id": "ChIJDd9laxitr1QR_6xKMBEl2ck",
    "name": "Dickey's Barbecue Pit",
    "street_address": "10580 West State Street",
    "city": "Star",
    "state": "ID",
    "zip_code": "83669",
    "latitude": 43.6924776,
    "longitude": -116.4856378,
    "website": "https://www.dickeys.com/locations/idaho/star/star-w-state-street-3?utm_source=ExtNet&utm_medium=Yext",
    "category": "Bar & Restaurant",
    "types": "bar, restaurant, food, point_of_interest, establishment"
  },
  {
    "place_id": "ChIJK3pCVhJFrlQR0SVvkYtYp4o",
    "name": "Big Mic's Saloon & BBQ Smokehouse",
    "street_address": "459 West Main Street",
    "city": "Kuna",
    "state": "ID",
    "zip_code": "83634",
    "latitude": 43.49047009999999,
    "longitude": -116.4186717,
    "website": "https://www.bigmicsbbq.com/",
    "category": "Bar & Restaurant",
    "types": "bar, restaurant, food, point_of_interest, establishment"
  },
  {
    "place_id": "ChIJdY1TohJFrlQR97m0LysplGs",
    "name": "Cowgirls in Kuna is now Nocturno Lounge",
    "street_address": "353 North Avenue East",
    "city": "Kuna",
    "state": "ID",
    "zip_code": "83634",
    "latitude": 43.49105240000001,
    "longitude": -116.4218956,
    "website": null,
    "category": "Bar & Restaurant",
    "types": "night_club, bar, restaurant, food, point_of_interest, establishment"
  },
  {
    "place_id": "ChIJpzAYcjFFrlQRWFb5PpEy5Gc",
    "name": "Kuna Pokerrito Tea Bar",
    "street_address": "1327 North Meridian Road",
    "city": "Kuna",
    "state": "ID",
    "zip_code": "83634",
    "latitude": 43.5002955,
    "longitude": -116.3958155,
    "website": "https://www.kunapokerrito.com/",
    "category": "Restaurant",
    "types": "restaurant, food, point_of_interest, establishment"
  },
  {
    "place_id": "ChIJp9Fqxmuxr1QRqr9ULyBt1LY",
    "name": "The Chapp Wine & Tap",
    "street_address": "3 North Dewey Avenue",
    "city": "Middleton",
    "state": "ID",
    "zip_code": "83644",
    "latitude": 43.7066598,
    "longitude": -116.619887,
    "website": "https://thechappwineandtap.com/",
    "category": "Bar & Restaurant",
    "types": "bar, restaurant, food, point_of_interest, establishment"
  },
  {
    "place_id": "ChIJg0319UWxr1QR69eKpmObgWI",
    "name": "208 Burger y Mas",
    "street_address": "308 West Main Street",
    "city": "Middleton",
    "state": "ID",
    "zip_code": "83644",
    "latitude": 43.7067017,
    "longitude": -116.6272238,
    "website": null,
    "category": "Restaurant",
    "types": "restaurant, food, point_of_interest, establishment"
  },
  {
    "place_id": "ChIJp93YatEtrFQR-TRGWXGw_vM",
    "name": "Gold Tap Craft Beer",
    "street_address": "110 North Main Street",
    "city": "Mountain Home",
    "state": "ID",
    "zip_code": "83647",
    "latitude": 43.1308869,
    "longitude": -115.6941007,
    "website": "https://untappd.com/v/gold-tap-craft-beer/12086690",
    "category": "Bar & Restaurant",
    "types": "bar, restaurant, food, point_of_interest, establishment"
  },
  {
    "place_id": "ChIJqzhrTkAsrFQRrRiixC_TE34",
    "name": "Kurly's Sports Bar & Grill",
    "street_address": "124 East Jackson Street",
    "city": "Mountain Home",
    "state": "ID",
    "zip_code": "83647",
    "latitude": 43.1308333,
    "longitude": -115.6938889,
    "website": "https://m.facebook.com/Kurlys-Sports-Bar-Grill-189316897749195/",
    "category": "Restaurant",
    "types": "restaurant, food, point_of_interest, establishment"
  },
  {
    "place_id": "ChIJk2J7M1wsrFQReeLfJQZW53k",
    "name": "Mudslingers Drinks & Eats",
    "street_address": "1120 Airbase Road",
    "city": "Mountain Home",
    "state": "ID",
    "zip_code": "83647",
    "latitude": 43.1269575,
    "longitude": -115.7076141,
    "website": "http://www.mudslingersmh.com/",
    "category": "Restaurant",
    "types": "bakery, cafe, store, restaurant, food, point_of_interest, establishment"
  },
  {
    "place_id": "ChIJoxCMZ6IurFQRbCXjCNWPY3g",
    "name": "WINGERS Restaurant & Alehouse",
    "street_address": "3150 Foothills Avenue",
    "city": "Mountain Home",
    "state": "ID",
    "zip_code": "83647",
    "latitude": 43.1417581,
    "longitude": -115.6606602,
    "website": "https://wingerbros.com/locations/goto/wingers-grill-bar-mountain-home",
    "category": "Bar & Restaurant",
    "types": "meal_delivery, bar, meal_takeaway, restaurant, food, point_of_interest, establishment"
  },
  {
    "place_id": "ChIJMzIiED0srFQR0kpWZC0L8YA",
    "name": "Smoky Mountain Pizzeria Grill",
    "street_address": "1465 American Legion Boulevard",
    "city": "Mountain Home",
    "state": "ID",
    "zip_code": "83647",
    "latitude": 43.1335628,
    "longitude": -115.6817868,
    "website": "http://www.smokymountainpizza.com/",
    "category": "Restaurant",
    "types": "restaurant, meal_delivery, meal_takeaway, food, point_of_interest, establishment"
  },
  {
    "place_id": "ChIJua7jLUAsrFQRXLc5fxE9hDo",
    "name": "Stoney's Restaurant",
    "street_address": "220 North Main Street",
    "city": "Mountain Home",
    "state": "ID",
    "zip_code": "83647",
    "latitude": 43.1318126,
    "longitude": -115.6947773,
    "website": "http://stoneysidaho.com/",
    "category": "Restaurant",
    "types": "restaurant, food, point_of_interest, establishment"
  },
  {
    "place_id": "ChIJE7AMmawtrFQRlS-9OQXde_Q",
    "name": "Savory Layne Steakhouse",
    "street_address": "1130 U.S. 20",
    "city": "Mountain Home",
    "state": "ID",
    "zip_code": "83647",
    "latitude": 43.14315089999999,
    "longitude": -115.6610653,
    "website": "http://www.savoryidaho.com/",
    "category": "Restaurant",
    "types": "restaurant, food, point_of_interest, establishment"
  },
  {
    "place_id": "ChIJn0z_0M5mplQR0PNarsfnOls",
    "name": "Lardo Grill & Saloon",
    "street_address": "600 West Lake Street",
    "city": "McCall",
    "state": "ID",
    "zip_code": "83638",
    "latitude": 44.91238679999999,
    "longitude": -116.1224697,
    "website": "https://www.lardogrillandsaloon.com/",
    "category": "Bar & Restaurant",
    "types": "bar, restaurant, food, point_of_interest, establishment"
  },
  {
    "place_id": "ChIJhWN6cd9mplQRav6KohzyKpo",
    "name": "McCall Brewing Company",
    "street_address": "807 North 3rd Street",
    "city": "McCall",
    "state": "ID",
    "zip_code": "83638",
    "latitude": 44.9088266,
    "longitude": -116.0969739,
    "website": "https://mccallbrew.com/",
    "category": "Bar & Restaurant",
    "types": "restaurant, bar, food, point_of_interest, establishment"
  },
  {
    "place_id": "ChIJTzRQH95mplQRS0M2UsAwmBA",
    "name": "Salmon River Brewery",
    "street_address": "411 Railroad Avenue",
    "city": "McCall",
    "state": "ID",
    "zip_code": "83638",
    "latitude": 44.9109028,
    "longitude": -116.0972528,
    "website": "http://www.salmonriverbrewery.com/?y_source=1_MzAwMjExMDUtNzE1LWxvY2F0aW9uLndlYnNpdGU%3D",
    "category": "Bar & Restaurant",
    "types": "bar, restaurant, point_of_interest, food, establishment"
  },
  {
    "place_id": "ChIJiXNPdN9mplQRu_SwL1TMxx4",
    "name": "My Father's Place",
    "street_address": "901 North 3rd Street",
    "city": "McCall",
    "state": "ID",
    "zip_code": "83638",
    "latitude": 44.9096389,
    "longitude": -116.097495,
    "website": "http://mfpmccall.com/",
    "category": "Restaurant",
    "types": "restaurant, food, point_of_interest, establishment"
  },
  {
    "place_id": "ChIJb1BCOpNnplQRKF4GvcRPMhU",
    "name": "RIVERGRILL @ Brokenhorn Brewery",
    "street_address": "201 South Mission Street",
    "city": "McCall",
    "state": "ID",
    "zip_code": "83638",
    "latitude": 44.8957281,
    "longitude": -116.1046634,
    "website": "https://rivergrill-83638.square.site/",
    "category": "Restaurant",
    "types": "restaurant, food, point_of_interest, establishment"
  },
  {
    "place_id": "ChIJ207u_c5mplQRvldEQJE7Bvw",
    "name": "The Cutwater on Payette Lake",
    "street_address": "501 West Lake Street",
    "city": "McCall",
    "state": "ID",
    "zip_code": "83638",
    "latitude": 44.912691,
    "longitude": -116.120462,
    "website": "http://thecutwatermccall.com/",
    "category": "Restaurant",
    "types": "restaurant, food, point_of_interest, establishment"
  },
  {
    "place_id": "ChIJ3ZMylztnplQRCPOS8JDGcK4",
    "name": "Banyans on the Green",
    "street_address": "925 Fairway Drive",
    "city": "McCall",
    "state": "ID",
    "zip_code": "83638",
    "latitude": 44.9158138,
    "longitude": -116.0818611,
    "website": "http://www.banyansonthegreen.com/",
    "category": "Restaurant",
    "types": "restaurant, food, point_of_interest, establishment"
  },
  {
    "place_id": "ChIJfZ1OwOBmplQRqKvYjVdMw8I",
    "name": "Growler's Pizza Grill",
    "street_address": "501 North 3rd Street",
    "city": "McCall",
    "state": "ID",
    "zip_code": "83638",
    "latitude": 44.90618989999999,
    "longitude": -116.0971163,
    "website": "http://growlerspizza.com/",
    "category": "Restaurant",
    "types": "restaurant, food, point_of_interest, establishment"
  },
  {
    "place_id": "ChIJnYKfos9nplQRQUobmZgSZVY",
    "name": "Frenchie's",
    "street_address": "319 North 3rd Street",
    "city": "McCall",
    "state": "ID",
    "zip_code": "83638",
    "latitude": 44.903751,
    "longitude": -116.0978331,
    "website": "https://frenchiesonthird.squarespace.com/",
    "category": "Restaurant",
    "types": "restaurant, food, point_of_interest, establishment"
  },
  {
    "place_id": "ChIJx8d31eBmplQR8LkeG_1NBVk",
    "name": "The Mill Steak and Spirits",
    "street_address": "324 North 3rd Street",
    "city": "McCall",
    "state": "ID",
    "zip_code": "83638",
    "latitude": 44.9042065,
    "longitude": -116.0982644,
    "website": null,
    "category": "Bar & Restaurant",
    "types": "night_club, bar, restaurant, food, point_of_interest, establishment"
  },
  {
    "place_id": "ChIJtxf8Vt9mplQRyAk1XDVioe4",
    "name": "Fogglifter Cafe",
    "street_address": "1003 North 3rd Street",
    "city": "McCall",
    "state": "ID",
    "zip_code": "83638",
    "latitude": 44.9104925,
    "longitude": -116.0978208,
    "website": "https://m.facebook.com/Fogglifter-Cafe-328310196898/",
    "category": "Restaurant",
    "types": "cafe, restaurant, point_of_interest, food, establishment"
  },
  {
    "place_id": "ChIJxf6ZVSdnplQRkoQomr6pT88",
    "name": "Rupert's Restaurant",
    "street_address": "1101 North 3rd Street",
    "city": "McCall",
    "state": "ID",
    "zip_code": "83638",
    "latitude": 44.91129749999999,
    "longitude": -116.0979688,
    "website": "https://rupertsathotelmccall.com/menu/",
    "category": "Restaurant",
    "types": "lodging, restaurant, food, point_of_interest, establishment"
  },
  {
    "place_id": "ChIJu96rjs9mplQREQK_JqXhcHs",
    "name": "Steamers Steak & Seafood",
    "street_address": "308 East Lake Street",
    "city": "McCall",
    "state": "ID",
    "zip_code": "83638",
    "latitude": 44.91080749999999,
    "longitude": -116.0988024,
    "website": "http://www.steamersrestaurant.com/",
    "category": "Bar & Restaurant",
    "types": "bar, restaurant, food, point_of_interest, establishment"
  },
  {
    "place_id": "ChIJn_lKAs9mplQRp31vLVZ5jY0",
    "name": "The Narrows Steakhouse",
    "street_address": "501 West Lake Street",
    "city": "McCall",
    "state": "ID",
    "zip_code": "83638",
    "latitude": 44.9127151,
    "longitude": -116.1203144,
    "website": "http://narrowssteakhouse.com/",
    "category": "Restaurant",
    "types": "restaurant, point_of_interest, food, establishment"
  },
  {
    "place_id": "ChIJPSAlg89mplQRzJHvOI0juQI",
    "name": "Alpine Pantry and Provisions LLC",
    "street_address": "324 West Lake Street",
    "city": "McCall",
    "state": "ID",
    "zip_code": "83638",
    "latitude": 44.91155029999999,
    "longitude": -116.1181702,
    "website": null,
    "category": "Restaurant",
    "types": "restaurant, food, point_of_interest, establishment"
  },
  {
    "place_id": "ChIJpy_7yrCCqVQRtIp3UAM5Mwc",
    "name": "Sawtooth Brewery Public House",
    "street_address": "631 Warm Springs Road",
    "city": "Ketchum",
    "state": "ID",
    "zip_code": "83340",
    "latitude": 43.68238789999999,
    "longitude": -114.3669839,
    "website": "https://sawtoothbrewery.com/ketchum-public-house/?utm_source=google&utm_medium=wix_google_business_profile&utm_campaign=3032360393871872072",
    "category": "Bar & Restaurant",
    "types": "restaurant, liquor_store, bar, store, food, point_of_interest, establishment"
  },
  {
    "place_id": "ChIJK7fgQPh3qVQRQK8gh14uWJE",
    "name": "Apples Bar & Grill",
    "street_address": "215 Picabo Street",
    "city": "Ketchum",
    "state": "ID",
    "zip_code": "83340",
    "latitude": 43.6837864,
    "longitude": -114.4033529,
    "website": "https://www.applesbargrill.com/",
    "category": "Bar & Restaurant",
    "types": "bar, restaurant, food, point_of_interest, establishment"
  },
  {
    "place_id": "ChIJMeQIK7GCqVQRbEboWNRQhXo",
    "name": "Grumpy's",
    "street_address": "860 Warm Springs Road",
    "city": "Ketchum",
    "state": "ID",
    "zip_code": "83340",
    "latitude": 43.683891,
    "longitude": -114.3681575,
    "website": "https://grumpyssunvalley.com/",
    "category": "Bar & Restaurant",
    "types": "bar, restaurant, food, point_of_interest, establishment"
  },
  {
    "place_id": "ChIJ4fsCt7CCqVQR7PyHR1s_zwY",
    "name": "Lefty's Bar & Grill",
    "street_address": "231 6th Street East",
    "city": "Ketchum",
    "state": "ID",
    "zip_code": "83340",
    "latitude": 43.682022,
    "longitude": -114.3672066,
    "website": "https://leftysbarandgrill.com/",
    "category": "Bar & Restaurant",
    "types": "bar, restaurant, food, point_of_interest, establishment"
  },
  {
    "place_id": "ChIJZzUm7rmCqVQR4tLPLoBeP0g",
    "name": "Whiskey's on Main",
    "street_address": "251 North Main Street",
    "city": "Ketchum",
    "state": "ID",
    "zip_code": "83340",
    "latitude": 43.6801796,
    "longitude": -114.3640727,
    "website": "https://www.whiskeysonmain.com/",
    "category": "Bar & Restaurant",
    "types": "bar, restaurant, food, point_of_interest, establishment"
  },
  {
    "place_id": "ChIJSWK92rmCqVQR9dww0JBInro",
    "name": "The Cellar Pub",
    "street_address": "400 Sun Valley Road East",
    "city": "Ketchum",
    "state": "ID",
    "zip_code": "83340",
    "latitude": 43.6812362,
    "longitude": -114.3630784,
    "website": "http://thecellarpub.com/",
    "category": "Bar & Restaurant",
    "types": "restaurant, bar, food, point_of_interest, establishment"
  },
  {
    "place_id": "ChIJm85M7rmCqVQRzEVxh7yY8dY",
    "name": "Pioneer Saloon",
    "street_address": "320 North Main Street",
    "city": "Ketchum",
    "state": "ID",
    "zip_code": "83340",
    "latitude": 43.6809768,
    "longitude": -114.3642811,
    "website": "https://www.pioneersaloon.com/",
    "category": "Bar & Restaurant",
    "types": "bar, restaurant, food, point_of_interest, establishment"
  },
  {
    "place_id": "ChIJ5VPGkrmCqVQRFYraJjFNtO4",
    "name": "Warfield Distillery & Brewery",
    "street_address": "280 North Main Street",
    "city": "Ketchum",
    "state": "ID",
    "zip_code": "83340",
    "latitude": 43.6807991,
    "longitude": -114.3638543,
    "website": "https://dinewarfield.com/",
    "category": "Bar & Restaurant",
    "types": "bar, restaurant, food, point_of_interest, establishment"
  },
  {
    "place_id": "ChIJz0tjUiydqVQRreQSBIxeMAE",
    "name": "Village Station",
    "street_address": "1 Sun Valley Road East",
    "city": "Sun Valley",
    "state": "ID",
    "zip_code": "83353",
    "latitude": 43.696682,
    "longitude": -114.3534565,
    "website": "https://www.sunvalley.com/dining/village-station/",
    "category": "Restaurant",
    "types": "restaurant, food, point_of_interest, establishment"
  },
  {
    "place_id": "ChIJa00aIbqCqVQRJJxeFSVfIew",
    "name": "Smoky Mountain Pizzeria & Grill",
    "street_address": "200 Sun Valley Road East",
    "city": "Ketchum",
    "state": "ID",
    "zip_code": "83340",
    "latitude": 43.6800194,
    "longitude": -114.3646393,
    "website": "http://www.smokymountainpizza.com/",
    "category": "Restaurant",
    "types": "restaurant, food, point_of_interest, establishment"
  },
  {
    "place_id": "ChIJT1qvbzKdqVQRBC178Z8bX2k",
    "name": "Sun Valley Club",
    "street_address": "200 Trail Creek Road",
    "city": "Sun Valley",
    "state": "ID",
    "zip_code": "83353",
    "latitude": 43.7057685,
    "longitude": -114.3465576,
    "website": "https://www.sunvalley.com/dining/sun-valley-club/",
    "category": "Bar & Restaurant",
    "types": "bar, restaurant, food, point_of_interest, establishment"
  },
  {
    "place_id": "ChIJl1mkaS2dqVQRJpEiclv8ODA",
    "name": "Gretchen's",
    "street_address": "1 Sun Valley Road East",
    "city": "Sun Valley",
    "state": "ID",
    "zip_code": "83353",
    "latitude": 43.694779,
    "longitude": -114.354468,
    "website": "https://www.sunvalley.com/dining/gretchens/",
    "category": "Restaurant",
    "types": "restaurant, food, point_of_interest, establishment"
  },
  {
    "place_id": "ChIJ-xU217aCqVQR4NsNKGapsfc",
    "name": "Grill at Knob Hill",
    "street_address": "960 North Main Street",
    "city": "Ketchum",
    "state": "ID",
    "zip_code": "83340",
    "latitude": 43.6860147,
    "longitude": -114.3669263,
    "website": "http://www.grillatknobhill.com/",
    "category": "Bar & Restaurant",
    "types": "bar, restaurant, food, point_of_interest, establishment"
  },
  {
    "place_id": "ChIJJ1D88bmCqVQRs-2A7arjJ5o",
    "name": "Burger Grill",
    "street_address": "102 North Main Street",
    "city": "Ketchum",
    "state": "ID",
    "zip_code": "83340",
    "latitude": 43.6809747,
    "longitude": -114.3650583,
    "website": null,
    "category": "Restaurant",
    "types": "restaurant, point_of_interest, food, establishment"
  },
  {
    "place_id": "ChIJZzUm7rmCqVQRt20YzwL0LzA",
    "name": "Sawtooth Club",
    "street_address": "231 Main Street South",
    "city": "Ketchum",
    "state": "ID",
    "zip_code": "83340",
    "latitude": 43.6801481,
    "longitude": -114.3638349,
    "website": "http://sawtoothclub.com/",
    "category": "Restaurant",
    "types": "restaurant, food, point_of_interest, establishment"
  },
  {
    "place_id": "ChIJ7ZYIebeCqVQRFA6FXqZlsXc",
    "name": "Sun Valley Wine Company | Restaurant & Wine Shop",
    "street_address": "360 Leadville Avenue",
    "city": "Ketchum",
    "state": "ID",
    "zip_code": "83340",
    "latitude": 43.6816041,
    "longitude": -114.3637525,
    "website": "https://sunvalleywineco.com/",
    "category": "Bar & Restaurant",
    "types": "restaurant, liquor_store, bar, store, food, point_of_interest, establishment"
  },
  {
    "place_id": "ChIJH26KBC2dqVQRWP3rHTANG0k",
    "name": "The Ram",
    "street_address": "1 Sun Valley Road East",
    "city": "Sun Valley",
    "state": "ID",
    "zip_code": "83353",
    "latitude": 43.696711,
    "longitude": -114.353191,
    "website": "https://www.sunvalley.com/dining/the-ram/",
    "category": "Restaurant",
    "types": "restaurant, food, point_of_interest, establishment"
  },
  {
    "place_id": "ChIJQeszt7aCqVQRdymaaW-vw_A",
    "name": "The Kneadery",
    "street_address": "260 North Leadville Avenue",
    "city": "Ketchum",
    "state": "ID",
    "zip_code": "83340",
    "latitude": 43.68111469999999,
    "longitude": -114.3629354,
    "website": "https://www.kneadery.com/",
    "category": "Restaurant",
    "types": "restaurant, food, point_of_interest, establishment"
  },
  {
    "place_id": "ChIJRTNTpbCCqVQRZK69-N8lg68",
    "name": "Rominna's",
    "street_address": "580 Washington Avenue",
    "city": "Ketchum",
    "state": "ID",
    "zip_code": "83340",
    "latitude": 43.68174920000001,
    "longitude": -114.3669167,
    "website": "http://www.rominnas.com/",
    "category": "Restaurant",
    "types": "restaurant, point_of_interest, food, establishment"
  },
  {
    "place_id": "ChIJsxdfDLeCqVQRiTymjnlM-3I",
    "name": "Ketchum Grill",
    "street_address": "520 East Avenue",
    "city": "Ketchum",
    "state": "ID",
    "zip_code": "83340",
    "latitude": 43.6833333,
    "longitude": -114.3641667,
    "website": "http://www.ketchumgrill.com/",
    "category": "Restaurant",
    "types": "restaurant, food, point_of_interest, establishment"
  },
  {
    "place_id": "ChIJPYSssQWDqVQRJjyuja16DFQ",
    "name": "The Covey",
    "street_address": "520 Washington Avenue",
    "city": "Ketchum",
    "state": "ID",
    "zip_code": "83340",
    "latitude": 43.6814773,
    "longitude": -114.3666908,
    "website": "http://www.thecovey.com/",
    "category": "Restaurant",
    "types": "restaurant, food, point_of_interest, establishment"
  },
  {
    "place_id": "ChIJ9Wwj_lOdqVQRl6k4m8GlQTI",
    "name": "Roundhouse",
    "street_address": "National Forest Development Road 135",
    "city": "Ketchum",
    "state": "ID",
    "zip_code": "83340",
    "latitude": 43.662405,
    "longitude": -114.387788,
    "website": "https://www.sunvalley.com/dining/the-roundhouse/",
    "category": "Bar & Restaurant",
    "types": "bar, restaurant, food, point_of_interest, establishment"
  },
  {
    "place_id": "ChIJPS9XK4ZSV0ARNXkq9V639UM",
    "name": "Despo\u2019s",
    "street_address": "211 4th Street East",
    "city": "Ketchum",
    "state": "ID",
    "zip_code": "83340",
    "latitude": 43.6808651,
    "longitude": -114.3657621,
    "website": "http://www.despossv.com/",
    "category": "Restaurant",
    "types": "restaurant, point_of_interest, food, establishment"
  },
  {
    "place_id": "ChIJYQHRsLaCqVQRYKPXwyg-bUo",
    "name": "Vintage",
    "street_address": "231 Leadville Avenue",
    "city": "Ketchum",
    "state": "ID",
    "zip_code": "83340",
    "latitude": 43.6806535,
    "longitude": -114.3633033,
    "website": "http://vintagesunvalley.com/",
    "category": "Restaurant",
    "types": "restaurant, food, point_of_interest, establishment"
  },
  {
    "place_id": "ChIJcbwh6bmCqVQRFIet9WhVpIg",
    "name": "Enoteca",
    "street_address": "300 North Main Street",
    "city": "Ketchum",
    "state": "ID",
    "zip_code": "83340",
    "latitude": 43.6808333,
    "longitude": -114.3641667,
    "website": "http://www.ketchum-enoteca.com/",
    "category": "Restaurant",
    "types": "restaurant, food, point_of_interest, establishment"
  },
  {
    "place_id": "ChIJiUXuXfh3qVQRSWLkYGdJ828",
    "name": "Warm Springs Day Lodge",
    "street_address": "201 Picabo Street",
    "city": "Ketchum",
    "state": "ID",
    "zip_code": "83340",
    "latitude": 43.683925,
    "longitude": -114.402107,
    "website": "https://www.sunvalley.com/dining/warm-springs-lodge/",
    "category": "Restaurant",
    "types": "restaurant, food, store, point_of_interest, establishment"
  },
  {
    "place_id": "ChIJWyDchLmCqVQRRMC8iZuX210",
    "name": "Sushi On Second",
    "street_address": "260 Second Street East",
    "city": "Ketchum",
    "state": "ID",
    "zip_code": "83340",
    "latitude": 43.679811,
    "longitude": -114.363736,
    "website": "http://www.sushionsecond.com/",
    "category": "Restaurant",
    "types": "restaurant, food, point_of_interest, establishment"
  },
  {
    "place_id": "ChIJ4-vOBrqCqVQRX8uHthvh2q0",
    "name": "Rickshaw",
    "street_address": "460 Washington Avenue",
    "city": "Ketchum",
    "state": "ID",
    "zip_code": "83340",
    "latitude": 43.6810927,
    "longitude": -114.3660058,
    "website": "http://www.eat-at-rickshaw.com/",
    "category": "Restaurant",
    "types": "restaurant, point_of_interest, food, establishment"
  }
]