[
  {
    "place_id": "ChIJ6cjbgnFx44kRUxnAgGcra-I",
    "name": "Tap 151 Bar and Grill",
    "street_address": "151 North First Street",
    "city": "Cambridge",
    "state": "MA",
    "zip_code": "02141",
    "latitude": 42.372778,
    "longitude": -71.0762925,
    "website": "http://tap151.com/",
    "category": "Bar & Restaurant",
    "types": "restaurant, bar, food, point_of_interest, establishment"
  },
  {
    "place_id": "ChIJqa3FNJBx44kROq70Zm2ZB-U",
    "name": "The Locke Bar Cambridge",
    "street_address": "6 Broad Canal Way",
    "city": "Cambridge",
    "state": "MA",
    "zip_code": "02142",
    "latitude": 42.3630967,
    "longitude": -71.083219,
    "website": "https://www.thelockebar.com/",
    "category": "Bar & Restaurant",
    "types": "bar, restaurant, food, point_of_interest, establishment"
  },
  {
    "place_id": "ChIJj4g6Hxt644kRwWaMmpODFy0",
    "name": "The Bebop",
    "street_address": "1116 Boylston Street",
    "city": "Boston",
    "state": "MA",
    "zip_code": "02215",
    "latitude": 42.3467238,
    "longitude": -71.0887286,
    "website": "https://www.thebebopboston.com/",
    "category": "Bar & Restaurant",
    "types": "bar, restaurant, food, point_of_interest, establishment"
  },
  {
    "place_id": "ChIJySIiPFF344kRXyeSRFi0AJk",
    "name": "730 Tavern, Kitchen & Patio",
    "street_address": "730 Massachusetts Avenue",
    "city": "Cambridge",
    "state": "MA",
    "zip_code": "02139",
    "latitude": 42.365973,
    "longitude": -71.105192,
    "website": "http://www.730tavern.com/",
    "category": "Bar & Restaurant",
    "types": "bar, restaurant, point_of_interest, food, establishment"
  },
  {
    "place_id": "ChIJFQH4Xo9w44kRi5sA32OImzw",
    "name": "The Point Boston",
    "street_address": "147 Hanover Street",
    "city": "Boston",
    "state": "MA",
    "zip_code": "02108",
    "latitude": 42.36176630000001,
    "longitude": -71.0569591,
    "website": "https://www.thepointboston.com/",
    "category": "Bar & Restaurant",
    "types": "bar, restaurant, food, point_of_interest, establishment"
  },
  {
    "place_id": "ChIJ2w69uEJ344kRKVe3Zf0YBK8",
    "name": "Russell House Tavern",
    "street_address": "14 John F. Kennedy Street",
    "city": "Cambridge",
    "state": "MA",
    "zip_code": "02138",
    "latitude": 42.373158,
    "longitude": -71.11945899999999,
    "website": "http://www.russellhousecambridge.com/",
    "category": "Bar & Restaurant",
    "types": "bar, restaurant, food, point_of_interest, establishment"
  },
  {
    "place_id": "ChIJNQ5ifFB344kR86FOYNX0jK0",
    "name": "The Plough and Stars",
    "street_address": "912 Massachusetts Avenue",
    "city": "Cambridge",
    "state": "MA",
    "zip_code": "02139",
    "latitude": 42.3682558,
    "longitude": -71.1088129,
    "website": "http://www.ploughandstars.com/",
    "category": "Bar & Restaurant",
    "types": "bar, restaurant, food, point_of_interest, establishment"
  },
  {
    "place_id": "ChIJlZ5S33px44kRsf53ugg0TRI",
    "name": "An Sibin",
    "street_address": "1193 Cambridge Street",
    "city": "Cambridge",
    "state": "MA",
    "zip_code": "02139",
    "latitude": 42.373374,
    "longitude": -71.09717979999999,
    "website": "https://ansibin.net/",
    "category": "Bar & Restaurant",
    "types": "bar, restaurant, food, point_of_interest, establishment"
  },
  {
    "place_id": "ChIJuept8Jpw44kRwSoJZj1CYA4",
    "name": "The Tip Tap Room",
    "street_address": "138 Cambridge Street",
    "city": "Boston",
    "state": "MA",
    "zip_code": "02114",
    "latitude": 42.3610014,
    "longitude": -71.0639605,
    "website": "http://thetiptaproom.com/",
    "category": "Bar & Restaurant",
    "types": "bar, restaurant, point_of_interest, food, establishment"
  },
  {
    "place_id": "ChIJef6X2wx344kRxacJgVYziK8",
    "name": "The Turing Tavern",
    "street_address": "1281 Cambridge Street",
    "city": "Cambridge",
    "state": "MA",
    "zip_code": "02139",
    "latitude": 42.3736752,
    "longitude": -71.0987561,
    "website": "http://www.theturingtavern.com/",
    "category": "Bar & Restaurant",
    "types": "bar, restaurant, food, point_of_interest, establishment"
  },
  {
    "place_id": "ChIJrZnNQI5w44kRLrhdcUMh9BU",
    "name": "Tavern in the Square",
    "street_address": "120 Beverly Street",
    "city": "Boston",
    "state": "MA",
    "zip_code": "02114",
    "latitude": 42.3657106,
    "longitude": -71.0601883,
    "website": "https://www.taverninthesquare.com/locations/north-station-ma/",
    "category": "Bar & Restaurant",
    "types": "bar, restaurant, food, point_of_interest, establishment"
  },
  {
    "place_id": "ChIJBRIqfn9w44kRFqGRWTfDnjg",
    "name": "City Tap House Boston",
    "street_address": "10 Boston Wharf Road",
    "city": "Boston",
    "state": "MA",
    "zip_code": "02210",
    "latitude": 42.349958,
    "longitude": -71.04718,
    "website": "http://www.citytap.com/",
    "category": "Bar & Restaurant",
    "types": "bar, restaurant, food, point_of_interest, establishment"
  },
  {
    "place_id": "ChIJsU8r3bFw44kRsWnYyHOKfkk",
    "name": "State Park",
    "street_address": "15 Hampshire Street",
    "city": "Cambridge",
    "state": "MA",
    "zip_code": "02139",
    "latitude": 42.3661406,
    "longitude": -71.0909247,
    "website": "http://www.stateparkbar.com/",
    "category": "Bar & Restaurant",
    "types": "bar, restaurant, food, point_of_interest, establishment"
  },
  {
    "place_id": "ChIJh0GUf0t344kRZsngovv95-Q",
    "name": "The Druid",
    "street_address": "1357 Cambridge Street",
    "city": "Cambridge",
    "state": "MA",
    "zip_code": "02139",
    "latitude": 42.3737841,
    "longitude": -71.100171,
    "website": "http://www.druidpub.com/",
    "category": "Bar & Restaurant",
    "types": "bar, restaurant, food, point_of_interest, establishment"
  },
  {
    "place_id": "ChIJwZlVC1R344kRFd80FfZkL_4",
    "name": "The Phoenix Landing",
    "street_address": "512 Massachusetts Avenue",
    "city": "Cambridge",
    "state": "MA",
    "zip_code": "02139",
    "latitude": 42.364117,
    "longitude": -71.101918,
    "website": "https://www.thephoenixlanding.com/",
    "category": "Bar & Restaurant",
    "types": "night_club, bar, restaurant, food, point_of_interest, establishment"
  },
  {
    "place_id": "ChIJe1weMZ1w44kRwqZm1U1clNc",
    "name": "Back Deck",
    "street_address": "2 West Street",
    "city": "Boston",
    "state": "MA",
    "zip_code": "02111",
    "latitude": 42.3543709,
    "longitude": -71.06194789999999,
    "website": "http://www.backdeckboston.com/",
    "category": "Bar & Restaurant",
    "types": "bar, restaurant, food, point_of_interest, establishment"
  },
  {
    "place_id": "ChIJW3tv8QR644kR1gWmzhUiRnM",
    "name": "Corner Tavern",
    "street_address": "421 Marlborough Street",
    "city": "Boston",
    "state": "MA",
    "zip_code": "02115",
    "latitude": 42.3501237,
    "longitude": -71.08937089999999,
    "website": "https://www.thecornerboston.com/",
    "category": "Bar & Restaurant",
    "types": "restaurant, bar, food, point_of_interest, establishment"
  },
  {
    "place_id": "ChIJt-c6Fsp544kRvB4_o2VxxG0",
    "name": "Harry's Bar & Grill",
    "street_address": "1430 Commonwealth Avenue",
    "city": "Boston",
    "state": "MA",
    "zip_code": "02135",
    "latitude": 42.3483424,
    "longitude": -71.1399057,
    "website": "http://www.harrysbarboston.com/",
    "category": "Bar & Restaurant",
    "types": "bar, restaurant, food, point_of_interest, establishment"
  },
  {
    "place_id": "ChIJTxSQWV1344kRcysqAz9UcIo",
    "name": "Shay's Pub & Wine Bar",
    "street_address": "58 John F. Kennedy Street",
    "city": "Cambridge",
    "state": "MA",
    "zip_code": "02138",
    "latitude": 42.37180000000001,
    "longitude": -71.12060559999999,
    "website": "http://www.shayspubwinebar.com/",
    "category": "Bar & Restaurant",
    "types": "bar, restaurant, food, point_of_interest, establishment"
  },
  {
    "place_id": "ChIJiXm2f8Nw44kRzPwxrBj-3fI",
    "name": "Tavern at the End of the World",
    "street_address": "108 Cambridge Street",
    "city": "Boston",
    "state": "MA",
    "zip_code": "02129",
    "latitude": 42.38218610000001,
    "longitude": -71.0793757,
    "website": "https://www.tavernattheendoftheworld.com/",
    "category": "Bar & Restaurant",
    "types": "bar, restaurant, food, point_of_interest, establishment"
  },
  {
    "place_id": "ChIJVay9wVR344kRRlVXSSswdUo",
    "name": "Miracle of Science Bar + Grill",
    "street_address": "321 Massachusetts Avenue",
    "city": "Cambridge",
    "state": "MA",
    "zip_code": "02139",
    "latitude": 42.3625781,
    "longitude": -71.0985551,
    "website": "http://miracleofscience.us/",
    "category": "Bar & Restaurant",
    "types": "bar, restaurant, food, point_of_interest, establishment"
  },
  {
    "place_id": "ChIJzYvD2J5w44kRCbK9O_AWJgk",
    "name": "The Sevens Ale House",
    "street_address": "77 Charles Street",
    "city": "Boston",
    "state": "MA",
    "zip_code": "02114",
    "latitude": 42.3583337,
    "longitude": -71.0703784,
    "website": null,
    "category": "Bar & Restaurant",
    "types": "bar, restaurant, food, point_of_interest, establishment"
  },
  {
    "place_id": "ChIJ2W9Nvehx44kR2tq4Dg2hsyM",
    "name": "The Dubliner Irish Pub",
    "street_address": "2 Center Plaza",
    "city": "Boston",
    "state": "MA",
    "zip_code": "02108",
    "latitude": 42.359953,
    "longitude": -71.06022630000001,
    "website": "http://www.thedublinerboston.com/",
    "category": "Bar & Restaurant",
    "types": "bar, restaurant, food, point_of_interest, establishment"
  },
  {
    "place_id": "ChIJN3Gso3V744kR_0bXA6qRMgI",
    "name": "Yard House",
    "street_address": "110 Huntington Avenue",
    "city": "Boston",
    "state": "MA",
    "zip_code": "02116",
    "latitude": 42.34703,
    "longitude": -71.07929,
    "website": "https://www.yardhouse.com/locations/ma/boston/boston-marriott-copley/8391?cmpid=br:yh_ag:ie_ch:loc_ca:YHGMB_sn:gmb_gt:boston-ma-8391_pl:locurl_rd:1085",
    "category": "Bar & Restaurant",
    "types": "bar, meal_takeaway, restaurant, food, point_of_interest, establishment"
  },
  {
    "place_id": "ChIJY7iqVV1344kRhYtmOQyd_3w",
    "name": "Grendel's Den Restaurant & Bar",
    "street_address": "89 Winthrop Street",
    "city": "Cambridge",
    "state": "MA",
    "zip_code": "02138",
    "latitude": 42.3724617,
    "longitude": -71.1208398,
    "website": "https://www.grendelsden.com/",
    "category": "Bar & Restaurant",
    "types": "bar, restaurant, point_of_interest, food, establishment"
  },
  {
    "place_id": "ChIJRclD_Mpw44kRhiTZqoK0gbk",
    "name": "The Independent",
    "street_address": "75 Union Square",
    "city": "Somerville",
    "state": "MA",
    "zip_code": "02143",
    "latitude": 42.379789,
    "longitude": -71.094804,
    "website": "http://www.theindo.com/",
    "category": "Bar & Restaurant",
    "types": "bar, restaurant, food, point_of_interest, establishment"
  },
  {
    "place_id": "ChIJQ7CpaYNw44kROxrRpWz5Isk",
    "name": "SideBar",
    "street_address": "14 Bromfield Street",
    "city": "Boston",
    "state": "MA",
    "zip_code": "02108",
    "latitude": 42.35656059999999,
    "longitude": -71.0600317,
    "website": "http://www.sidebarboston.com/",
    "category": "Bar & Restaurant",
    "types": "bar, restaurant, food, point_of_interest, establishment"
  },
  {
    "place_id": "ChIJ6UDUh4l644kR9-SSfd-2yIk",
    "name": "Lincoln Tavern & Restaurant",
    "street_address": "425 West Broadway",
    "city": "Boston",
    "state": "MA",
    "zip_code": "02127",
    "latitude": 42.33631500000001,
    "longitude": -71.047597,
    "website": "http://lincolnsouthboston.com/",
    "category": "Bar & Restaurant",
    "types": "bar, restaurant, point_of_interest, food, establishment"
  },
  {
    "place_id": "ChIJ207FQz5344kR2ZSigqaDKyc",
    "name": "The Abbey",
    "street_address": "1755 Massachusetts Avenue",
    "city": "Cambridge",
    "state": "MA",
    "zip_code": "02140",
    "latitude": 42.3851012,
    "longitude": -71.1190857,
    "website": "http://abbeyonlinestore.com/",
    "category": "Bar & Restaurant",
    "types": "bar, restaurant, food, point_of_interest, establishment"
  },
  {
    "place_id": "ChIJB939tp9w44kRQuO7SeU0ML4",
    "name": "Cheers",
    "street_address": "84 Beacon Street",
    "city": "Boston",
    "state": "MA",
    "zip_code": "02108",
    "latitude": 42.35593239999999,
    "longitude": -71.0712818,
    "website": "http://www.cheersboston.com/",
    "category": "Bar & Restaurant",
    "types": "bar, restaurant, food, point_of_interest, establishment"
  },
  {
    "place_id": "ChIJNZPjFWxx44kRB9ATNyaB6Kg",
    "name": "New Republik",
    "street_address": "1172 Cambridge Street",
    "city": "Cambridge",
    "state": "MA",
    "zip_code": "02139",
    "latitude": 42.3731259,
    "longitude": -71.097027,
    "website": "http://www.newrepublikbar.com/",
    "category": "Bar & Restaurant",
    "types": "restaurant, bar, food, point_of_interest, establishment"
  },
  {
    "place_id": "ChIJtQQAdb1w44kRjK0xnL4UHWo",
    "name": "ArtBar",
    "street_address": "40 Edwin H Land Boulevard",
    "city": "Cambridge",
    "state": "MA",
    "zip_code": "02142",
    "latitude": 42.3671849,
    "longitude": -71.0743021,
    "website": "http://artbarcambridge.com/",
    "category": "Bar & Restaurant",
    "types": "bar, restaurant, food, point_of_interest, establishment"
  },
  {
    "place_id": "ChIJ92LdOT9x44kRjkQ493GAnB4",
    "name": "Night Shift Brewing - Lovejoy Wharf",
    "street_address": "1 Lovejoy Wharf",
    "city": "Boston",
    "state": "MA",
    "zip_code": "02114",
    "latitude": 42.36733359999999,
    "longitude": -71.05957810000001,
    "website": "https://nightshiftbrewing.com/locations/lovejoy-wharf/?utm_source=google&utm_medium=business_organic&utm_campaign=lovejoy_wharf",
    "category": "Bar & Restaurant",
    "types": "cafe, bar, restaurant, food, point_of_interest, establishment"
  },
  {
    "place_id": "ChIJG4QG1_xx44kRFbFfMmTfAzI",
    "name": "The Lexington",
    "street_address": "100 North First Street",
    "city": "Cambridge",
    "state": "MA",
    "zip_code": "02141",
    "latitude": 42.3721147,
    "longitude": -71.0755137,
    "website": "https://www.thelexingtoncx.com/the-lexington-restaurant",
    "category": "Restaurant",
    "types": "restaurant, food, point_of_interest, establishment"
  },
  {
    "place_id": "ChIJceJUz1J344kRHn_HK9860JE",
    "name": "One Reason Garden Bar",
    "street_address": "1 Bennett Street",
    "city": "Cambridge",
    "state": "MA",
    "zip_code": "02138",
    "latitude": 42.37218780000001,
    "longitude": -71.1223578,
    "website": "http://onereasongardenbar.com/",
    "category": "Bar & Restaurant",
    "types": "bar, restaurant, food, point_of_interest, establishment"
  },
  {
    "place_id": "ChIJVfEyMCN744kRKii4DDONnbw",
    "name": "Two Saints Tavern",
    "street_address": "52 Gainsborough Street",
    "city": "Boston",
    "state": "MA",
    "zip_code": "02115",
    "latitude": 42.3417467,
    "longitude": -71.0871797,
    "website": "https://www.twosaintstavern.com/",
    "category": "Bar & Restaurant",
    "types": "bar, restaurant, food, point_of_interest, establishment"
  },
  {
    "place_id": "ChIJqS-U6IZw44kR1E7QGX8PuEw",
    "name": "Mr. Dooley's Boston",
    "street_address": "77 Broad Street",
    "city": "Boston",
    "state": "MA",
    "zip_code": "02109",
    "latitude": 42.3576707,
    "longitude": -71.0536515,
    "website": "http://mrdooleys.com/",
    "category": "Bar & Restaurant",
    "types": "bar, restaurant, food, point_of_interest, establishment"
  },
  {
    "place_id": "ChIJ3agKCEJ344kRhKYuQrbbMxw",
    "name": "Cambridge Common Restaurant",
    "street_address": "1667 Massachusetts Avenue",
    "city": "Cambridge",
    "state": "MA",
    "zip_code": "02138",
    "latitude": 42.3820947,
    "longitude": -71.11949899999999,
    "website": "http://cambridgecommonrestaurant.com/",
    "category": "Bar & Restaurant",
    "types": "bar, restaurant, food, point_of_interest, establishment"
  },
  {
    "place_id": "ChIJxa82RIZw44kRbG8SPzhYtZY",
    "name": "The Black Rose",
    "street_address": "160 State Street",
    "city": "Boston",
    "state": "MA",
    "zip_code": "02109",
    "latitude": 42.3594207,
    "longitude": -71.0536639,
    "website": "https://www.blackroseboston.com/",
    "category": "Bar & Restaurant",
    "types": "bar, restaurant, food, point_of_interest, establishment"
  },
  {
    "place_id": "ChIJMU1-F4B644kRh4FgssOldKQ",
    "name": "Lucky's Lounge",
    "street_address": "355 Congress Street",
    "city": "Boston",
    "state": "MA",
    "zip_code": "02210",
    "latitude": 42.3502162,
    "longitude": -71.0484495,
    "website": "http://luckyslounge.com/",
    "category": "Bar & Restaurant",
    "types": "night_club, bar, restaurant, food, point_of_interest, establishment"
  },
  {
    "place_id": "ChIJ14tHKJ1w44kRjltsmQF3pXM",
    "name": "jm Curley",
    "street_address": "21 Temple Place",
    "city": "Boston",
    "state": "MA",
    "zip_code": "02111",
    "latitude": 42.35519499999999,
    "longitude": -71.06236779999999,
    "website": "http://www.jmcurleyboston.com/",
    "category": "Bar & Restaurant",
    "types": "bar, restaurant, food, point_of_interest, establishment"
  },
  {
    "place_id": "ChIJpekQoPJx44kRozw1VT_1wWA",
    "name": "Rose Town Kitchen & Bar",
    "street_address": "99 Blackstone Street",
    "city": "Boston",
    "state": "MA",
    "zip_code": "02109",
    "latitude": 42.361662,
    "longitude": -71.0560276,
    "website": "https://www.rosetownkitchenandbar.com/?SEO_id=GMB--R-BOSTNPY-1&y_source=1_MTAxOTc5OTkyNC03MTUtbG9jYXRpb24ud2Vic2l0ZQ%3D%3D",
    "category": "Restaurant",
    "types": "restaurant, food, point_of_interest, establishment"
  },
  {
    "place_id": "ChIJde0H54N644kR47MwPp77y3w",
    "name": "Birch Bar",
    "street_address": "425 Summer Street",
    "city": "Boston",
    "state": "MA",
    "zip_code": "02210",
    "latitude": 42.3460859,
    "longitude": -71.0432799,
    "website": "https://www.marriott.com/en-us/hotels/bosow-the-westin-boston-seaport-district/dining/?scid=feed67b0-9a2f-4de1-8df6-114544116108",
    "category": "Bar & Restaurant",
    "types": "restaurant, bar, food, point_of_interest, establishment"
  },
  {
    "place_id": "ChIJqRk3ZPZ544kRy5hmYv2Txzw",
    "name": "Yard House",
    "street_address": "126 Brookline Avenue",
    "city": "Boston",
    "state": "MA",
    "zip_code": "02215",
    "latitude": 42.34537,
    "longitude": -71.10029999999999,
    "website": "https://www.yardhouse.com/locations/ma/boston/boston-fenway-fenway-triangle/8336?cmpid=br:yh_ag:ie_ch:loc_ca:YHGMB_sn:gmb_gt:boston-ma-8336_pl:locurl_rd:1034",
    "category": "Bar & Restaurant",
    "types": "meal_takeaway, bar, restaurant, food, point_of_interest, establishment"
  },
  {
    "place_id": "ChIJZwY_JzF744kRJnUNNOFkbiw",
    "name": "The Sporting Club",
    "street_address": "450 Summer Street",
    "city": "Boston",
    "state": "MA",
    "zip_code": "02210",
    "latitude": 42.3465926,
    "longitude": -71.0421894,
    "website": "https://www.thesportingclubboston.com/?utm_source=gmblisting&utm_medium=organic",
    "category": "Bar & Restaurant",
    "types": "bar, restaurant, food, point_of_interest, establishment"
  },
  {
    "place_id": "ChIJlfVH9nh644kRKtVuvugQAP4",
    "name": "Corner Pub",
    "street_address": "162 Lincoln Street",
    "city": "Boston",
    "state": "MA",
    "zip_code": "02111",
    "latitude": 42.3507667,
    "longitude": -71.0583568,
    "website": "http://cornerpubboston.net/",
    "category": "Bar & Restaurant",
    "types": "bar, meal_takeaway, restaurant, food, point_of_interest, establishment"
  },
  {
    "place_id": "ChIJde0H54N644kR_cCZutRZbtU",
    "name": "M.J. O'Connor's Seaport",
    "street_address": "425 Summer Street",
    "city": "Boston",
    "state": "MA",
    "zip_code": "02210",
    "latitude": 42.3463036,
    "longitude": -71.04330900000001,
    "website": "http://www.mjoconnors.com/",
    "category": "Bar & Restaurant",
    "types": "bar, restaurant, food, point_of_interest, establishment"
  },
  {
    "place_id": "ChIJmQBNILB744kRvw_mbjOx9Eg",
    "name": "Layla's American Tavern",
    "street_address": "332 West Broadway",
    "city": "Boston",
    "state": "MA",
    "zip_code": "02127",
    "latitude": 42.33833559999999,
    "longitude": -71.0498466,
    "website": "https://laylasamericantavern.com/",
    "category": "Restaurant",
    "types": "restaurant, food, point_of_interest, establishment"
  },
  {
    "place_id": "ChIJcZwr74Vw44kRJcaBYDUpFOE",
    "name": "The White Bull Tavern",
    "street_address": "1 Union Street",
    "city": "Boston",
    "state": "MA",
    "zip_code": "02108",
    "latitude": 42.3606685,
    "longitude": -71.0566288,
    "website": "https://thewhitebulltavern.com/?utm_source=google",
    "category": "Bar & Restaurant",
    "types": "meal_takeaway, night_club, bar, restaurant, point_of_interest, food, establishment"
  },
  {
    "place_id": "ChIJySxu94Fw44kRwi0GIvie498",
    "name": "Tavern in the Square South Station",
    "street_address": "700 Atlantic Avenue",
    "city": "Boston",
    "state": "MA",
    "zip_code": "02111",
    "latitude": 42.3521794,
    "longitude": -71.05498469999999,
    "website": "https://www.taverninthesquare.com/locations/south-station-ma/",
    "category": "Bar & Restaurant",
    "types": "bar, restaurant, food, point_of_interest, establishment"
  },
  {
    "place_id": "ChIJa_yJf5R744kRy_UhozQrWOQ",
    "name": "4th Wall Restaurant & Bar",
    "street_address": "228 Tremont Street",
    "city": "Boston",
    "state": "MA",
    "zip_code": "02116",
    "latitude": 42.35134300000001,
    "longitude": -71.0646221,
    "website": "https://www.4thwallboston.com/",
    "category": "Bar & Restaurant",
    "types": "bar, restaurant, food, point_of_interest, establishment"
  },
  {
    "place_id": "ChIJz4Ml6Jpw44kR5HvcyEKSeUM",
    "name": "The Red Hat",
    "street_address": "9 Bowdoin Street",
    "city": "Boston",
    "state": "MA",
    "zip_code": "02114",
    "latitude": 42.3609881,
    "longitude": -71.06304089999999,
    "website": null,
    "category": "Bar & Restaurant",
    "types": "bar, restaurant, food, point_of_interest, establishment"
  },
  {
    "place_id": "ChIJE18cIX5x44kRz2OoEwkiZ_E",
    "name": "Banners Kitchen & Tap",
    "street_address": "82 Causeway Street",
    "city": "Boston",
    "state": "MA",
    "zip_code": "02114",
    "latitude": 42.3656118,
    "longitude": -71.0614935,
    "website": "https://www.bannerskitchenandtap.com/",
    "category": "Bar & Restaurant",
    "types": "bar, restaurant, food, point_of_interest, establishment"
  },
  {
    "place_id": "ChIJQw3LKG5644kRevjN1DTlXWE",
    "name": "J.J. Foley's Cafe",
    "street_address": "117 East Berkeley Street",
    "city": "Boston",
    "state": "MA",
    "zip_code": "02118",
    "latitude": 42.3436685,
    "longitude": -71.06528949999999,
    "website": "https://www.jjfoleyscafe.com/",
    "category": "Bar & Restaurant",
    "types": "bar, restaurant, food, point_of_interest, establishment"
  },
  {
    "place_id": "ChIJn6RWWFF644kRz2v7Fe8Ysws",
    "name": "The Banshee",
    "street_address": "934 Dorchester Avenue",
    "city": "Boston",
    "state": "MA",
    "zip_code": "02125",
    "latitude": 42.3189802,
    "longitude": -71.0565884,
    "website": "http://www.bansheeboston.com/",
    "category": "Bar & Restaurant",
    "types": "bar, restaurant, food, point_of_interest, establishment"
  },
  {
    "place_id": "ChIJPRSasoRw44kRQKULwquC_vk",
    "name": "Emmets",
    "street_address": "6 Beacon Street",
    "city": "Boston",
    "state": "MA",
    "zip_code": "02108",
    "latitude": 42.35814980000001,
    "longitude": -71.061521,
    "website": "http://emmetsirishpubandrestaurant.com/",
    "category": "Bar & Restaurant",
    "types": "bar, restaurant, food, point_of_interest, establishment"
  },
  {
    "place_id": "ChIJS3HCSgNx44kRR5e2TK-zI2E",
    "name": "Flight Club Boston",
    "street_address": "60 Seaport Boulevard",
    "city": "Boston",
    "state": "MA",
    "zip_code": "02210",
    "latitude": 42.3530082,
    "longitude": -71.04695889999999,
    "website": "https://flightclubdartsusa.com/boston/seaport",
    "category": "Bar & Restaurant",
    "types": "bar, restaurant, food, point_of_interest, establishment"
  },
  {
    "place_id": "ChIJb_ZIc-1w44kRnoyWEPSsTYg",
    "name": "Warren Tavern",
    "street_address": "2 Pleasant Street",
    "city": "Boston",
    "state": "MA",
    "zip_code": "02129",
    "latitude": 42.3741694,
    "longitude": -71.0631664,
    "website": "http://www.warrentavern.com/",
    "category": "Bar & Restaurant",
    "types": "bar, restaurant, food, point_of_interest, establishment"
  },
  {
    "place_id": "ChIJrQVbMo5w44kRXudenF7dHeE",
    "name": "Hurricane's at the Garden",
    "street_address": "150 Canal Street",
    "city": "Boston",
    "state": "MA",
    "zip_code": "02114",
    "latitude": 42.36481369999999,
    "longitude": -71.0607941,
    "website": "http://www.hurricanesboston.com/",
    "category": "Bar & Restaurant",
    "types": "bar, restaurant, food, point_of_interest, establishment"
  },
  {
    "place_id": "ChIJdTxX9IJw44kRN-MzfX1O6N8",
    "name": "JJ Foley's Bar & Grille",
    "street_address": "21 Kingston Street",
    "city": "Boston",
    "state": "MA",
    "zip_code": "02111",
    "latitude": 42.3538194,
    "longitude": -71.05917079999999,
    "website": "http://www.jjfoleys.com/location.html",
    "category": "Bar & Restaurant",
    "types": "bar, restaurant, food, point_of_interest, establishment"
  },
  {
    "place_id": "ChIJ2X25uw9644kRGG8gByNprGU",
    "name": "Back Bay Social",
    "street_address": "867 Boylston Street",
    "city": "Boston",
    "state": "MA",
    "zip_code": "02116",
    "latitude": 42.348708,
    "longitude": -71.083423,
    "website": "http://www.backbaysocial.com/",
    "category": "Bar & Restaurant",
    "types": "bar, restaurant, food, point_of_interest, establishment"
  },
  {
    "place_id": "ChIJRzsVPRB644kRpWzEweKp4tk",
    "name": "Earls Kitchen + Bar",
    "street_address": "800 Boylston Street",
    "city": "Boston",
    "state": "MA",
    "zip_code": "02199",
    "latitude": 42.3472252,
    "longitude": -71.0818932,
    "website": "https://www.earls.ca/locations/prudential-center",
    "category": "Bar & Restaurant",
    "types": "restaurant, bar, food, point_of_interest, establishment"
  },
  {
    "place_id": "ChIJNbvhmkN544kRKwCKSwteNNA",
    "name": "Eugene O'Neill's",
    "street_address": "3700 Washington Street",
    "city": "Boston",
    "state": "MA",
    "zip_code": "02130",
    "latitude": 42.3005556,
    "longitude": -71.1127778,
    "website": "https://www.facebook.com/eugeneoneills",
    "category": "Bar & Restaurant",
    "types": "bar, restaurant, food, point_of_interest, establishment"
  },
  {
    "place_id": "ChIJefpNNR1644kRA4W72EdUO3g",
    "name": "Cornwall's",
    "street_address": "644 Beacon Street",
    "city": "Boston",
    "state": "MA",
    "zip_code": "02215",
    "latitude": 42.34943639999999,
    "longitude": -71.09571009999999,
    "website": "http://www.cornwalls.com/",
    "category": "Bar & Restaurant",
    "types": "bar, restaurant, point_of_interest, food, establishment"
  },
  {
    "place_id": "ChIJgTL7UAV644kRoyxoksjiU30",
    "name": "Dillon's",
    "street_address": "955 Boylston Street",
    "city": "Boston",
    "state": "MA",
    "zip_code": "02115",
    "latitude": 42.34795549999999,
    "longitude": -71.08593119999999,
    "website": "https://www.dillonsboston.com/",
    "category": "Bar & Restaurant",
    "types": "bar, restaurant, food, point_of_interest, establishment"
  },
  {
    "place_id": "ChIJG1llG49544kRiTR7mY4iTcE",
    "name": "The Mission Bar & Grill",
    "street_address": "724 Huntington Avenue",
    "city": "Boston",
    "state": "MA",
    "zip_code": "02115",
    "latitude": 42.333814,
    "longitude": -71.105065,
    "website": "http://www.themissionbar.com/",
    "category": "Bar & Restaurant",
    "types": "bar, restaurant, food, point_of_interest, establishment"
  },
  {
    "place_id": "ChIJY2jd9Xd544kRlozS2c3wL4w",
    "name": "Brendan Behan Pub",
    "street_address": "378 Centre Street",
    "city": "Boston",
    "state": "MA",
    "zip_code": "02130",
    "latitude": 42.3220056,
    "longitude": -71.10933399999999,
    "website": "http://www.brendanbehanjp.com/",
    "category": "Bar & Restaurant",
    "types": "bar, restaurant, food, point_of_interest, establishment"
  },
  {
    "place_id": "ChIJHTF784Vw44kRgfkpGmXBtic",
    "name": "Bell in Hand",
    "street_address": "45 Union Street",
    "city": "Boston",
    "state": "MA",
    "zip_code": "02108",
    "latitude": 42.3616473,
    "longitude": -71.0571193,
    "website": "https://www.thebellinhand.com/",
    "category": "Restaurant",
    "types": "restaurant, food, point_of_interest, establishment"
  },
  {
    "place_id": "ChIJObp43cx744kREgFIUNDD8ME",
    "name": "The Street Bar",
    "street_address": "1 Newbury Street",
    "city": "Boston",
    "state": "MA",
    "zip_code": "02116",
    "latitude": 42.3528376,
    "longitude": -71.0716298,
    "website": "https://www.thenewburyboston.com/dine/street-bar?utm_source=google-gbp&utm_medium=organic&utm_campaign=gbp",
    "category": "Restaurant",
    "types": "restaurant, food, point_of_interest, establishment"
  },
  {
    "place_id": "ChIJJxPGTINw44kRIu29W86Fol8",
    "name": "Beantown Pub",
    "street_address": "100 Tremont Street",
    "city": "Boston",
    "state": "MA",
    "zip_code": "02108",
    "latitude": 42.3572888,
    "longitude": -71.0610103,
    "website": "http://beantownpub.com/",
    "category": "Bar & Restaurant",
    "types": "cafe, bar, store, restaurant, food, point_of_interest, establishment"
  },
  {
    "place_id": "ChIJh-_ZLPZ544kRu4Hl0OcbiFg",
    "name": "Bleacher Bar",
    "street_address": "82A Lansdowne Street",
    "city": "Boston",
    "state": "MA",
    "zip_code": "02215",
    "latitude": 42.34710889999999,
    "longitude": -71.0967912,
    "website": "http://www.bleacherbarboston.com/",
    "category": "Bar & Restaurant",
    "types": "bar, restaurant, point_of_interest, food, establishment"
  },
  {
    "place_id": "ChIJ0zDxyRN644kRmjjsjViOnIA",
    "name": "Five Horses Tavern - South End",
    "street_address": "535 Columbus Avenue",
    "city": "Boston",
    "state": "MA",
    "zip_code": "02118",
    "latitude": 42.3418293,
    "longitude": -71.08055139999999,
    "website": "http://fivehorsestavern.com/boston",
    "category": "Bar & Restaurant",
    "types": "bar, restaurant, food, point_of_interest, establishment"
  },
  {
    "place_id": "ChIJNRQDqRp644kRSGnmtOTWXvA",
    "name": "Bukowski Tavern",
    "street_address": "50 Dalton Street",
    "city": "Boston",
    "state": "MA",
    "zip_code": "02115",
    "latitude": 42.3472222,
    "longitude": -71.08555559999999,
    "website": "http://bukowski-tavern.com/",
    "category": "Bar & Restaurant",
    "types": "bar, restaurant, food, point_of_interest, establishment"
  },
  {
    "place_id": "ChIJJTxzwKx744kRPFhE3TKigO8",
    "name": "HARP + BARD",
    "street_address": "1099 Dorchester Avenue",
    "city": "Boston",
    "state": "MA",
    "zip_code": "02125",
    "latitude": 42.3130788,
    "longitude": -71.0574621,
    "website": "http://www.harpandbard.com/",
    "category": "Bar & Restaurant",
    "types": "bar, restaurant, food, point_of_interest, establishment"
  },
  {
    "place_id": "ChIJUzMnmm5544kRY3VqwnXNbIc",
    "name": "Galway House",
    "street_address": "710 Centre Street",
    "city": "Boston",
    "state": "MA",
    "zip_code": "02130",
    "latitude": 42.31131000000001,
    "longitude": -71.1141459,
    "website": "https://www.galwayhousejp.com/",
    "category": "Bar & Restaurant",
    "types": "bar, restaurant, food, point_of_interest, establishment"
  },
  {
    "place_id": "ChIJnZfW9YVw44kRp5FwX3GRHcg",
    "name": "The Green Dragon Tavern",
    "street_address": "11 Marshall Street",
    "city": "Boston",
    "state": "MA",
    "zip_code": "02108",
    "latitude": 42.3615396,
    "longitude": -71.0568955,
    "website": "http://www.greendragonboston.com/",
    "category": "Bar & Restaurant",
    "types": "bar, restaurant, food, point_of_interest, establishment"
  },
  {
    "place_id": "ChIJnZ42vdZx44kR6GiJd9CaUQo",
    "name": "Renegade's Pub",
    "street_address": "1004 Bennington Street",
    "city": "Boston",
    "state": "MA",
    "zip_code": "02128",
    "latitude": 42.38688299999999,
    "longitude": -71.00679219999999,
    "website": "https://www.renegadespub.com/",
    "category": "Bar & Restaurant",
    "types": "bar, restaurant, food, point_of_interest, establishment"
  },
  {
    "place_id": "ChIJHexzkil344kRDcyxdx0iHRo",
    "name": "Olde Magoun's Saloon",
    "street_address": "518 Medford Street",
    "city": "Somerville",
    "state": "MA",
    "zip_code": "02145",
    "latitude": 42.396688,
    "longitude": -71.1040476,
    "website": "http://www.magounssaloon.com/",
    "category": "Bar & Restaurant",
    "types": "bar, restaurant, food, point_of_interest, establishment"
  },
  {
    "place_id": "ChIJ44ZYNPZ544kRUbx5bOEX-Vc",
    "name": "Cask 'N Flagon",
    "street_address": "62 Brookline Avenue",
    "city": "Boston",
    "state": "MA",
    "zip_code": "02215",
    "latitude": 42.3472985,
    "longitude": -71.0982722,
    "website": "http://casknflagon.com/",
    "category": "Bar & Restaurant",
    "types": "bar, restaurant, point_of_interest, food, establishment"
  },
  {
    "place_id": "ChIJ91_I72dw44kR-qG_E1wMRcI",
    "name": "Cunard Tavern",
    "street_address": "24 Orleans Street",
    "city": "Boston",
    "state": "MA",
    "zip_code": "02128",
    "latitude": 42.3673386,
    "longitude": -71.0387791,
    "website": "http://www.cunardtavern.com/",
    "category": "Restaurant",
    "types": "restaurant, food, point_of_interest, establishment"
  },
  {
    "place_id": "ChIJ9e9P4It644kRo4hnW92Sab8",
    "name": "Stats Bar & Grille",
    "street_address": "77 Dorchester Street",
    "city": "Boston",
    "state": "MA",
    "zip_code": "02127",
    "latitude": 42.3358131,
    "longitude": -71.0453552,
    "website": "http://statsboston.com/",
    "category": "Bar & Restaurant",
    "types": "bar, restaurant, point_of_interest, food, establishment"
  },
  {
    "place_id": "ChIJIWIKl9Bw44kRqrcJvGf4L-w",
    "name": "Casey's",
    "street_address": "173 Broadway",
    "city": "Somerville",
    "state": "MA",
    "zip_code": "02145",
    "latitude": 42.3890862,
    "longitude": -71.0862016,
    "website": "http://www.caseyssomerville.com/",
    "category": "Bar & Restaurant",
    "types": "bar, restaurant, point_of_interest, food, establishment"
  },
  {
    "place_id": "ChIJgw3WEcZ544kRl1OnDzjRFns",
    "name": "The Avenue Bar Allston",
    "street_address": "1249 Commonwealth Avenue",
    "city": "Boston",
    "state": "MA",
    "zip_code": "02134",
    "latitude": 42.35016709999999,
    "longitude": -71.1321269,
    "website": "http://www.avenuebar.com/",
    "category": "Bar & Restaurant",
    "types": "bar, restaurant, food, point_of_interest, establishment"
  },
  {
    "place_id": "ChIJs46T2lN444kRgVvrx6yEHZ8",
    "name": "Cityside Tavern",
    "street_address": "1960 Beacon Street",
    "city": "Boston",
    "state": "MA",
    "zip_code": "02135",
    "latitude": 42.3364612,
    "longitude": -71.1504628,
    "website": "http://www.cityside-tavern.com/",
    "category": "Bar & Restaurant",
    "types": "bar, restaurant, food, point_of_interest, establishment"
  },
  {
    "place_id": "ChIJozXIlb9544kRC1ut0VyWbgc",
    "name": "Coolidge Corner Clubhouse",
    "street_address": "307 Harvard Street",
    "city": "Brookline",
    "state": "MA",
    "zip_code": "02446",
    "latitude": 42.3433404,
    "longitude": -71.1227971,
    "website": "http://www.coolidgecornerclubhouse.com/",
    "category": "Bar & Restaurant",
    "types": "bar, restaurant, food, point_of_interest, establishment"
  },
  {
    "place_id": "ChIJffY71zR344kRgUr9DxeM2sE",
    "name": "Sally O'Brien's",
    "street_address": "335 Somerville Avenue",
    "city": "Somerville",
    "state": "MA",
    "zip_code": "02143",
    "latitude": 42.38078000000001,
    "longitude": -71.09799699999999,
    "website": "http://www.sallyobriensbar.com/",
    "category": "Bar & Restaurant",
    "types": "bar, restaurant, food, point_of_interest, establishment"
  },
  {
    "place_id": "ChIJyz9YRN9w44kRqs4MoEw1sKE",
    "name": "Earls Kitchen + Bar",
    "street_address": "698 Assembly Row",
    "city": "Somerville",
    "state": "MA",
    "zip_code": "02145",
    "latitude": 42.395712,
    "longitude": -71.0800187,
    "website": "https://www.earls.ca/locations/assembly-row",
    "category": "Bar & Restaurant",
    "types": "restaurant, night_club, bar, food, point_of_interest, establishment"
  },
  {
    "place_id": "ChIJVxFffZtx44kRx6lLwItzRZ4",
    "name": "The Ford Tavern",
    "street_address": "61 Locust Street",
    "city": "Medford",
    "state": "MA",
    "zip_code": "02155",
    "latitude": 42.4085658,
    "longitude": -71.092889,
    "website": "https://www.thefordtavern.com/",
    "category": "Restaurant",
    "types": "restaurant, food, point_of_interest, establishment"
  },
  {
    "place_id": "ChIJ-YaV42Bx44kR6hL-OYBykP4",
    "name": "Mystic Station",
    "street_address": "139 Pleasant Street",
    "city": "Malden",
    "state": "MA",
    "zip_code": "02148",
    "latitude": 42.4273548,
    "longitude": -71.0708066,
    "website": "http://www.mysticstationmalden.com/",
    "category": "Restaurant",
    "types": "restaurant, food, point_of_interest, establishment"
  },
  {
    "place_id": "ChIJLaHLGwB344kROUl3L5jcSts",
    "name": "Mrs. Murphy's",
    "street_address": "25 Salem Street",
    "city": "Medford",
    "state": "MA",
    "zip_code": "02155",
    "latitude": 42.41827969999999,
    "longitude": -71.10852810000002,
    "website": "https://www.mrsmurphs.com/",
    "category": "Bar & Restaurant",
    "types": "bar, restaurant, food, point_of_interest, establishment"
  },
  {
    "place_id": "ChIJwYZDzXV344kRpVp62WwxHH0",
    "name": "Town Tavern",
    "street_address": "201 Massachusetts Avenue",
    "city": "Arlington",
    "state": "MA",
    "zip_code": "02474",
    "latitude": 42.4060134,
    "longitude": -71.1422058,
    "website": "https://towntavern.net/",
    "category": "Bar & Restaurant",
    "types": "restaurant, meal_takeaway, bar, point_of_interest, food, establishment"
  },
  {
    "place_id": "ChIJB-hLQNN344kRH9p4Ox-z3io",
    "name": "The Great American Beer Hall",
    "street_address": "142 Mystic Avenue",
    "city": "Medford",
    "state": "MA",
    "zip_code": "02155",
    "latitude": 42.4101053,
    "longitude": -71.1054237,
    "website": "https://gabhall.com/",
    "category": "Bar & Restaurant",
    "types": "bar, restaurant, food, point_of_interest, establishment"
  },
  {
    "place_id": "ChIJlYADYRFx44kRXb_-gc0FQ9I",
    "name": "Village Bar & Grill",
    "street_address": "38 Norman Street",
    "city": "Everett",
    "state": "MA",
    "zip_code": "02149",
    "latitude": 42.4054949,
    "longitude": -71.0658475,
    "website": "http://www.villagebarandgrilleverett.com/",
    "category": "Bar & Restaurant",
    "types": "bar, restaurant, food, point_of_interest, establishment"
  },
  {
    "place_id": "ChIJoRQvvRh344kRUlNbgjUR6iE",
    "name": "The Burren",
    "street_address": "247 Elm Street",
    "city": "Somerville",
    "state": "MA",
    "zip_code": "02144",
    "latitude": 42.3954502,
    "longitude": -71.121741,
    "website": "http://www.burren.com/",
    "category": "Bar & Restaurant",
    "types": "bar, restaurant, food, point_of_interest, establishment"
  },
  {
    "place_id": "ChIJyXiX9-F244kRfHO2XdMTrGg",
    "name": "PJ Ryan's",
    "street_address": "239 Holland Street",
    "city": "Somerville",
    "state": "MA",
    "zip_code": "02144",
    "latitude": 42.4027779,
    "longitude": -71.1267505,
    "website": "http://www.pjryans.com/",
    "category": "Bar & Restaurant",
    "types": "bar, restaurant, food, point_of_interest, establishment"
  },
  {
    "place_id": "ChIJG2Fy0SBx44kRoq0I1NlmMzk",
    "name": "Tony C's Sports Bar and Grill",
    "street_address": "699 Assembly Row",
    "city": "Somerville",
    "state": "MA",
    "zip_code": "02145",
    "latitude": 42.39575129999999,
    "longitude": -71.0791368,
    "website": "http://www.tonycssportsbar.com/",
    "category": "Bar & Restaurant",
    "types": "bar, restaurant, food, point_of_interest, establishment"
  },
  {
    "place_id": "ChIJN31rBiJ344kRprkdKBCL690",
    "name": "Five Horses Tavern",
    "street_address": "400 Highland Avenue",
    "city": "Somerville",
    "state": "MA",
    "zip_code": "02144",
    "latitude": 42.39571029999999,
    "longitude": -71.1208611,
    "website": "http://fivehorsestavern.com/",
    "category": "Bar & Restaurant",
    "types": "bar, restaurant, food, point_of_interest, establishment"
  },
  {
    "place_id": "ChIJI_leb2Fx44kRIuYkhMrPWDE",
    "name": "Hugh O'Neill's Restaurant & Pub",
    "street_address": "45 Pleasant Street",
    "city": "Malden",
    "state": "MA",
    "zip_code": "02148",
    "latitude": 42.4269426,
    "longitude": -71.0683667,
    "website": "http://www.hughoneills.com/",
    "category": "Bar & Restaurant",
    "types": "bar, restaurant, food, point_of_interest, establishment"
  },
  {
    "place_id": "ChIJU-yHwjN444kRscE8W7qr0eg",
    "name": "Irish Village",
    "street_address": "224 Market Street",
    "city": "Boston",
    "state": "MA",
    "zip_code": "02135",
    "latitude": 42.3549462,
    "longitude": -71.1497093,
    "website": "https://www.irishvillageboston.com/",
    "category": "Bar & Restaurant",
    "types": "night_club, bar, restaurant, food, point_of_interest, establishment"
  },
  {
    "place_id": "ChIJrxLhHpt544kRxtyBbOBfvaQ",
    "name": "City Works (Arsenal Yards - Watertown)",
    "street_address": "91 Arsenal Yards Boulevard",
    "city": "Watertown",
    "state": "MA",
    "zip_code": "02472",
    "latitude": 42.3622796,
    "longitude": -71.15748239999999,
    "website": "http://cityworksrestaurant.com/locations/watertown",
    "category": "Bar & Restaurant",
    "types": "bar, restaurant, food, point_of_interest, establishment"
  },
  {
    "place_id": "ChIJm5vN1V9x44kReJdJLRWd1jk",
    "name": "Pearl Street Station Restaurant",
    "street_address": "53 Summer Street",
    "city": "Malden",
    "state": "MA",
    "zip_code": "02148",
    "latitude": 42.428863,
    "longitude": -71.07368699999999,
    "website": "http://pearlstreetrestaurant.com/",
    "category": "Bar & Restaurant",
    "types": "night_club, bar, restaurant, food, point_of_interest, establishment"
  },
  {
    "place_id": "ChIJJ7d7WsV544kRsc_8niKgO2o",
    "name": "The Draft Bar and Grille",
    "street_address": "34 Harvard Avenue",
    "city": "Boston",
    "state": "MA",
    "zip_code": "02134",
    "latitude": 42.3548509,
    "longitude": -71.13246219999999,
    "website": "http://thedraftallston.com/",
    "category": "Bar & Restaurant",
    "types": "bar, restaurant, food, point_of_interest, establishment"
  },
  {
    "place_id": "ChIJx3HrOXR644kRX-ITHrA0ulQ",
    "name": "M.J. O'Connor's",
    "street_address": "27 Columbus Avenue",
    "city": "Boston",
    "state": "MA",
    "zip_code": "02116",
    "latitude": 42.3511436,
    "longitude": -71.06894969999999,
    "website": "https://www.mjoconnors.com/back-bay/",
    "category": "Bar & Restaurant",
    "types": "bar, restaurant, food, point_of_interest, establishment"
  },
  {
    "place_id": "ChIJp_aB3kl444kR0rcbIvIXUAI",
    "name": "Porter Belly's Pub",
    "street_address": "338 Washington Street",
    "city": "Boston",
    "state": "MA",
    "zip_code": "02135",
    "latitude": 42.3489511,
    "longitude": -71.1524833,
    "website": "http://www.porterbellyspub.com/",
    "category": "Bar & Restaurant",
    "types": "night_club, bar, restaurant, point_of_interest, food, establishment"
  },
  {
    "place_id": "ChIJmy85_Bl344kRg8s3AeOBkTM",
    "name": "Elm Street Taproom",
    "street_address": "256 Elm Street",
    "city": "Somerville",
    "state": "MA",
    "zip_code": "02144",
    "latitude": 42.3955439,
    "longitude": -71.12229219999999,
    "website": "https://www.elmstreettaproom.com/",
    "category": "Restaurant",
    "types": "restaurant, point_of_interest, food, establishment"
  },
  {
    "place_id": "ChIJHc6mvBh344kR3TJiRGyLd7k",
    "name": "Foundry On Elm",
    "street_address": "255 Elm Street",
    "city": "Somerville",
    "state": "MA",
    "zip_code": "02144",
    "latitude": 42.3956206,
    "longitude": -71.12190319999999,
    "website": "http://www.foundryonelm.com/",
    "category": "Bar & Restaurant",
    "types": "bar, restaurant, food, point_of_interest, establishment"
  },
  {
    "place_id": "ChIJH1tTvC1y44kRsDAl53pDr8g",
    "name": "Patrick's",
    "street_address": "40 Lebanon Street",
    "city": "Malden",
    "state": "MA",
    "zip_code": "02148",
    "latitude": 42.43438640000001,
    "longitude": -71.0460415,
    "website": "https://www.facebook.com/Patricks-127898277312949/",
    "category": "Bar & Restaurant",
    "types": "bar, restaurant, food, point_of_interest, establishment"
  },
  {
    "place_id": "ChIJf3hYya9x44kRikn7vHsWFBc",
    "name": "Chelsea Station Restaurant Bar & Lounge",
    "street_address": "105 Everett Avenue",
    "city": "Chelsea",
    "state": "MA",
    "zip_code": "02150",
    "latitude": 42.3944698,
    "longitude": -71.03905879999999,
    "website": "http://thechelseastation.com/",
    "category": "Bar & Restaurant",
    "types": "night_club, bar, restaurant, point_of_interest, food, establishment"
  },
  {
    "place_id": "ChIJW3NUvP1544kRGJqI4vOQ6NA",
    "name": "Garrison House",
    "street_address": "6 Harvard Square",
    "city": "Brookline",
    "state": "MA",
    "zip_code": "02445",
    "latitude": 42.33311760000001,
    "longitude": -71.1184866,
    "website": "https://www.garrisonhousebrookline.com/",
    "category": "Restaurant",
    "types": "restaurant, food, point_of_interest, establishment"
  },
  {
    "place_id": "ChIJlVxt_3N844kRNvcyMqi8hvY",
    "name": "Lower Mills Tavern",
    "street_address": "2269 Dorchester Avenue",
    "city": "Boston",
    "state": "MA",
    "zip_code": "02124",
    "latitude": 42.272976,
    "longitude": -71.06805299999999,
    "website": "http://www.lowermillstavern.com/",
    "category": "Bar & Restaurant",
    "types": "restaurant, bar, food, point_of_interest, establishment"
  },
  {
    "place_id": "ChIJCaQeOI1_44kRt27i0e1VFNM",
    "name": "Boston Ale House",
    "street_address": "1885 Centre Street",
    "city": "Boston",
    "state": "MA",
    "zip_code": "02132",
    "latitude": 42.28594160000001,
    "longitude": -71.15585329999999,
    "website": "http://www.bostonalehousegroup.com/",
    "category": "Bar & Restaurant",
    "types": "bar, restaurant, food, point_of_interest, establishment"
  },
  {
    "place_id": "ChIJ2SS5-ZV544kRM0aqIzDxkqY",
    "name": "Grainne O'Malley's Tavern",
    "street_address": "201 Harvard Street",
    "city": "Brookline",
    "state": "MA",
    "zip_code": "02446",
    "latitude": 42.33970619999999,
    "longitude": -71.120738,
    "website": "http://omalleystavern.com/",
    "category": "Bar & Restaurant",
    "types": "bar, restaurant, food, point_of_interest, establishment"
  },
  {
    "place_id": "ChIJZanpirF544kR_NHjVZuBcsY",
    "name": "Barcelona Wine Bar",
    "street_address": "1700 Beacon Street",
    "city": "Brookline",
    "state": "MA",
    "zip_code": "02446",
    "latitude": 42.3388704,
    "longitude": -71.1387828,
    "website": "https://barcelonawinebar.com/",
    "category": "Bar & Restaurant",
    "types": "bar, restaurant, point_of_interest, food, establishment"
  },
  {
    "place_id": "ChIJRzSKpg5644kR4yi01eBUXIM",
    "name": "Joe\u2019s on Newbury",
    "street_address": "181 Newbury Street",
    "city": "Boston",
    "state": "MA",
    "zip_code": "02116",
    "latitude": 42.3504799,
    "longitude": -71.0797693,
    "website": "http://joesonnewbury.com/",
    "category": "Bar & Restaurant",
    "types": "bar, restaurant, food, point_of_interest, establishment"
  },
  {
    "place_id": "ChIJDaJJzfZ544kRnon1_FQE2cg",
    "name": "Audubon",
    "street_address": "838 Beacon Street",
    "city": "Boston",
    "state": "MA",
    "zip_code": "02215",
    "latitude": 42.3474079,
    "longitude": -71.1031816,
    "website": "http://audubonboston.com/",
    "category": "Bar & Restaurant",
    "types": "bar, restaurant, food, point_of_interest, establishment"
  },
  {
    "place_id": "ChIJJUuLRoZw44kRm367FB35rgo",
    "name": "Sissy K's",
    "street_address": "4 Commercial Street",
    "city": "Boston",
    "state": "MA",
    "zip_code": "02109",
    "latitude": 42.35957820000001,
    "longitude": -71.05381179999999,
    "website": "http://sissyks.com/",
    "category": "Bar & Restaurant",
    "types": "restaurant, night_club, bar, food, point_of_interest, establishment"
  },
  {
    "place_id": "ChIJ7as_KZ1w44kRXLyC5LR2lb4",
    "name": "Democracy Brewing",
    "street_address": "35 Temple Place",
    "city": "Boston",
    "state": "MA",
    "zip_code": "02111",
    "latitude": 42.3551124,
    "longitude": -71.0621669,
    "website": "https://www.democracybrewing.com/",
    "category": "Bar & Restaurant",
    "types": "restaurant, bar, food, point_of_interest, establishment"
  },
  {
    "place_id": "ChIJQYBdkoNw44kRLu3c6_WE5Fg",
    "name": "Elephant & Castle",
    "street_address": "161 Devonshire Street",
    "city": "Boston",
    "state": "MA",
    "zip_code": "02110",
    "latitude": 42.3562642,
    "longitude": -71.0575667,
    "website": "https://www.elephantcastle.com/en/locations/ma/boston/161-devonshire-street",
    "category": "Restaurant",
    "types": "restaurant, food, point_of_interest, establishment"
  },
  {
    "place_id": "ChIJ8fCYf7l744kRd3BAVhjk0Hc",
    "name": "The Kenmore",
    "street_address": "476 Commonwealth Avenue",
    "city": "Boston",
    "state": "MA",
    "zip_code": "02215",
    "latitude": 42.3486159,
    "longitude": -71.09386239999999,
    "website": "https://www.thekenmorebar.com/",
    "category": "Bar & Restaurant",
    "types": "bar, restaurant, food, point_of_interest, establishment"
  },
  {
    "place_id": "ChIJUaNiTb5544kRlEQURXf1sek",
    "name": "Hamilton Restaurant & Bar",
    "street_address": "1366 Beacon Street",
    "city": "Brookline",
    "state": "MA",
    "zip_code": "02446",
    "latitude": 42.3419258,
    "longitude": -71.1233104,
    "website": "http://hamiltonbrookline.com/",
    "category": "Bar & Restaurant",
    "types": "restaurant, bar, food, point_of_interest, establishment"
  },
  {
    "place_id": "ChIJ2QgzqbF544kR-HZHOjrGTjk",
    "name": "The Publick House",
    "street_address": "1648 Beacon Street",
    "city": "Brookline",
    "state": "MA",
    "zip_code": "02445",
    "latitude": 42.3393356,
    "longitude": -71.1366264,
    "website": "https://publickhousebrookline.com/",
    "category": "Bar & Restaurant",
    "types": "bar, restaurant, point_of_interest, food, establishment"
  },
  {
    "place_id": "ChIJKWZtNVh544kRPwhFqWHePkQ",
    "name": "Bar 'Cino Brookline",
    "street_address": "1032 Beacon Street",
    "city": "Brookline",
    "state": "MA",
    "zip_code": "02446",
    "latitude": 42.3460352,
    "longitude": -71.1083716,
    "website": "https://barcino.com/brookline/",
    "category": "Restaurant",
    "types": "restaurant, point_of_interest, food, establishment"
  },
  {
    "place_id": "ChIJm7SgZmtx44kRU5HGYSSJ37E",
    "name": "Teddy's on the Hill",
    "street_address": "9 Bowdoin Street",
    "city": "Boston",
    "state": "MA",
    "zip_code": "02114",
    "latitude": 42.3609881,
    "longitude": -71.06304089999999,
    "website": "http://www.teddysboston.com/",
    "category": "Restaurant",
    "types": "restaurant, food, point_of_interest, establishment"
  },
  {
    "place_id": "ChIJLSWl1I9w44kRhqDcgiagYGk",
    "name": "The Greatest Bar",
    "street_address": "262 Friend Street",
    "city": "Boston",
    "state": "MA",
    "zip_code": "02114",
    "latitude": 42.3645781,
    "longitude": -71.0614196,
    "website": "http://www.thegreatestbar.com/",
    "category": "Bar & Restaurant",
    "types": "restaurant, night_club, bar, point_of_interest, food, establishment"
  },
  {
    "place_id": "ChIJpy868n9x44kRixnDFgLHJP0",
    "name": "Blake's Kitchen + Bar",
    "street_address": "276 Friend Street",
    "city": "Boston",
    "state": "MA",
    "zip_code": "02114",
    "latitude": 42.3646959,
    "longitude": -71.06154409999999,
    "website": "https://www.ihg.com/hotelindigo/hotels/us/en/boston/bosfs/hoteldetail",
    "category": "Bar & Restaurant",
    "types": "bar, restaurant, food, point_of_interest, establishment"
  },
  {
    "place_id": "ChIJfW31DvqC44kRuHgi-AiEOqI",
    "name": "The Cherry Tree",
    "street_address": "1349 Washington Street",
    "city": "Newton",
    "state": "MA",
    "zip_code": "02465",
    "latitude": 42.34907210000001,
    "longitude": -71.22842419999999,
    "website": "https://www.cherrytreenewton.com/",
    "category": "Bar & Restaurant",
    "types": "bar, restaurant, food, point_of_interest, establishment"
  },
  {
    "place_id": "ChIJq5mHo6OC44kRP4p_cOVm8QI",
    "name": "Tommy Doyle's",
    "street_address": "349 Watertown Street",
    "city": "Newton",
    "state": "MA",
    "zip_code": "02458",
    "latitude": 42.36083199999999,
    "longitude": -71.20073889999999,
    "website": "https://www.doylesnewton.com/",
    "category": "Bar & Restaurant",
    "types": "bar, restaurant, food, point_of_interest, establishment"
  },
  {
    "place_id": "ChIJd9Ik50WD44kR5szaUgRAdi0",
    "name": "The Bluebird Bar",
    "street_address": "1293 Washington Street",
    "city": "Newton",
    "state": "MA",
    "zip_code": "02465",
    "latitude": 42.34951900000001,
    "longitude": -71.2265958,
    "website": "https://www.thebluebirdbar.com/",
    "category": "Bar & Restaurant",
    "types": "restaurant, bar, food, point_of_interest, establishment"
  },
  {
    "place_id": "ChIJ0zp5WM5544kRRsv8dCor_ZM",
    "name": "Deep Ellum",
    "street_address": "467 Moody Street",
    "city": "Waltham",
    "state": "MA",
    "zip_code": "02453",
    "latitude": 42.36819039999999,
    "longitude": -71.2375605,
    "website": "https://www.deepellum-waltham.com/",
    "category": "Bar & Restaurant",
    "types": "bar, restaurant, food, point_of_interest, establishment"
  },
  {
    "place_id": "ChIJGacAQfqC44kR2uNv_IKsYG4",
    "name": "Paddy's Public House",
    "street_address": "95 Elm Street",
    "city": "Newton",
    "state": "MA",
    "zip_code": "02465",
    "latitude": 42.3493846,
    "longitude": -71.22976369999999,
    "website": "http://www.paddys.us/",
    "category": "Bar & Restaurant",
    "types": "restaurant, bar, food, point_of_interest, establishment"
  },
  {
    "place_id": "ChIJb8OXPReC44kRFDCUtBE4_34",
    "name": "District 118 Kitchen & Bar",
    "street_address": "118 Needham Street",
    "city": "Newton",
    "state": "MA",
    "zip_code": "02464",
    "latitude": 42.3131523,
    "longitude": -71.2113571,
    "website": "https://www.districtkitchenandbar.com/",
    "category": "Bar & Restaurant",
    "types": "restaurant, bar, point_of_interest, food, establishment"
  },
  {
    "place_id": "ChIJJwbRKNl544kRvIJ3SI2U9DY",
    "name": "Baramor",
    "street_address": "45 Union Street",
    "city": "Newton",
    "state": "MA",
    "zip_code": "02459",
    "latitude": 42.3300629,
    "longitude": -71.19185209999999,
    "website": "https://www.baramornewton.com/",
    "category": "Bar & Restaurant",
    "types": "restaurant, bar, food, point_of_interest, establishment"
  },
  {
    "place_id": "ChIJ_1CIOG2C44kR9wCjVj6MheU",
    "name": "O'Hara's Food & Spirits",
    "street_address": "1185 Walnut Street",
    "city": "Newton",
    "state": "MA",
    "zip_code": "02461",
    "latitude": 42.3211415,
    "longitude": -71.20588,
    "website": "http://oharas.us/",
    "category": "Bar & Restaurant",
    "types": "restaurant, bar, food, point_of_interest, establishment"
  },
  {
    "place_id": "ChIJVbEzfQt444kRgB5vULwODzY",
    "name": "Buff's Pub",
    "street_address": "317 Washington Street",
    "city": "Newton",
    "state": "MA",
    "zip_code": "02458",
    "latitude": 42.3571389,
    "longitude": -71.1864722,
    "website": "http://www.buffspub.com/",
    "category": "Bar & Restaurant",
    "types": "meal_takeaway, bar, restaurant, food, point_of_interest, establishment"
  },
  {
    "place_id": "ChIJB6__cQCD44kR5Oii10RFa2w",
    "name": "The Dooliner Irish Pub and Restaurant",
    "street_address": "7 West Street",
    "city": "Newton",
    "state": "MA",
    "zip_code": "02458",
    "latitude": 42.3602347,
    "longitude": -71.2009755,
    "website": "http://www.thedooliner.com/",
    "category": "Bar & Restaurant",
    "types": "bar, restaurant, food, point_of_interest, establishment"
  },
  {
    "place_id": "ChIJhVv3e0GD44kRPJCF-JaTakE",
    "name": "Tessie's Bar & Kitchen Waltham",
    "street_address": "841 Main Street",
    "city": "Waltham",
    "state": "MA",
    "zip_code": "02451",
    "latitude": 42.3764434,
    "longitude": -71.2444979,
    "website": "http://www.tessiesbar.com/",
    "category": "Restaurant",
    "types": "restaurant, point_of_interest, food, establishment"
  },
  {
    "place_id": "ChIJO6d3i7OC44kRae66UeBNGJU",
    "name": "John Brewer's Tavern",
    "street_address": "39 Main Street",
    "city": "Waltham",
    "state": "MA",
    "zip_code": "02453",
    "latitude": 42.3746436,
    "longitude": -71.2098334,
    "website": "http://www.johnbrewerstavern.com/",
    "category": "Bar & Restaurant",
    "types": "bar, restaurant, food, point_of_interest, establishment"
  },
  {
    "place_id": "ChIJqX4TCeCC44kReTiExfWFpOA",
    "name": "Shoppers Cafe",
    "street_address": "731 Moody Street",
    "city": "Waltham",
    "state": "MA",
    "zip_code": "02453",
    "latitude": 42.36380490000001,
    "longitude": -71.23896979999999,
    "website": "http://shopperswaltham.com/",
    "category": "Bar & Restaurant",
    "types": "bar, restaurant, food, point_of_interest, establishment"
  },
  {
    "place_id": "ChIJXxXB-iOC44kRDKg6kMvKHxE",
    "name": "The Biltmore Bar & Grille",
    "street_address": "1205 Chestnut Street",
    "city": "Newton",
    "state": "MA",
    "zip_code": "02464",
    "latitude": 42.3091897,
    "longitude": -71.2211671,
    "website": "https://thebiltmoregrill.com/",
    "category": "Bar & Restaurant",
    "types": "bar, restaurant, food, point_of_interest, establishment"
  },
  {
    "place_id": "ChIJTwwWwiSC44kRhZZU1Zg_-2g",
    "name": "Dunn-Gaherin's Food and Spirits",
    "street_address": "344 Elliot Street",
    "city": "Newton",
    "state": "MA",
    "zip_code": "02464",
    "latitude": 42.31273449999999,
    "longitude": -71.22393269999999,
    "website": "https://www.dunngaherins.com/",
    "category": "Bar & Restaurant",
    "types": "bar, restaurant, food, point_of_interest, establishment"
  },
  {
    "place_id": "ChIJR9SA7amC44kRmp4hid3eXSs",
    "name": "Halfway Cafe",
    "street_address": "394 Main Street",
    "city": "Watertown",
    "state": "MA",
    "zip_code": "02472",
    "latitude": 42.3699219,
    "longitude": -71.1935551,
    "website": "http://www.thehalfwaycafe.com/",
    "category": "Bar & Restaurant",
    "types": "bar, restaurant, food, point_of_interest, establishment"
  },
  {
    "place_id": "ChIJT4FQ3Ul444kRWCe4jHS0Iks",
    "name": "Devlin's Bistro & Bar | Restaurant",
    "street_address": "332 Washington Street",
    "city": "Boston",
    "state": "MA",
    "zip_code": "02135",
    "latitude": 42.3488625,
    "longitude": -71.1523248,
    "website": "https://www.edevlins.com/",
    "category": "Bar & Restaurant",
    "types": "bar, restaurant, food, point_of_interest, establishment"
  },
  {
    "place_id": "ChIJ4y_KaJyB44kRL8EnNtlLRQc",
    "name": "Blue On Highland",
    "street_address": "882 Highland Avenue",
    "city": "Needham",
    "state": "MA",
    "zip_code": "02494",
    "latitude": 42.2936992,
    "longitude": -71.23509539999999,
    "website": "http://www.blueonhighland.com/",
    "category": "Bar & Restaurant",
    "types": "bar, restaurant, food, point_of_interest, establishment"
  },
  {
    "place_id": "ChIJYQiiJTZ444kROmMrcIsKeKI",
    "name": "Corrib Pub",
    "street_address": "396 Market Street",
    "city": "Boston",
    "state": "MA",
    "zip_code": "02135",
    "latitude": 42.3498864,
    "longitude": -71.15276109999999,
    "website": "http://westroxburylocatio.corribpub.com/",
    "category": "Bar & Restaurant",
    "types": "bar, restaurant, food, point_of_interest, establishment"
  },
  {
    "place_id": "ChIJ1Zv26Cd444kRZUsvI7aysiM",
    "name": "Donohue's Bar and Grill",
    "street_address": "87 Bigelow Avenue",
    "city": "Watertown",
    "state": "MA",
    "zip_code": "02472",
    "latitude": 42.36822290000001,
    "longitude": -71.1576512,
    "website": "http://donohuesbar.com/",
    "category": "Bar & Restaurant",
    "types": "restaurant, bar, point_of_interest, food, establishment"
  },
  {
    "place_id": "ChIJB0HnA9mC44kRwllG-MwclDM",
    "name": "Bistro781",
    "street_address": "336 Moody Street",
    "city": "Waltham",
    "state": "MA",
    "zip_code": "02453",
    "latitude": 42.370428,
    "longitude": -71.23674199999999,
    "website": "https://www.bistro781.com/?utm_source=GMB&utm_medium=Profile&utm_campaign=Website",
    "category": "Bar & Restaurant",
    "types": "bar, restaurant, food, point_of_interest, establishment"
  },
  {
    "place_id": "ChIJ58rTx0iD44kRhGfS20gefbY",
    "name": "Ward 4",
    "street_address": "277 Auburn Street",
    "city": "Newton",
    "state": "MA",
    "zip_code": "02466",
    "latitude": 42.3465566,
    "longitude": -71.2465397,
    "website": "https://www.ward-4.com/",
    "category": "Bar & Restaurant",
    "types": "bar, restaurant, food, point_of_interest, establishment"
  },
  {
    "place_id": "ChIJJQc5YsGD44kRI738fhP6wt4",
    "name": "Papa Razzi Wellesley",
    "street_address": "16 Washington Street",
    "city": "Wellesley",
    "state": "MA",
    "zip_code": "02481",
    "latitude": 42.325052,
    "longitude": -71.25980799999999,
    "website": "https://www.paparazzitrattoria.com/wellesley",
    "category": "Restaurant",
    "types": "restaurant, food, point_of_interest, establishment"
  },
  {
    "place_id": "ChIJiX0yp_qD44kRL3H3iVsJmAU",
    "name": "Flora's Wine Bar",
    "street_address": "1284 Washington Street",
    "city": "Newton",
    "state": "MA",
    "zip_code": "02465",
    "latitude": 42.3492589,
    "longitude": -71.2260786,
    "website": "http://floraswinebar.com/",
    "category": "Bar & Restaurant",
    "types": "bar, restaurant, food, point_of_interest, establishment"
  },
  {
    "place_id": "ChIJj5982yiD44kRhGlkZxd5UUc",
    "name": "Joe Sent Me",
    "street_address": "849 Main Street",
    "city": "Waltham",
    "state": "MA",
    "zip_code": "02451",
    "latitude": 42.3764349,
    "longitude": -71.2447321,
    "website": "http://www.joe-sent-me.com/",
    "category": "Bar & Restaurant",
    "types": "bar, restaurant, food, point_of_interest, establishment"
  },
  {
    "place_id": "ChIJj_jCUiCD44kR8SaZmTb6AHU",
    "name": "Ninebark Kitchen + Drinks",
    "street_address": "1391 Washington Street",
    "city": "Newton",
    "state": "MA",
    "zip_code": "02465",
    "latitude": 42.3484517,
    "longitude": -71.2297875,
    "website": "http://ninebark.co/",
    "category": "Bar & Restaurant",
    "types": "restaurant, bar, food, point_of_interest, establishment"
  },
  {
    "place_id": "ChIJBQfSZwt444kRbKPESMfoE6E",
    "name": "Social Restaurant & Bar",
    "street_address": "320 Washington Street",
    "city": "Newton",
    "state": "MA",
    "zip_code": "02458",
    "latitude": 42.3566288,
    "longitude": -71.1869309,
    "website": "https://socialrestaurantandbar.com/",
    "category": "Bar & Restaurant",
    "types": "meal_takeaway, bar, restaurant, food, point_of_interest, establishment"
  },
  {
    "place_id": "ChIJ0bLRV0l544kRm04OA4ObBSw",
    "name": "Condesa",
    "street_address": "80 Arsenal Yards Boulevard",
    "city": "Watertown",
    "state": "MA",
    "zip_code": "02472",
    "latitude": 42.3617149,
    "longitude": -71.1569763,
    "website": "https://condesarestaurant.com/?utm_source=Business-Listing&utm_medium=Google&utm_campaign=Business&utm_id=Google",
    "category": "Restaurant",
    "types": "restaurant, food, point_of_interest, establishment"
  },
  {
    "place_id": "ChIJaRobZQt444kRudC42FHSGlU",
    "name": "Max and Leo's Pizza Newton",
    "street_address": "325 Washington Street",
    "city": "Newton",
    "state": "MA",
    "zip_code": "02458",
    "latitude": 42.3569416,
    "longitude": -71.1870145,
    "website": "https://www.maxandleospizza.com/newton",
    "category": "Bar & Restaurant",
    "types": "bar, meal_delivery, restaurant, food, point_of_interest, establishment"
  },
  {
    "place_id": "ChIJV7_Teo9344kRYa93KPJEG1s",
    "name": "Conley's Pub & Grille",
    "street_address": "164 Belmont Street",
    "city": "Watertown",
    "state": "MA",
    "zip_code": "02472",
    "latitude": 42.3756157,
    "longitude": -71.157445,
    "website": "https://www.conleyspub.com/",
    "category": "Bar & Restaurant",
    "types": "bar, restaurant, food, point_of_interest, establishment"
  },
  {
    "place_id": "ChIJJ1Ikt09444kR7DJJDLg7rE8",
    "name": "Moogy's",
    "street_address": "154 Chestnut Hill Avenue",
    "city": "Boston",
    "state": "MA",
    "zip_code": "02135",
    "latitude": 42.3415893,
    "longitude": -71.1543354,
    "website": "http://www.moogys.com/",
    "category": "Restaurant",
    "types": "restaurant, food, point_of_interest, establishment"
  },
  {
    "place_id": "ChIJvTYG7_F344kRGh-y6HxxA1Q",
    "name": "Mark & Toni's Coal Fired Pizza",
    "street_address": "121 Trapelo Road",
    "city": "Belmont",
    "state": "MA",
    "zip_code": "02478",
    "latitude": 42.3810713,
    "longitude": -71.1755177,
    "website": "https://markandtonis.com/",
    "category": "Bar & Restaurant",
    "types": "meal_takeaway, meal_delivery, bar, restaurant, food, point_of_interest, establishment"
  },
  {
    "place_id": "ChIJr8L2zwV444kRdk_CZlLSyMY",
    "name": "Not Your Average Joe's - Watertown",
    "street_address": "55 Main Street",
    "city": "Watertown",
    "state": "MA",
    "zip_code": "02472",
    "latitude": 42.366446,
    "longitude": -71.1854651,
    "website": "https://www.notyouraveragejoes.com/",
    "category": "Bar & Restaurant",
    "types": "meal_takeaway, bar, restaurant, food, point_of_interest, establishment"
  },
  {
    "place_id": "ChIJHRg24N-C44kRtsBBp1tDFaA",
    "name": "Franco's Pizzeria and Pub",
    "street_address": "714 Moody Street",
    "city": "Waltham",
    "state": "MA",
    "zip_code": "02453",
    "latitude": 42.363981,
    "longitude": -71.23855499999999,
    "website": "https://www.francospizzeriapub.com/?utm_source=gbp",
    "category": "Bar & Restaurant",
    "types": "bar, restaurant, food, point_of_interest, establishment"
  }
]