[
  {
    "place_id": "ChIJXecV91AS04kRHw5mK0aI6k0",
    "name": "Founding Fathers Pub",
    "street_address": "75 Edward Street",
    "city": "Buffalo",
    "state": "NY",
    "zip_code": "14202",
    "latitude": 42.89586790000001,
    "longitude": -78.87426289999999,
    "website": null,
    "category": "Bar & Restaurant",
    "types": "bar, restaurant, point_of_interest, food, establishment"
  },
  {
    "place_id": "ChIJ8T6_YwAT04kRXKn6XFyA7Eo",
    "name": "Genesee public house",
    "street_address": "2 Fountain Plaza",
    "city": "Buffalo",
    "state": "NY",
    "zip_code": "14202",
    "latitude": 42.8879852,
    "longitude": -78.87426839999999,
    "website": null,
    "category": "Restaurant",
    "types": "restaurant, food, point_of_interest, establishment"
  },
  {
    "place_id": "ChIJJbVp9U8S04kRhyzseB_-u00",
    "name": "Shea\u2019s Bistro & Bar",
    "street_address": "658 Main Street",
    "city": "Buffalo",
    "state": "NY",
    "zip_code": "14203",
    "latitude": 42.891739,
    "longitude": -78.8725991,
    "website": "https://www.sheas.org/sheas-bistro-bar/",
    "category": "Restaurant",
    "types": "restaurant, food, point_of_interest, establishment"
  },
  {
    "place_id": "ChIJp_AbvTcS04kRE9WGohiTgVw",
    "name": "Union Pub",
    "street_address": "295 Main Street",
    "city": "Buffalo",
    "state": "NY",
    "zip_code": "14203",
    "latitude": 42.88185319999999,
    "longitude": -78.8746905,
    "website": "http://unionpub-buffalo.com/",
    "category": "Bar & Restaurant",
    "types": "bar, restaurant, food, point_of_interest, establishment"
  },
  {
    "place_id": "ChIJq_eiFFIP04kRejODQYDQsmk",
    "name": "South City Tavern",
    "street_address": "1345 South Park Avenue",
    "city": "Buffalo",
    "state": "NY",
    "zip_code": "14220",
    "latitude": 42.85867179999999,
    "longitude": -78.83456260000001,
    "website": "https://www.facebook.com/South-City-Tavern-109871293949150/",
    "category": "Bar & Restaurant",
    "types": "bar, restaurant, food, point_of_interest, establishment"
  },
  {
    "place_id": "ChIJm0NreIoT04kR7sUyeT9K7g8",
    "name": "The Banshee Irish Pub",
    "street_address": "257 Franklin Street",
    "city": "Buffalo",
    "state": "NY",
    "zip_code": "14202",
    "latitude": 42.8911421,
    "longitude": -78.8746133,
    "website": "https://bansheeirishpub.com/",
    "category": "Bar & Restaurant",
    "types": "bar, restaurant, food, point_of_interest, establishment"
  },
  {
    "place_id": "ChIJq6pqIVAS04kRBHqMzIv-YcY",
    "name": "Vice Restaurant",
    "street_address": "500 Pearl Street",
    "city": "Buffalo",
    "state": "NY",
    "zip_code": "14202",
    "latitude": 42.89347069999999,
    "longitude": -78.87398519999999,
    "website": "https://www.vicebuffalo.com/",
    "category": "Bar & Restaurant",
    "types": "bar, restaurant, food, point_of_interest, establishment"
  },
  {
    "place_id": "ChIJhbDE6VkS04kRXAmXmRSA6Hw",
    "name": "Pearl Street Grill & Brewery",
    "street_address": "76 Pearl Street",
    "city": "Buffalo",
    "state": "NY",
    "zip_code": "14202",
    "latitude": 42.8810116,
    "longitude": -78.8772641,
    "website": "http://pearlstreetgrill.com/",
    "category": "Bar & Restaurant",
    "types": "bar, restaurant, food, point_of_interest, establishment"
  },
  {
    "place_id": "ChIJATA6IlQS04kRuFk3ig7hYV8",
    "name": "Allen Street Bar and Grill",
    "street_address": "223 Allen Street",
    "city": "Buffalo",
    "state": "NY",
    "zip_code": "14201",
    "latitude": 42.899663,
    "longitude": -78.8783624,
    "website": "https://allen-street-bar-grill.edan.io/",
    "category": "Bar & Restaurant",
    "types": "bar, restaurant, food, point_of_interest, establishment"
  },
  {
    "place_id": "ChIJ56riJvYS04kRjKh7sWD__kI",
    "name": "Anchor Bar",
    "street_address": "1047 Main Street",
    "city": "Buffalo",
    "state": "NY",
    "zip_code": "14209",
    "latitude": 42.9023405,
    "longitude": -78.868499,
    "website": "http://www.anchorbar.com/",
    "category": "Bar & Restaurant",
    "types": "bar, restaurant, food, point_of_interest, establishment"
  },
  {
    "place_id": "ChIJ4ZZRxnIO04kRrtYBSMcC_Ao",
    "name": "Doc Sullivan's",
    "street_address": "474 Abbott Road",
    "city": "Buffalo",
    "state": "NY",
    "zip_code": "14220",
    "latitude": 42.8502603,
    "longitude": -78.8147618,
    "website": "http://docsullivansbuffalo.com/",
    "category": "Bar & Restaurant",
    "types": "bar, restaurant, food, point_of_interest, establishment"
  },
  {
    "place_id": "ChIJWQmwulwT04kRmIilKN6n4Zc",
    "name": "The Draft Room Buffalo",
    "street_address": "79 Perry Street",
    "city": "Buffalo",
    "state": "NY",
    "zip_code": "14203",
    "latitude": 42.8751383,
    "longitude": -78.87469829999999,
    "website": "http://www.thedraftroombuf.com/",
    "category": "Bar & Restaurant",
    "types": "restaurant, bar, point_of_interest, food, establishment"
  },
  {
    "place_id": "ChIJd7bd8NsS04kRnq64yJBErEs",
    "name": "Mr. Goodbar",
    "street_address": "1110 Elmwood Avenue",
    "city": "Buffalo",
    "state": "NY",
    "zip_code": "14222",
    "latitude": 42.9274582,
    "longitude": -78.87719299999999,
    "website": "http://www.mrgoodbarbuffalo.com/",
    "category": "Bar & Restaurant",
    "types": "bar, restaurant, point_of_interest, food, establishment"
  },
  {
    "place_id": "ChIJST3bDyIT04kR5AJH7kLsnA4",
    "name": "The Gypsy Parlor",
    "street_address": "376 Grant Street",
    "city": "Buffalo",
    "state": "NY",
    "zip_code": "14213",
    "latitude": 42.92417759999999,
    "longitude": -78.88999090000002,
    "website": "http://www.thegypsyparlor.com/",
    "category": "Bar & Restaurant",
    "types": "restaurant, night_club, bar, food, point_of_interest, establishment"
  },
  {
    "place_id": "ChIJSxS0plYS04kR5U1dUYMYG3I",
    "name": "Falley Allen",
    "street_address": "204 Allen Street",
    "city": "Buffalo",
    "state": "NY",
    "zip_code": "14201",
    "latitude": 42.8993871,
    "longitude": -78.8776436,
    "website": "http://www.falleyallen.com/",
    "category": "Bar & Restaurant",
    "types": "restaurant, bar, food, point_of_interest, establishment"
  },
  {
    "place_id": "ChIJPekFK1sF04kRMzfscrJkrXQ",
    "name": "Talty's Tavern",
    "street_address": "2056 South Park Avenue",
    "city": "Buffalo",
    "state": "NY",
    "zip_code": "14220",
    "latitude": 42.8427817,
    "longitude": -78.82346079999999,
    "website": null,
    "category": "Bar & Restaurant",
    "types": "bar, restaurant, food, point_of_interest, establishment"
  },
  {
    "place_id": "ChIJFdbo-NsS04kRV_f17ZG2zxc",
    "name": "Cole's",
    "street_address": "1104 Elmwood Avenue",
    "city": "Buffalo",
    "state": "NY",
    "zip_code": "14222",
    "latitude": 42.927331,
    "longitude": -78.8772113,
    "website": "http://coles-buffalo.com/",
    "category": "Bar & Restaurant",
    "types": "bar, restaurant, food, point_of_interest, establishment"
  },
  {
    "place_id": "ChIJv4rDHqsS04kRY0d54rMpzMc",
    "name": "Central Park Grill",
    "street_address": "2519 Main Street",
    "city": "Buffalo",
    "state": "NY",
    "zip_code": "14214",
    "latitude": 42.9366818,
    "longitude": -78.84146969999999,
    "website": null,
    "category": "Bar & Restaurant",
    "types": "bar, restaurant, food, point_of_interest, establishment"
  },
  {
    "place_id": "ChIJ0bjVkStt04kRQBC2c0-AAmY",
    "name": "Foundry Lounge",
    "street_address": "1738 Elmwood Avenue",
    "city": "Buffalo",
    "state": "NY",
    "zip_code": "14207",
    "latitude": 42.94491899999999,
    "longitude": -78.87861219999999,
    "website": "https://classiceventsbuffalo.com/foundry/",
    "category": "Bar & Restaurant",
    "types": "night_club, bar, restaurant, food, point_of_interest, establishment"
  },
  {
    "place_id": "ChIJMdVgqDdt04kR1VSHXHCceMo",
    "name": "The Public House of Buffalo",
    "street_address": "1206 Hertel Avenue",
    "city": "Buffalo",
    "state": "NY",
    "zip_code": "14216",
    "latitude": 42.94797699999999,
    "longitude": -78.8636077,
    "website": "http://www.publichousebuffalo.com/",
    "category": "Bar & Restaurant",
    "types": "bar, restaurant, food, point_of_interest, establishment"
  },
  {
    "place_id": "ChIJq1bAFC4T04kRuRVxem_h9Ug",
    "name": "Hot Mama's Canteen",
    "street_address": "12 Military Road",
    "city": "Buffalo",
    "state": "NY",
    "zip_code": "14207",
    "latitude": 42.9373573,
    "longitude": -78.8935219,
    "website": "http://www.hotmamascanteen.com/",
    "category": "Bar & Restaurant",
    "types": "bar, restaurant, point_of_interest, food, establishment"
  },
  {
    "place_id": "ChIJx4MulU9t04kR2yM69Cuq-kQ",
    "name": "The Wellington Pub",
    "street_address": "1541 Hertel Avenue",
    "city": "Buffalo",
    "state": "NY",
    "zip_code": "14216",
    "latitude": 42.94753300000001,
    "longitude": -78.85099,
    "website": "https://wellingtonpub.com/?utm_source=gmb&utm_medium=local&utm_campaign=gmb-traffic",
    "category": "Bar & Restaurant",
    "types": "restaurant, bar, food, point_of_interest, establishment"
  },
  {
    "place_id": "ChIJ57AgiVwT04kR9o6tm0o59wg",
    "name": "Days Park Tavern",
    "street_address": "253 Allen Street",
    "city": "Buffalo",
    "state": "NY",
    "zip_code": "14201",
    "latitude": 42.8995898,
    "longitude": -78.8794803,
    "website": "http://www.daysparktavern.com/",
    "category": "Bar & Restaurant",
    "types": "restaurant, bar, food, point_of_interest, establishment"
  },
  {
    "place_id": "ChIJuz0cdk9t04kR_mgMOJ5cor0",
    "name": "The Burning Buffalo Bar & Grill",
    "street_address": "1504 Hertel Avenue",
    "city": "Buffalo",
    "state": "NY",
    "zip_code": "14216",
    "latitude": 42.9478375,
    "longitude": -78.85247570000001,
    "website": "http://theburningbuffalo.com/",
    "category": "Bar & Restaurant",
    "types": "bar, restaurant, food, point_of_interest, establishment"
  },
  {
    "place_id": "ChIJAcWxEFQS04kRe7_0HT4MaPY",
    "name": "Billy Club",
    "street_address": "228 Allen Street",
    "city": "Buffalo",
    "state": "NY",
    "zip_code": "14201",
    "latitude": 42.8993798,
    "longitude": -78.8786178,
    "website": "http://billyclubbuffalo.com/",
    "category": "Bar & Restaurant",
    "types": "bar, restaurant, food, point_of_interest, establishment"
  },
  {
    "place_id": "ChIJb1eoVCoT04kR0QuGFtvBR3g",
    "name": "Casey's Black Rock",
    "street_address": "484 Amherst Street",
    "city": "Buffalo",
    "state": "NY",
    "zip_code": "14207",
    "latitude": 42.9396927,
    "longitude": -78.8864674,
    "website": "http://www.caseysblackrock.com/",
    "category": "Bar & Restaurant",
    "types": "bar, restaurant, food, point_of_interest, establishment"
  },
  {
    "place_id": "ChIJyx-XGeQS04kRWlSX0jHv2dA",
    "name": "Forty Thieves",
    "street_address": "727 Elmwood Avenue",
    "city": "Buffalo",
    "state": "NY",
    "zip_code": "14222",
    "latitude": 42.9169848,
    "longitude": -78.8768822,
    "website": "https://fortythieves716.com/",
    "category": "Bar & Restaurant",
    "types": "bar, restaurant, point_of_interest, food, establishment"
  },
  {
    "place_id": "ChIJxR3p_k9t04kRu-jswim72HI",
    "name": "Mike & Pop's Bistro & Tavern",
    "street_address": "3020 Delaware Avenue",
    "city": "Buffalo",
    "state": "NY",
    "zip_code": "14217",
    "latitude": 42.9665408,
    "longitude": -78.8707596,
    "website": "https://mikeandpops.com/?utm_source=google",
    "category": "Restaurant",
    "types": "restaurant, food, point_of_interest, establishment"
  },
  {
    "place_id": "ChIJWRNw5rQT04kRBcWZ3vnMEs8",
    "name": "Jack Rabbit",
    "street_address": "1010 Elmwood Avenue",
    "city": "Buffalo",
    "state": "NY",
    "zip_code": "14222",
    "latitude": 42.9247062,
    "longitude": -78.8773198,
    "website": "https://jackrabbitbuffalo.com/",
    "category": "Bar & Restaurant",
    "types": "bar, restaurant, food, point_of_interest, establishment"
  },
  {
    "place_id": "ChIJXZm3TQNt04kRvMwjs_SLcTg",
    "name": "North End Bar & Grill",
    "street_address": "2692 Elmwood Avenue",
    "city": "Kenmore",
    "state": "NY",
    "zip_code": "14217",
    "latitude": 42.97063849999999,
    "longitude": -78.8790435,
    "website": "http://northendbarandgrill.com/",
    "category": "Bar & Restaurant",
    "types": "restaurant, bar, food, point_of_interest, establishment"
  },
  {
    "place_id": "ChIJofwzykht04kRMlyRgu4OTN4",
    "name": "M\u00e9s Que",
    "street_address": "1420 Hertel Avenue",
    "city": "Buffalo",
    "state": "NY",
    "zip_code": "14216",
    "latitude": 42.947901,
    "longitude": -78.8554942,
    "website": "http://mesque.com/",
    "category": "Bar & Restaurant",
    "types": "bar, restaurant, food, point_of_interest, establishment"
  },
  {
    "place_id": "ChIJVaM7noNt04kR6AXezZmzgoI",
    "name": "Caputi's Sheridan Pub",
    "street_address": "2351 Sheridan Drive",
    "city": "Tonawanda",
    "state": "NY",
    "zip_code": "14150",
    "latitude": 42.9804312,
    "longitude": -78.84679129999999,
    "website": "http://www.caputispub.com/",
    "category": "Bar & Restaurant",
    "types": "bar, restaurant, food, point_of_interest, establishment"
  },
  {
    "place_id": "ChIJafQEj5Bt04kRn_FUS8LX0ho",
    "name": "GFY Bar and Grill",
    "street_address": "1866 Colvin Boulevard",
    "city": "Tonawanda",
    "state": "NY",
    "zip_code": "14150",
    "latitude": 42.98840060000001,
    "longitude": -78.8532724,
    "website": "https://gfy.bar/",
    "category": "Bar & Restaurant",
    "types": "bar, restaurant, food, point_of_interest, establishment"
  },
  {
    "place_id": "ChIJeRMAVN0T04kRZJWpJ3pnZaw",
    "name": "The Beer Keep",
    "street_address": "1002 Elmwood Avenue",
    "city": "Buffalo",
    "state": "NY",
    "zip_code": "14222",
    "latitude": 42.9244121,
    "longitude": -78.8772401,
    "website": "http://www.thebeerkeep.com/",
    "category": "Bar & Restaurant",
    "types": "restaurant, liquor_store, bar, store, food, point_of_interest, establishment"
  },
  {
    "place_id": "ChIJ47eXd80T04kRxac6Xeqn-O4",
    "name": "High Violet",
    "street_address": "710 Elmwood Avenue",
    "city": "Buffalo",
    "state": "NY",
    "zip_code": "14222",
    "latitude": 42.9164887,
    "longitude": -78.8773818,
    "website": "https://barhighviolet.com/",
    "category": "Bar & Restaurant",
    "types": "bar, restaurant, food, point_of_interest, establishment"
  },
  {
    "place_id": "ChIJTey5W-cS04kR-CBeUIAtg08",
    "name": "JT\u2019s Urban Italian",
    "street_address": "905 Elmwood Avenue",
    "city": "Buffalo",
    "state": "NY",
    "zip_code": "14222",
    "latitude": 42.9218533,
    "longitude": -78.8768236,
    "website": "https://www.jtsbuffalo.com/?y_source=1_OTE5NTA4Ni03MTUtbG9jYXRpb24ud2Vic2l0ZQ%3D%3D",
    "category": "Restaurant",
    "types": "restaurant, food, point_of_interest, establishment"
  },
  {
    "place_id": "ChIJ5VnBbVcS04kRaNbZtrTHeJc",
    "name": "Colter Bay",
    "street_address": "561 Delaware Avenue",
    "city": "Buffalo",
    "state": "NY",
    "zip_code": "14202",
    "latitude": 42.899546,
    "longitude": -78.8736935,
    "website": "https://colterbaybuffalo.com/",
    "category": "Bar & Restaurant",
    "types": "bar, restaurant, food, point_of_interest, establishment"
  },
  {
    "place_id": "ChIJAzRndINt04kRO-KZItIoEJ0",
    "name": "Devlin's Deuce",
    "street_address": "2335 Sheridan Drive",
    "city": "Tonawanda",
    "state": "NY",
    "zip_code": "14150",
    "latitude": 42.980545,
    "longitude": -78.8474044,
    "website": "https://m.facebook.com/pages/category/Bar/Devlins-Deuce-135752566502924/",
    "category": "Bar & Restaurant",
    "types": "bar, restaurant, food, point_of_interest, establishment"
  },
  {
    "place_id": "ChIJNf2Yz1sS04kRrQE9WrVzg10",
    "name": "Ulrich's 1868 Tavern",
    "street_address": "674 Ellicott Street",
    "city": "Buffalo",
    "state": "NY",
    "zip_code": "14203",
    "latitude": 42.8966978,
    "longitude": -78.86854029999999,
    "website": "https://ulrichs1868tavern.com/",
    "category": "Bar & Restaurant",
    "types": "bar, restaurant, food, point_of_interest, establishment"
  },
  {
    "place_id": "ChIJWcQUWyUS04kRgcgF_bU06XQ",
    "name": "Ballyhoo",
    "street_address": "211 South Park Avenue",
    "city": "Buffalo",
    "state": "NY",
    "zip_code": "14204",
    "latitude": 42.87282099999999,
    "longitude": -78.87164159999999,
    "website": "http://buffaloballyhoo.com/",
    "category": "Bar & Restaurant",
    "types": "bar, restaurant, food, point_of_interest, establishment"
  },
  {
    "place_id": "ChIJz7kaptoT04kR62CohG6XAvI",
    "name": "Graylynn",
    "street_address": "537 Main Street",
    "city": "Buffalo",
    "state": "NY",
    "zip_code": "14203",
    "latitude": 42.8881913,
    "longitude": -78.87335410000001,
    "website": "http://www.graylynnginbar.com/",
    "category": "Restaurant",
    "types": "restaurant, food, point_of_interest, establishment"
  },
  {
    "place_id": "ChIJ39-AfnQT04kR3F1_yAN-1uo",
    "name": "Southsides Patio Bar & Grill",
    "street_address": "80 Niagara Boulevard",
    "city": "Fort Erie",
    "state": "ON",
    "zip_code": "L2A 3G3",
    "latitude": 42.91070879999999,
    "longitude": -78.9091004,
    "website": "https://facebook.com/southsidesforterie/",
    "category": "Bar & Restaurant",
    "types": "bar, restaurant, food, point_of_interest, establishment"
  },
  {
    "place_id": "ChIJbwtv1EgS04kRqM9IL_YxEn4",
    "name": "Lucky Day Whiskey Bar",
    "street_address": "320 Pearl Street",
    "city": "Buffalo",
    "state": "NY",
    "zip_code": "14202",
    "latitude": 42.8881765,
    "longitude": -78.8749567,
    "website": "http://www.luckydaywhiskeybar.com/",
    "category": "Bar & Restaurant",
    "types": "restaurant, bar, food, point_of_interest, establishment"
  },
  {
    "place_id": "ChIJebHEFFQS04kRN5zTATVSXu8",
    "name": "Allen St Hardware Cafe",
    "street_address": "245 Allen Street",
    "city": "Buffalo",
    "state": "NY",
    "zip_code": "14201",
    "latitude": 42.8995737,
    "longitude": -78.8792397,
    "website": "http://www.allenstreethardware.com/",
    "category": "Bar & Restaurant",
    "types": "restaurant, bar, point_of_interest, food, establishment"
  },
  {
    "place_id": "ChIJW9jYu_0N04kRX1Cyk5tH67I",
    "name": "Jukebox Bar & Grill",
    "street_address": "1738 William Street",
    "city": "Buffalo",
    "state": "NY",
    "zip_code": "14206",
    "latitude": 42.8848096,
    "longitude": -78.80648780000001,
    "website": null,
    "category": "Restaurant",
    "types": "restaurant, food, point_of_interest, establishment"
  },
  {
    "place_id": "ChIJJwIGrnJt04kR5Tq6kaUQDyg",
    "name": "Porter's Place Sports Bar",
    "street_address": "1641 Military Road",
    "city": "Buffalo",
    "state": "NY",
    "zip_code": "14217",
    "latitude": 42.98191729999999,
    "longitude": -78.88484009999999,
    "website": null,
    "category": "Bar & Restaurant",
    "types": "bar, restaurant, food, point_of_interest, establishment"
  },
  {
    "place_id": "ChIJZ1BYKgZt04kRnWEA8Idy9ug",
    "name": "The Delaware Pub & Grill",
    "street_address": "3410 Delaware Avenue",
    "city": "Kenmore",
    "state": "NY",
    "zip_code": "14217",
    "latitude": 42.976976,
    "longitude": -78.87235799999999,
    "website": "https://delawarepubandgrill.com/?utm_source=google",
    "category": "Bar & Restaurant",
    "types": "bar, restaurant, food, point_of_interest, establishment"
  },
  {
    "place_id": "ChIJ7RbFAipt04kRLfgxvX_0OAk",
    "name": "M.T. Pockets Bar & Grill",
    "street_address": "1519 Hertel Avenue",
    "city": "Buffalo",
    "state": "NY",
    "zip_code": "14216",
    "latitude": 42.9475207,
    "longitude": -78.8517816,
    "website": "http://www.mtpockets.com/",
    "category": "Bar & Restaurant",
    "types": "bar, restaurant, food, point_of_interest, establishment"
  },
  {
    "place_id": "ChIJw52SVfNs04kR0dYuGW64OpM",
    "name": "Mitchell's Tavern",
    "street_address": "734 Sheridan Drive",
    "city": "Tonawanda",
    "state": "NY",
    "zip_code": "14150",
    "latitude": 42.978271,
    "longitude": -78.9059455,
    "website": "https://mitchellstavern.com/",
    "category": "Bar & Restaurant",
    "types": "bar, restaurant, food, point_of_interest, establishment"
  },
  {
    "place_id": "ChIJq6pa1DZt04kRvj8pmYD3zZU",
    "name": "The Garage Bar & Restaurant",
    "street_address": "1127 Hertel Avenue",
    "city": "Buffalo",
    "state": "NY",
    "zip_code": "14216",
    "latitude": 42.9475343,
    "longitude": -78.8663577,
    "website": "https://garagebarrestaurant.com/",
    "category": "Bar & Restaurant",
    "types": "restaurant, bar, food, point_of_interest, establishment"
  },
  {
    "place_id": "ChIJ6x9-mClt04kR3EqN20kbYrI",
    "name": "Roaming Bison Tavern",
    "street_address": "732 Hertel Avenue",
    "city": "Buffalo",
    "state": "NY",
    "zip_code": "14207",
    "latitude": 42.9479581,
    "longitude": -78.8812942,
    "website": "http://www.rbtbbq.com/",
    "category": "Bar & Restaurant",
    "types": "bar, restaurant, food, point_of_interest, establishment"
  },
  {
    "place_id": "ChIJYed3oEBy04kRTlStjgkUdYI",
    "name": "Brick House Tavern + Tap",
    "street_address": "4120 Maple Road",
    "city": "Buffalo",
    "state": "NY",
    "zip_code": "14226",
    "latitude": 42.9913389,
    "longitude": -78.8110779,
    "website": "https://www.brickhousetavernandtap.com/location/brick-house-tavern-and-tap-amherst-ny/",
    "category": "Bar & Restaurant",
    "types": "bar, restaurant, food, point_of_interest, establishment"
  },
  {
    "place_id": "ChIJqX-DNTFy04kRD8_SQTKdpzU",
    "name": "Blue Bull Tavern",
    "street_address": "1300 Sweet Home Road",
    "city": "Buffalo",
    "state": "NY",
    "zip_code": "14228",
    "latitude": 42.9972054,
    "longitude": -78.8008167,
    "website": "http://www.bluebulltavern.com/",
    "category": "Bar & Restaurant",
    "types": "bar, restaurant, food, point_of_interest, establishment"
  },
  {
    "place_id": "ChIJa1jrHLVz04kRU6ShDtd5OeY",
    "name": "BlueFire Bar & Grille",
    "street_address": "1340 Millersport Highway",
    "city": "Buffalo",
    "state": "NY",
    "zip_code": "14221",
    "latitude": 42.98841849999999,
    "longitude": -78.7928945,
    "website": "https://www.marriott.com/en-us/hotels/bufny-buffalo-marriott-niagara/dining/?scid=feed67b0-9a2f-4de1-8df6-114544116108",
    "category": "Bar & Restaurant",
    "types": "bar, restaurant, point_of_interest, food, establishment"
  },
  {
    "place_id": "ChIJtT5_iE4S04kRbQrydvtzEtE",
    "name": "Bada Bing",
    "street_address": "42 West Chippewa Street",
    "city": "Buffalo",
    "state": "NY",
    "zip_code": "14202",
    "latitude": 42.8902295,
    "longitude": -78.8746008,
    "website": "http://www.badabingbuffalo.com/",
    "category": "Bar & Restaurant",
    "types": "bar, restaurant, food, point_of_interest, establishment"
  },
  {
    "place_id": "ChIJb9wNtXxu04kRy-3hy1Rqk50",
    "name": "Betty's Grill",
    "street_address": "215 Main Street",
    "city": "North Tonawanda",
    "state": "NY",
    "zip_code": "14120",
    "latitude": 43.0282303,
    "longitude": -78.8791194,
    "website": null,
    "category": "Bar & Restaurant",
    "types": "bar, restaurant, food, point_of_interest, establishment"
  },
  {
    "place_id": "ChIJISL265lv04kRrEAXp7j3FRE",
    "name": "Buffalo Wings & Brewhouse",
    "street_address": "653 Oliver Street",
    "city": "North Tonawanda",
    "state": "NY",
    "zip_code": "14120",
    "latitude": 43.0399658,
    "longitude": -78.8798657,
    "website": "http://buffalowingsandbrewhouse.com/",
    "category": "Bar & Restaurant",
    "types": "bar, restaurant, food, point_of_interest, establishment"
  },
  {
    "place_id": "ChIJjdc_h1hu04kRcIpl2nav8q0",
    "name": "Village Inn",
    "street_address": "869 Oliver Street",
    "city": "North Tonawanda",
    "state": "NY",
    "zip_code": "14120",
    "latitude": 43.0453759,
    "longitude": -78.88321080000001,
    "website": null,
    "category": "Bar & Restaurant",
    "types": "bar, restaurant, food, point_of_interest, establishment"
  },
  {
    "place_id": "ChIJG4tAlvBu04kRJUiNMN7LG90",
    "name": "LumberJack's Patio Grill",
    "street_address": "1000 River Road",
    "city": "North Tonawanda",
    "state": "NY",
    "zip_code": "14120",
    "latitude": 43.0478273,
    "longitude": -78.8921032,
    "website": null,
    "category": "Bar & Restaurant",
    "types": "bar, restaurant, point_of_interest, food, establishment"
  },
  {
    "place_id": "ChIJTeTX_ntu04kR0-iU2RBOSbY",
    "name": "Canal Club 62",
    "street_address": "62 Webster Street",
    "city": "North Tonawanda",
    "state": "NY",
    "zip_code": "14120",
    "latitude": 43.0236097,
    "longitude": -78.87772129999999,
    "website": "http://canalclub62.com/",
    "category": "Bar & Restaurant",
    "types": "restaurant, bar, food, point_of_interest, establishment"
  },
  {
    "place_id": "ChIJXdlQ__xt04kRgJTzjQ4x7dE",
    "name": "Raintree Bar and Grill",
    "street_address": "2970 Colvin Boulevard",
    "city": "Tonawanda",
    "state": "NY",
    "zip_code": "14150",
    "latitude": 43.014518,
    "longitude": -78.84776959999999,
    "website": "http://www.raintreebar.com/",
    "category": "Bar & Restaurant",
    "types": "bar, restaurant, food, point_of_interest, establishment"
  },
  {
    "place_id": "ChIJo9lrkt5x04kRCJtRUK9XUy0",
    "name": "1818 Bar & Grill",
    "street_address": "1818 Sweeney Street",
    "city": "North Tonawanda",
    "state": "NY",
    "zip_code": "14120",
    "latitude": 43.03906790000001,
    "longitude": -78.8304337,
    "website": "https://1818bargrill.com/",
    "category": "Restaurant",
    "types": "restaurant, food, point_of_interest, establishment"
  },
  {
    "place_id": "ChIJ3dJ2xjtt04kRk1_H_thLlew",
    "name": "290 Slide, Sports Bar & Grill",
    "street_address": "3191 Eggert Road",
    "city": "Tonawanda",
    "state": "NY",
    "zip_code": "14150",
    "latitude": 42.99787740000001,
    "longitude": -78.8503559,
    "website": null,
    "category": "Bar & Restaurant",
    "types": "bar, restaurant, point_of_interest, food, establishment"
  },
  {
    "place_id": "ChIJISmx1Jxv04kRQsy_fysnR-0",
    "name": "Woodcock Brothers Brewery",
    "street_address": "908 Niagara Falls Boulevard",
    "city": "North Tonawanda",
    "state": "NY",
    "zip_code": "14120",
    "latitude": 43.0620251,
    "longitude": -78.8428864,
    "website": "http://woodcockbrothersbrewery.com/",
    "category": "Bar & Restaurant",
    "types": "bar, restaurant, food, point_of_interest, establishment"
  },
  {
    "place_id": "ChIJmzLz1DBt04kRB8VDRc3W55g",
    "name": "Joey's Place Restaurant & Bar",
    "street_address": "83 Niagara Street",
    "city": "Tonawanda",
    "state": "NY",
    "zip_code": "14150",
    "latitude": 43.0197987,
    "longitude": -78.8813553,
    "website": "https://joeysplacerestaurant.com/",
    "category": "Bar & Restaurant",
    "types": "restaurant, bar, food, point_of_interest, establishment"
  },
  {
    "place_id": "ChIJ62sYVgF004kRNEGutOowySc",
    "name": "Libation Station",
    "street_address": "134 Plaza Drive",
    "city": "Buffalo",
    "state": "NY",
    "zip_code": "14221",
    "latitude": 43.0012332,
    "longitude": -78.74076079999999,
    "website": "https://m.facebook.com/pages/category/Transit-Hub/Libation-Station-141701359230682/",
    "category": "Bar & Restaurant",
    "types": "bar, restaurant, food, point_of_interest, establishment"
  },
  {
    "place_id": "ChIJqfz-u60M04kRf67M7rdibVU",
    "name": "The 33 Speakeasy Grill",
    "street_address": "3455 Genesee Street",
    "city": "Cheektowaga",
    "state": "NY",
    "zip_code": "14225",
    "latitude": 42.926241,
    "longitude": -78.757125,
    "website": "http://33speakeasy.com/",
    "category": "Bar & Restaurant",
    "types": "bar, restaurant, food, point_of_interest, establishment"
  },
  {
    "place_id": "ChIJq0ApyKt104kRFB-K_6R9rRg",
    "name": "Buffalo Brewpub",
    "street_address": "6861 Main Street",
    "city": "Williamsville",
    "state": "NY",
    "zip_code": "14221",
    "latitude": 42.9649766,
    "longitude": -78.69793779999999,
    "website": "http://www.buffalobrewpub.com/",
    "category": "Bar & Restaurant",
    "types": "bar, restaurant, food, point_of_interest, establishment"
  },
  {
    "place_id": "ChIJ0bmoZYF004kR2twFi1bTRCE",
    "name": "The Irishman Pub and Eatery",
    "street_address": "5601 Main Street",
    "city": "Williamsville",
    "state": "NY",
    "zip_code": "14221",
    "latitude": 42.9626428,
    "longitude": -78.7441394,
    "website": "http://www.irishmanpub.com/",
    "category": "Bar & Restaurant",
    "types": "bar, restaurant, food, point_of_interest, establishment"
  },
  {
    "place_id": "ChIJZ79qQzlz04kRCX1nyb6ALLg",
    "name": "Neighbors Sports Bar & Grill",
    "street_address": "659 Cleveland Drive",
    "city": "Cheektowaga",
    "state": "NY",
    "zip_code": "14225",
    "latitude": 42.9447002,
    "longitude": -78.7751783,
    "website": null,
    "category": "Bar & Restaurant",
    "types": "bar, restaurant, food, point_of_interest, establishment"
  },
  {
    "place_id": "ChIJUSla08t104kRhnMZHea_7iY",
    "name": "Keglers Sports Lounge",
    "street_address": "7850 Transit Road",
    "city": "Williamsville",
    "state": "NY",
    "zip_code": "14221",
    "latitude": 42.9820443,
    "longitude": -78.6979104,
    "website": null,
    "category": "Bar & Restaurant",
    "types": "bar, restaurant, food, point_of_interest, establishment"
  },
  {
    "place_id": "ChIJv5MAqNsM04kR8KFLHkEb4Vc",
    "name": "Rafferty's Irish Pub",
    "street_address": "2794 Harlem Road",
    "city": "Buffalo",
    "state": "NY",
    "zip_code": "14225",
    "latitude": 42.9197658,
    "longitude": -78.78454690000001,
    "website": null,
    "category": "Bar & Restaurant",
    "types": "bar, restaurant, food, point_of_interest, establishment"
  },
  {
    "place_id": "ChIJ9c9MJMR104kRDrj7HJV7flQ",
    "name": "Two Nines Kitchen and Bar",
    "street_address": "8230 Wehrle Drive",
    "city": "Williamsville",
    "state": "NY",
    "zip_code": "14221",
    "latitude": 42.9570037,
    "longitude": -78.6886272,
    "website": "https://twonineskitchenbar.com/?utm_source=google",
    "category": "Restaurant",
    "types": "restaurant, food, point_of_interest, establishment"
  },
  {
    "place_id": "ChIJTZrs4LMM04kRq43kwD6nvb0",
    "name": "Crabapples",
    "street_address": "3298 Genesee Street",
    "city": "Buffalo",
    "state": "NY",
    "zip_code": "14225",
    "latitude": 42.9257644,
    "longitude": -78.7633894,
    "website": null,
    "category": "Bar & Restaurant",
    "types": "bar, restaurant, food, point_of_interest, establishment"
  },
  {
    "place_id": "ChIJXXuZA7R104kRoCJcG7rCKDY",
    "name": "Anchor Bar",
    "street_address": "6635 Transit Road",
    "city": "Williamsville",
    "state": "NY",
    "zip_code": "14221",
    "latitude": 42.94883160000001,
    "longitude": -78.6962733,
    "website": "https://www.anchorbar.com/Williamsville",
    "category": "Bar & Restaurant",
    "types": "restaurant, meal_takeaway, bar, food, point_of_interest, establishment"
  },
  {
    "place_id": "ChIJHSHG-H1z04kRuwYMcRSrDZs",
    "name": "Glen Park Tavern",
    "street_address": "5507 Main Street",
    "city": "Williamsville",
    "state": "NY",
    "zip_code": "14221",
    "latitude": 42.9620959,
    "longitude": -78.747744,
    "website": "https://glenparktavern.com/",
    "category": "Restaurant",
    "types": "restaurant, food, point_of_interest, establishment"
  },
  {
    "place_id": "ChIJp4C1OkB304kR-Pxs3eGB7FU",
    "name": "Duke's Tavern",
    "street_address": "5841 Transit Road",
    "city": "East Amherst",
    "state": "NY",
    "zip_code": "14051",
    "latitude": 43.0079027,
    "longitude": -78.6962207,
    "website": "https://dukesbuffalo.com/?utm_source=google",
    "category": "Restaurant",
    "types": "restaurant, point_of_interest, food, establishment"
  },
  {
    "place_id": "ChIJF7P9tJ9004kRC8Fp8XNvan4",
    "name": "Champions Sports Bar & Grill",
    "street_address": "1042 Wehrle Drive",
    "city": "Buffalo",
    "state": "NY",
    "zip_code": "14221",
    "latitude": 42.9500961,
    "longitude": -78.74604029999999,
    "website": "https://www.orderchampions.com/",
    "category": "Bar & Restaurant",
    "types": "bar, restaurant, food, point_of_interest, establishment"
  },
  {
    "place_id": "ChIJzy4zHWhz04kRX6B9MDUp53M",
    "name": "McPartlan's Corner Inc",
    "street_address": "669 Wehrle Drive",
    "city": "Buffalo",
    "state": "NY",
    "zip_code": "14225",
    "latitude": 42.949363,
    "longitude": -78.7595809,
    "website": "https://www.facebook.com/mcpartlanscorner/",
    "category": "Restaurant",
    "types": "restaurant, food, point_of_interest, establishment"
  },
  {
    "place_id": "ChIJQ6q0FNt104kR315cW4Jk4fQ",
    "name": "Bar-Bill North",
    "street_address": "8326 Main Street",
    "city": "Williamsville",
    "state": "NY",
    "zip_code": "14221",
    "latitude": 42.96528069999999,
    "longitude": -78.6839364,
    "website": "http://www.barbill.com/",
    "category": "Restaurant",
    "types": "restaurant, food, point_of_interest, establishment"
  },
  {
    "place_id": "ChIJPQ6AXFxz04kRFg57SqcfIPc",
    "name": "RationAles",
    "street_address": "5444 Main Street",
    "city": "Williamsville",
    "state": "NY",
    "zip_code": "14221",
    "latitude": 42.96228139999999,
    "longitude": -78.75022469999999,
    "website": "http://www.rationales.beer/",
    "category": "Bar & Restaurant",
    "types": "restaurant, bar, meal_takeaway, food, point_of_interest, establishment"
  },
  {
    "place_id": "ChIJn1t8if1004kRyYLxaBRkyJM",
    "name": "Angry Buffalo @ The Rose Garden",
    "street_address": "2753 Wehrle Drive",
    "city": "Williamsville",
    "state": "NY",
    "zip_code": "14221",
    "latitude": 42.9561397,
    "longitude": -78.6843837,
    "website": "http://www.angrybuffalo.com/",
    "category": "Bar & Restaurant",
    "types": "restaurant, bar, food, point_of_interest, establishment"
  },
  {
    "place_id": "ChIJn3c6Hblz04kRxmyG5h7KYbw",
    "name": "Forno Napoli Pizza & Italian Restaurant",
    "street_address": "1280 Sweet Home Road",
    "city": "Buffalo",
    "state": "NY",
    "zip_code": "14228",
    "latitude": 42.9967053,
    "longitude": -78.8008621,
    "website": "http://fornonapoliny.com/",
    "category": "Restaurant",
    "types": "meal_delivery, meal_takeaway, restaurant, food, point_of_interest, establishment"
  },
  {
    "place_id": "ChIJM1iGiP1104kRamDU1JlMgV8",
    "name": "Cielito Lindo Taqueria",
    "street_address": "4125 Transit Road",
    "city": "Williamsville",
    "state": "NY",
    "zip_code": "14221",
    "latitude": 42.9597247,
    "longitude": -78.6964138,
    "website": "https://www.cielitolindobuffalo.net/",
    "category": "Restaurant",
    "types": "restaurant, food, point_of_interest, establishment"
  },
  {
    "place_id": "ChIJB0G3L7B104kR4j28pEvmNLw",
    "name": "The Cheesy Chick Cafe",
    "street_address": "5385 Main Street",
    "city": "Williamsville",
    "state": "NY",
    "zip_code": "14221",
    "latitude": 42.9610438,
    "longitude": -78.7521983,
    "website": "https://thecheesychickbuffalo.com/index.html",
    "category": "Restaurant",
    "types": "restaurant, food, point_of_interest, establishment"
  },
  {
    "place_id": "ChIJKxNo6cF104kRLdpAQRwo81w",
    "name": "Britesmith Brewing - Williamsville",
    "street_address": "5611 Main Street",
    "city": "Williamsville",
    "state": "NY",
    "zip_code": "14221",
    "latitude": 42.9627208,
    "longitude": -78.7436134,
    "website": "https://britesmithbrewing.com/",
    "category": "Restaurant",
    "types": "restaurant, food, point_of_interest, establishment"
  },
  {
    "place_id": "ChIJcWjQlCJz04kRNQaVNTaRgpg",
    "name": "Snyder Bar and Grill",
    "street_address": "2067 Kensington Avenue",
    "city": "Buffalo",
    "state": "NY",
    "zip_code": "14226",
    "latitude": 42.9504944,
    "longitude": -78.7822944,
    "website": "http://www.sbgbuffalo.com/",
    "category": "Bar & Restaurant",
    "types": "bar, restaurant, food, point_of_interest, establishment"
  },
  {
    "place_id": "ChIJLTUskkgL04kR2pEJkKWdxbk",
    "name": "Deniro's Pizzeria",
    "street_address": "2251 George Urban Boulevard",
    "city": "Depew",
    "state": "NY",
    "zip_code": "14043",
    "latitude": 42.9182983,
    "longitude": -78.7286596,
    "website": "https://www.denirospizzeriamenu.com/?utm_source=gbp",
    "category": "Restaurant",
    "types": "restaurant, food, point_of_interest, establishment"
  },
  {
    "place_id": "ChIJc86-ps5104kRdnOpziwBY5Q",
    "name": "Neat",
    "street_address": "5175 Transit Road",
    "city": "Buffalo",
    "state": "NY",
    "zip_code": "14221",
    "latitude": 42.9867753,
    "longitude": -78.69632349999999,
    "website": "http://neatbuffalo.com/",
    "category": "Bar & Restaurant",
    "types": "restaurant, bar, food, point_of_interest, establishment"
  },
  {
    "place_id": "ChIJm__iH3F004kRwvqMOqzcIp0",
    "name": "Romeo & Juliet\u2019s Caff\u00e8",
    "street_address": "5199 Sheridan Drive",
    "city": "Buffalo",
    "state": "NY",
    "zip_code": "14221",
    "latitude": 42.97816290000001,
    "longitude": -78.74049649999999,
    "website": "https://weborder.swipeby.net/RomeoJulietsCafe/",
    "category": "Restaurant",
    "types": "restaurant, food, point_of_interest, establishment"
  },
  {
    "place_id": "ChIJ277rdIF004kRmLF2vFPw95Y",
    "name": "Share Kitchen & Bar Room",
    "street_address": "5590 Main Street",
    "city": "Williamsville",
    "state": "NY",
    "zip_code": "14221",
    "latitude": 42.96310390000001,
    "longitude": -78.7445384,
    "website": "http://sharekbr.com/",
    "category": "Bar & Restaurant",
    "types": "bar, restaurant, food, point_of_interest, establishment"
  },
  {
    "place_id": "ChIJ9fzAEEhy04kRzr8MXOZdmFA",
    "name": "Anchor Bar",
    "street_address": "4300 Maple Road",
    "city": "Buffalo",
    "state": "NY",
    "zip_code": "14226",
    "latitude": 42.99116799999999,
    "longitude": -78.80312839999999,
    "website": "https://www.anchorbar.com/amherst",
    "category": "Bar & Restaurant",
    "types": "restaurant, bar, food, point_of_interest, establishment"
  },
  {
    "place_id": "ChIJhaTl27B004kRhzKfA41w6V8",
    "name": "Anchor Bar",
    "street_address": "4200 Genesee Street",
    "city": "Cheektowaga",
    "state": "NY",
    "zip_code": "14225",
    "latitude": 42.93476969999999,
    "longitude": -78.7316335,
    "website": "http://www.anchorbar.com/airport",
    "category": "Bar & Restaurant",
    "types": "bar, restaurant, food, point_of_interest, establishment"
  },
  {
    "place_id": "ChIJn-YY3Fx104kRQ8R2u3-oRK8",
    "name": "Sto Lat Bar & Restaurant",
    "street_address": "4475 Transit Road",
    "city": "Buffalo",
    "state": "NY",
    "zip_code": "14221",
    "latitude": 42.9694167,
    "longitude": -78.6941856,
    "website": "http://stolatbar.com/",
    "category": "Bar & Restaurant",
    "types": "restaurant, bar, food, point_of_interest, establishment"
  },
  {
    "place_id": "ChIJmcLXUYZ004kRX9EXnGpRG9w",
    "name": "Sun Cuisines",
    "street_address": "5759 Main Street",
    "city": "Williamsville",
    "state": "NY",
    "zip_code": "14221",
    "latitude": 42.9636625,
    "longitude": -78.7384253,
    "website": "https://suncuisines.com/",
    "category": "Restaurant",
    "types": "restaurant, food, point_of_interest, establishment"
  },
  {
    "place_id": "ChIJqQGbBMx104kRm0-rtcTS0VQ",
    "name": "Pizza Plant Italian Pub - Williamsville",
    "street_address": "7770 Transit Road",
    "city": "Williamsville",
    "state": "NY",
    "zip_code": "14221",
    "latitude": 42.979566,
    "longitude": -78.69756509999999,
    "website": "http://www.pizzaplant.com/",
    "category": "Bar & Restaurant",
    "types": "meal_takeaway, bar, restaurant, food, point_of_interest, establishment"
  },
  {
    "place_id": "ChIJf5mHANFz04kRlrV-TbRF_jo",
    "name": "Chick Mex Halal Food",
    "street_address": "520 Lee Road",
    "city": "Buffalo",
    "state": "NY",
    "zip_code": "14228",
    "latitude": 43.0021334,
    "longitude": -78.7846639,
    "website": null,
    "category": "Restaurant",
    "types": "restaurant, food, point_of_interest, establishment"
  },
  {
    "place_id": "ChIJn2Wp_LV104kR5rMvKtV32vg",
    "name": "Santora's Pizza Pub & Grill",
    "street_address": "7800 Transit Road",
    "city": "Williamsville",
    "state": "NY",
    "zip_code": "14221",
    "latitude": 42.9805636,
    "longitude": -78.6978183,
    "website": "https://www.santoras.com/",
    "category": "Bar & Restaurant",
    "types": "bar, restaurant, food, point_of_interest, establishment"
  },
  {
    "place_id": "ChIJxZcEtnFz04kRMzWCJjRb3-U",
    "name": "Giancarlo\u2019s Sicilian Steakhouse",
    "street_address": "5110 Main Street",
    "city": "Williamsville",
    "state": "NY",
    "zip_code": "14221",
    "latitude": 42.9612949,
    "longitude": -78.7617301,
    "website": "https://www.giancarlossteakhouse.com/?y_source=1_MTgxODAwOTktNzE1LWxvY2F0aW9uLndlYnNpdGU=",
    "category": "Restaurant",
    "types": "restaurant, food, point_of_interest, establishment"
  },
  {
    "place_id": "ChIJHbqAm4F004kRDGCpXm1QDaM",
    "name": "Eagle House Restaurant",
    "street_address": "5578 Main Street",
    "city": "Williamsville",
    "state": "NY",
    "zip_code": "14221",
    "latitude": 42.963021,
    "longitude": -78.7451432,
    "website": "http://eaglehouseonline.com/",
    "category": "Bar & Restaurant",
    "types": "bar, restaurant, food, point_of_interest, establishment"
  },
  {
    "place_id": "ChIJWeVLv4l004kRFJhTGMEruXU",
    "name": "lloyd Taco Factory",
    "street_address": "5933 Main Street",
    "city": "Williamsville",
    "state": "NY",
    "zip_code": "14221",
    "latitude": 42.96476190000001,
    "longitude": -78.73211069999999,
    "website": "https://whereslloyd.com/?utm_source=Google%20My%20Business&utm_medium=Homepage%20Williamsville/website&utm_campaign=Willie_homepage",
    "category": "Bar & Restaurant",
    "types": "bar, restaurant, food, point_of_interest, establishment"
  },
  {
    "place_id": "ChIJ06xyd8oN04kRGUoJu532mSo",
    "name": "Pubski Pub",
    "street_address": "2437 William Street",
    "city": "Cheektowaga",
    "state": "NY",
    "zip_code": "14206",
    "latitude": 42.884125,
    "longitude": -78.78041739999999,
    "website": "https://pubskipub.com/",
    "category": "Bar & Restaurant",
    "types": "bar, restaurant, food, point_of_interest, establishment"
  },
  {
    "place_id": "ChIJgXTNvbUL04kResAXv_OBGuo",
    "name": "French Pub",
    "street_address": "1250 French Road",
    "city": "Depew",
    "state": "NY",
    "zip_code": "14043",
    "latitude": 42.8682745,
    "longitude": -78.7061015,
    "website": "https://www.frenchpub.com/",
    "category": "Restaurant",
    "types": "restaurant, food, point_of_interest, establishment"
  },
  {
    "place_id": "ChIJU5qqYhsN04kRNURMBBhv-AM",
    "name": "Papa Joe's Sports Bar & Grill",
    "street_address": "1011 Walden Avenue",
    "city": "Buffalo",
    "state": "NY",
    "zip_code": "14211",
    "latitude": 42.90666809999999,
    "longitude": -78.7986324,
    "website": null,
    "category": "Bar & Restaurant",
    "types": "bar, restaurant, food, point_of_interest, establishment"
  },
  {
    "place_id": "ChIJB4L9WqUN04kRqlb5dZZ0efs",
    "name": "Willie's",
    "street_address": "247 Ludington Street",
    "city": "Buffalo",
    "state": "NY",
    "zip_code": "14206",
    "latitude": 42.8871451,
    "longitude": -78.8048654,
    "website": null,
    "category": "Bar & Restaurant",
    "types": "bar, restaurant, food, point_of_interest, establishment"
  },
  {
    "place_id": "ChIJCSB03jUK04kRXlG0WWYhpec",
    "name": "Transit Music Lounge",
    "street_address": "4723 Transit Road",
    "city": "Depew",
    "state": "NY",
    "zip_code": "14043",
    "latitude": 42.8645818,
    "longitude": -78.6957436,
    "website": "http://www.transitmusiclounge.com/",
    "category": "Bar & Restaurant",
    "types": "bar, restaurant, food, point_of_interest, establishment"
  }
]