[
  {
    "place_id": "ChIJ13muzCWGs4kRsN2z4eq3h58",
    "name": "Miller's Downtown",
    "street_address": "109 West Main Street",
    "city": "Charlottesville",
    "state": "VA",
    "zip_code": "22902",
    "latitude": 38.030985,
    "longitude": -78.481796,
    "website": "http://www.millersdowntown.com/",
    "category": "Bar & Restaurant",
    "types": "restaurant, bar, food, point_of_interest, establishment"
  },
  {
    "place_id": "ChIJDY-cpiWGs4kRt7nb0xLMBX8",
    "name": "The Livery Stable (LWs)",
    "street_address": "120 Old Preston Avenue",
    "city": "Charlottesville",
    "state": "VA",
    "zip_code": "22902",
    "latitude": 38.0316741,
    "longitude": -78.4831537,
    "website": "https://lwsliverystable.com/",
    "category": "Bar & Restaurant",
    "types": "bar, restaurant, food, point_of_interest, establishment"
  },
  {
    "place_id": "ChIJjSrvVLGHs4kR9Cg5u2lB2nA",
    "name": "Sedona Taphouse",
    "street_address": "1035 Millmont Street",
    "city": "Charlottesville",
    "state": "VA",
    "zip_code": "22903",
    "latitude": 38.05108860000001,
    "longitude": -78.5056927,
    "website": "https://sedonataphouse.com/locations/charlottesville-va/",
    "category": "Bar & Restaurant",
    "types": "bar, restaurant, food, point_of_interest, establishment"
  },
  {
    "place_id": "ChIJe36PwUeGs4kRZOJkoRYRhEc",
    "name": "Boylan Heights",
    "street_address": "102 14th Street Northwest",
    "city": "Charlottesville",
    "state": "VA",
    "zip_code": "22903",
    "latitude": 38.03408149999999,
    "longitude": -78.4994249,
    "website": "http://www.boylanheights.co/",
    "category": "Bar & Restaurant",
    "types": "bar, restaurant, food, point_of_interest, establishment"
  },
  {
    "place_id": "ChIJ37CxbiSGs4kRCA1x5ntSn7k",
    "name": "South Street Brewery",
    "street_address": "106 South Street West",
    "city": "Charlottesville",
    "state": "VA",
    "zip_code": "22902",
    "latitude": 38.029338,
    "longitude": -78.482687,
    "website": "http://www.southstreetbrewery.com/",
    "category": "Bar & Restaurant",
    "types": "bar, restaurant, point_of_interest, food, establishment"
  },
  {
    "place_id": "ChIJIfnLNjCGs4kRXUZEFL_vLuQ",
    "name": "Kardinal Hall",
    "street_address": "722 Preston Avenue",
    "city": "Charlottesville",
    "state": "VA",
    "zip_code": "22903",
    "latitude": 38.0361777,
    "longitude": -78.48778519999999,
    "website": "http://www.kardinalhall.com/",
    "category": "Bar & Restaurant",
    "types": "liquor_store, bar, store, restaurant, food, point_of_interest, establishment"
  },
  {
    "place_id": "ChIJaxDG-saHs4kR2ZmheqB2js0",
    "name": "Canipe Brothers Bar & Grill",
    "street_address": "2104 Angus Road",
    "city": "Charlottesville",
    "state": "VA",
    "zip_code": "22901",
    "latitude": 38.0596177,
    "longitude": -78.4947827,
    "website": "http://canipebrothersbarandgrill.com/",
    "category": "Bar & Restaurant",
    "types": "bar, restaurant, food, point_of_interest, establishment"
  },
  {
    "place_id": "ChIJ6eBm0iSGs4kRzTIk-LIrJf8",
    "name": "Tavern & Grocery",
    "street_address": "333 West Main Street",
    "city": "Charlottesville",
    "state": "VA",
    "zip_code": "22903",
    "latitude": 38.030767,
    "longitude": -78.48635399999999,
    "website": "http://tavernandgrocery.com/",
    "category": "Bar & Restaurant",
    "types": "bar, restaurant, food, point_of_interest, establishment"
  },
  {
    "place_id": "ChIJV892smCGs4kR0abP6LU_oIU",
    "name": "D\u00fcrty Nelly's Pub - Deli",
    "street_address": "2200 Jefferson Park Avenue",
    "city": "Charlottesville",
    "state": "VA",
    "zip_code": "22903",
    "latitude": 38.0257304,
    "longitude": -78.5154414,
    "website": "http://www.durtynellyscharlottesville.com/",
    "category": "Bar & Restaurant",
    "types": "meal_delivery, meal_takeaway, bar, store, restaurant, food, point_of_interest, establishment"
  },
  {
    "place_id": "ChIJjVWFsLOHs4kR2l8rGIoj2Gc",
    "name": "Glass Half Full Taproom",
    "street_address": "375 Merchant Walk Square",
    "city": "Charlottesville",
    "state": "VA",
    "zip_code": "22902",
    "latitude": 38.0120269,
    "longitude": -78.4995089,
    "website": "https://drafthouse.com/charlottesville/theater-bar/charlottesville",
    "category": "Bar & Restaurant",
    "types": "bar, restaurant, food, point_of_interest, establishment"
  },
  {
    "place_id": "ChIJm0JNIZmIs4kR1im0BXXzEGE",
    "name": "Beer Run",
    "street_address": "156 Carlton Road",
    "city": "Charlottesville",
    "state": "VA",
    "zip_code": "22902",
    "latitude": 38.02458719999999,
    "longitude": -78.4685083,
    "website": "http://www.beerrun.com/",
    "category": "Bar & Restaurant",
    "types": "restaurant, liquor_store, bar, store, food, point_of_interest, establishment"
  },
  {
    "place_id": "ChIJSRNmXjiGs4kRp_3J_mbd5A4",
    "name": "The Ridley",
    "street_address": "1106 West Main Street",
    "city": "Charlottesville",
    "state": "VA",
    "zip_code": "22903",
    "latitude": 38.0326055,
    "longitude": -78.49633349999999,
    "website": "https://www.theridleyva.com/",
    "category": "Restaurant",
    "types": "restaurant, food, point_of_interest, establishment"
  },
  {
    "place_id": "ChIJfRc6bXOGs4kRXdmIDsGbfEc",
    "name": "Timberwood Tap House",
    "street_address": "245 Merchant Walk Avenue",
    "city": "Charlottesville",
    "state": "VA",
    "zip_code": "22902",
    "latitude": 38.010356,
    "longitude": -78.4997365,
    "website": "https://www.timberwoodtaphouse.com/",
    "category": "Restaurant",
    "types": "restaurant, food, point_of_interest, establishment"
  },
  {
    "place_id": "ChIJN2MR0keGs4kRMzjSGigTPoQ",
    "name": "Trinity On The Corner",
    "street_address": "1505 University Avenue",
    "city": "Charlottesville",
    "state": "VA",
    "zip_code": "22903",
    "latitude": 38.03494,
    "longitude": -78.500299,
    "website": "http://www.trinityonthecorner.com/",
    "category": "Bar & Restaurant",
    "types": "bar, restaurant, food, point_of_interest, establishment"
  },
  {
    "place_id": "ChIJRxkLrSWGs4kRUySqS8deLBg",
    "name": "The Whiskey Jar",
    "street_address": "227 West Main Street",
    "city": "Charlottesville",
    "state": "VA",
    "zip_code": "22902",
    "latitude": 38.0314122,
    "longitude": -78.4827571,
    "website": "http://www.thewhiskeyjarcville.com/",
    "category": "Restaurant",
    "types": "restaurant, food, point_of_interest, establishment"
  },
  {
    "place_id": "ChIJD6anKSSGs4kRkds2XF_aMzM",
    "name": "The Fitzroy",
    "street_address": "120 East Main Street",
    "city": "Charlottesville",
    "state": "VA",
    "zip_code": "22902",
    "latitude": 38.0305268,
    "longitude": -78.4809259,
    "website": "http://www.thefitzroycville.com/",
    "category": "Bar & Restaurant",
    "types": "bar, restaurant, food, point_of_interest, establishment"
  },
  {
    "place_id": "ChIJI9GCQeiHs4kRRhf_G4UXUAQ",
    "name": "BJ's Restaurant & Brewhouse",
    "street_address": "3924 Lenox Avenue",
    "city": "Charlottesville",
    "state": "VA",
    "zip_code": "22901",
    "latitude": 38.06703650000001,
    "longitude": -78.4879365,
    "website": "https://www.bjsrestaurants.com/locations/va/charlottesville?utm_source=google&utm_medium=organic&utm_campaign=google_my_business",
    "category": "Bar & Restaurant",
    "types": "restaurant, bar, food, point_of_interest, establishment"
  },
  {
    "place_id": "ChIJbTcye0iGs4kRAWsL_WfuFmQ",
    "name": "Coupes",
    "street_address": "9 Elliewood Avenue",
    "city": "Charlottesville",
    "state": "VA",
    "zip_code": "22903",
    "latitude": 38.03596599999999,
    "longitude": -78.5003356,
    "website": "http://www.coupescville.com/",
    "category": "Bar & Restaurant",
    "types": "bar, restaurant, food, point_of_interest, establishment"
  },
  {
    "place_id": "ChIJP2Lz58OHs4kRss0TppuZT_8",
    "name": "Burtons Grill & Bar",
    "street_address": "2010 Bond Street",
    "city": "Charlottesville",
    "state": "VA",
    "zip_code": "22901",
    "latitude": 38.0642687,
    "longitude": -78.4903482,
    "website": "https://burtonsgrill.com/locations/va/charlottesville/",
    "category": "Bar & Restaurant",
    "types": "bar, restaurant, point_of_interest, food, establishment"
  },
  {
    "place_id": "ChIJ870exa-Is4kRkdGR5r-r8sc",
    "name": "Michie Tavern ca. 1784",
    "street_address": "683 Thomas Jefferson Parkway",
    "city": "Charlottesville",
    "state": "VA",
    "zip_code": "22902",
    "latitude": 38.0087286,
    "longitude": -78.46370309999999,
    "website": "http://www.michietavern.com/",
    "category": "Bar & Restaurant",
    "types": "restaurant, tourist_attraction, liquor_store, bar, store, food, point_of_interest, establishment"
  },
  {
    "place_id": "ChIJPxTDKkaGs4kR3BXRrx00SQU",
    "name": "The Virginian",
    "street_address": "1521 University Avenue",
    "city": "Charlottesville",
    "state": "VA",
    "zip_code": "22903",
    "latitude": 38.0353206,
    "longitude": -78.50067299999999,
    "website": "http://thevirginiancville.com/",
    "category": "Restaurant",
    "types": "restaurant, food, point_of_interest, establishment"
  },
  {
    "place_id": "ChIJtbQZeq6Hs4kRVW3OoYAK44s",
    "name": "The Good Sport",
    "street_address": "540 Massie Road",
    "city": "Charlottesville",
    "state": "VA",
    "zip_code": "22903",
    "latitude": 38.05223099999999,
    "longitude": -78.511506,
    "website": "https://thegoodsporttaproom.com/",
    "category": "Bar & Restaurant",
    "types": "bar, restaurant, food, point_of_interest, establishment"
  },
  {
    "place_id": "ChIJWeSAKCSGs4kRz2c0nqCCVOY",
    "name": "Jack Brown's Beer & Burger Joint Cville",
    "street_address": "109 2nd Street Southeast",
    "city": "Charlottesville",
    "state": "VA",
    "zip_code": "22902",
    "latitude": 38.0301792,
    "longitude": -78.4809903,
    "website": "https://www.jackbrownsjoint.com/locations/charlottesville/",
    "category": "Bar & Restaurant",
    "types": "bar, restaurant, food, point_of_interest, establishment"
  },
  {
    "place_id": "ChIJ6XMdeiCGs4kRkmzKW2sdb-c",
    "name": "The Local",
    "street_address": "824 Hinton Avenue",
    "city": "Charlottesville",
    "state": "VA",
    "zip_code": "22902",
    "latitude": 38.0245847,
    "longitude": -78.4754777,
    "website": "http://www.thelocal-cville.com/",
    "category": "Bar & Restaurant",
    "types": "bar, restaurant, food, point_of_interest, establishment"
  },
  {
    "place_id": "ChIJVfdSzDaHs4kRz3D4O1NIX-g",
    "name": "Trophy Room",
    "street_address": "1309 West Main Street",
    "city": "Charlottesville",
    "state": "VA",
    "zip_code": "22903",
    "latitude": 38.03380049999999,
    "longitude": -78.49854359999999,
    "website": "https://www.hilton.com/en/hotels/chogcgu-graduate-charlottesville/dining/?y_source=1_MTA2Njc4ODcyMy03MTUtbG9jYXRpb24ud2Vic2l0ZQ%3D%3D",
    "category": "Bar & Restaurant",
    "types": "restaurant, bar, food, point_of_interest, establishment"
  },
  {
    "place_id": "ChIJ2y3ssCOGs4kR5CspFeBSLv0",
    "name": "Three Notch'd Craft Kitchen & Brewery",
    "street_address": "520 2nd Street Southeast",
    "city": "Charlottesville",
    "state": "VA",
    "zip_code": "22902",
    "latitude": 38.0261291,
    "longitude": -78.4819273,
    "website": "https://threenotchdbrewing.com/pages/cville?utm_source=google&utm_medium=organic&utm_campaign=gmb",
    "category": "Bar & Restaurant",
    "types": "bar, restaurant, food, point_of_interest, establishment"
  },
  {
    "place_id": "ChIJPWflsyWGs4kRzxJbwQppqtQ",
    "name": "Lucky's Cheesesteaks & Subs",
    "street_address": "223 West Main Street",
    "city": "Charlottesville",
    "state": "VA",
    "zip_code": "22902",
    "latitude": 38.0312989,
    "longitude": -78.48271559999999,
    "website": "https://www.luckybluesbar.com/",
    "category": "Bar & Restaurant",
    "types": "meal_takeaway, bar, restaurant, food, point_of_interest, establishment"
  },
  {
    "place_id": "ChIJgRuy3eOGs4kRzc4jVfJ6WnI",
    "name": "Birdwood Bar & Grill",
    "street_address": "410 Golf Course Drive",
    "city": "Charlottesville",
    "state": "VA",
    "zip_code": "22903",
    "latitude": 38.0443007,
    "longitude": -78.5359003,
    "website": "https://www.boarsheadresort.com/dining/birdwood-grill",
    "category": "Restaurant",
    "types": "restaurant, food, point_of_interest, establishment"
  },
  {
    "place_id": "ChIJpaYzaTiGs4kRQtUDZOugsr8",
    "name": "The Bistro - Eat. Drink. Connect.\u00ae",
    "street_address": "1201 West Main Street",
    "city": "Charlottesville",
    "state": "VA",
    "zip_code": "22903",
    "latitude": 38.03325700000001,
    "longitude": -78.496847,
    "website": "https://www.marriott.com/hotels/hotel-information/restaurant/chodt-courtyard-charlottesville---university-medical-center/?scid=f2ae0541-1279-4f24-b197-a979c79310b0",
    "category": "Restaurant",
    "types": "restaurant, food, point_of_interest, establishment"
  },
  {
    "place_id": "ChIJnZgID1CHs4kRYAyE_TAGFsQ",
    "name": "Tonic",
    "street_address": "609 East Market Street",
    "city": "Charlottesville",
    "state": "VA",
    "zip_code": "22902",
    "latitude": 38.03050079999999,
    "longitude": -78.4769014,
    "website": "https://www.tonic-cville.com/",
    "category": "Restaurant",
    "types": "restaurant, food, point_of_interest, establishment"
  },
  {
    "place_id": "ChIJ6zxaJjuGs4kRteQIAbpuw0I",
    "name": "The Lobby Bar + Restaurant at The Doyle Hotel",
    "street_address": "499 West Main Street",
    "city": "Charlottesville",
    "state": "VA",
    "zip_code": "22903",
    "latitude": 38.0311241,
    "longitude": -78.4876176,
    "website": "https://sizzlingsteakconcepts.com/charlottesville-lobbybarrestaurant/",
    "category": "Restaurant",
    "types": "restaurant, point_of_interest, food, establishment"
  },
  {
    "place_id": "ChIJa1Y2vHmHs4kRDsEjByzKi2g",
    "name": "Chateau Lobby Bar",
    "street_address": "122 Oakhurst Circle",
    "city": "Charlottesville",
    "state": "VA",
    "zip_code": "22903",
    "latitude": 38.03182109999999,
    "longitude": -78.5063222,
    "website": "https://oakhurstinn.com/dining/chateau-lobby-bar/",
    "category": "Bar & Restaurant",
    "types": "bar, restaurant, point_of_interest, food, establishment"
  },
  {
    "place_id": "ChIJ8XU4HzuGs4kRPw-09HM0t8A",
    "name": "Oakhart Social",
    "street_address": "511 West Main Street",
    "city": "Charlottesville",
    "state": "VA",
    "zip_code": "22903",
    "latitude": 38.0312645,
    "longitude": -78.4880615,
    "website": "http://www.oakhartsocial.com/",
    "category": "Bar & Restaurant",
    "types": "restaurant, bar, food, point_of_interest, establishment"
  },
  {
    "place_id": "ChIJ81dh1uKHs4kRypp-6hZXCKU",
    "name": "The Bistro - Eat. Drink. Connect.\u00ae",
    "street_address": "638 Hillsdale Drive",
    "city": "Charlottesville",
    "state": "VA",
    "zip_code": "22901",
    "latitude": 38.07455460000001,
    "longitude": -78.4784221,
    "website": "https://www.marriott.com/hotels/hotel-information/restaurant/choch-courtyard-charlottesville-north/?scid=f2ae0541-1279-4f24-b197-a979c79310b0",
    "category": "Restaurant",
    "types": "restaurant, food, point_of_interest, establishment"
  },
  {
    "place_id": "ChIJ9wtOT4SHs4kRDrK9h3aTkDA",
    "name": "Brightside Beach Pub",
    "street_address": "225 West Main Street",
    "city": "Charlottesville",
    "state": "VA",
    "zip_code": "22902",
    "latitude": 38.0312815,
    "longitude": -78.4827653,
    "website": "https://cvillebrightside.com/",
    "category": "Restaurant",
    "types": "restaurant, food, point_of_interest, establishment"
  },
  {
    "place_id": "ChIJEV_LZpmIs4kR1ztIGIFBOBc",
    "name": "Holly's Diner",
    "street_address": "1221 East Market Street",
    "city": "Charlottesville",
    "state": "VA",
    "zip_code": "22902",
    "latitude": 38.02667739999999,
    "longitude": -78.46761649999999,
    "website": "https://www.facebook.com/HollysDinerCville/",
    "category": "Restaurant",
    "types": "restaurant, food, point_of_interest, establishment"
  },
  {
    "place_id": "ChIJ_VpDnCaGs4kRGdjWndt1uIA",
    "name": "Citizen Burger Bar",
    "street_address": "212 East Main Street",
    "city": "Charlottesville",
    "state": "VA",
    "zip_code": "22902",
    "latitude": 38.03019080000001,
    "longitude": -78.4804429,
    "website": "https://www.citizenburgerbarcville.com/",
    "category": "Bar & Restaurant",
    "types": "bar, restaurant, point_of_interest, food, establishment"
  },
  {
    "place_id": "ChIJe5scSiSGs4kRaStiOttmJjw",
    "name": "The Alley Light",
    "street_address": "108 2nd Street Southwest",
    "city": "Charlottesville",
    "state": "VA",
    "zip_code": "22902",
    "latitude": 38.0304794,
    "longitude": -78.48234769999999,
    "website": "http://alleylight.com/",
    "category": "Restaurant",
    "types": "restaurant, food, point_of_interest, establishment"
  },
  {
    "place_id": "ChIJsTj10iWGs4kRqTa_Y_qvhSQ",
    "name": "Hamiltons' at First & Main",
    "street_address": "101 West Main Street",
    "city": "Charlottesville",
    "state": "VA",
    "zip_code": "22902",
    "latitude": 38.03090350000001,
    "longitude": -78.48155659999999,
    "website": "http://hamiltonsrestaurant.com/",
    "category": "Restaurant",
    "types": "restaurant, food, point_of_interest, establishment"
  },
  {
    "place_id": "ChIJk294cZmIs4kR16-obVRuP88",
    "name": "Firefly Restaurant + Game Room",
    "street_address": "1304 East Market Street",
    "city": "Charlottesville",
    "state": "VA",
    "zip_code": "22902",
    "latitude": 38.0259711,
    "longitude": -78.4672162,
    "website": "http://fireflycville.com/",
    "category": "Bar & Restaurant",
    "types": "bar, restaurant, food, point_of_interest, establishment"
  }
]