[
  {
    "place_id": "ChIJZWsVESWgVogRFEG9BgK1eVA",
    "name": "The Local",
    "street_address": "105 East 5th Street",
    "city": "Charlotte",
    "state": "NC",
    "zip_code": "28202",
    "latitude": 35.22781309999999,
    "longitude": -80.8414916,
    "website": "http://thelocalcharlotte.com/",
    "category": "Bar & Restaurant",
    "types": "bar, restaurant, food, point_of_interest, establishment"
  },
  {
    "place_id": "ChIJr0fg_YWfVogR-pn_9djnJgI",
    "name": "Dilworth Neighborhood Grille",
    "street_address": "911 East Morehead Street",
    "city": "Charlotte",
    "state": "NC",
    "zip_code": "28204",
    "latitude": 35.2133756,
    "longitude": -80.8438051,
    "website": "https://dilworthgrille.com/",
    "category": "Bar & Restaurant",
    "types": "bar, restaurant, food, point_of_interest, establishment"
  },
  {
    "place_id": "ChIJyZx0_OChVogRCRdin_oMdl8",
    "name": "The Public House",
    "street_address": "300 South Brevard Street",
    "city": "Charlotte",
    "state": "NC",
    "zip_code": "28202",
    "latitude": 35.22302619999999,
    "longitude": -80.84272759999999,
    "website": "http://thepublichouseclt.com/",
    "category": "Bar & Restaurant",
    "types": "bar, restaurant, point_of_interest, food, establishment"
  },
  {
    "place_id": "ChIJ_a8w9wCgVogRhdrmAKNizwg",
    "name": "Thomas Street Tavern",
    "street_address": "1218 Thomas Avenue",
    "city": "Charlotte",
    "state": "NC",
    "zip_code": "28205",
    "latitude": 35.2194805,
    "longitude": -80.81205059999999,
    "website": "https://thomasstreettavern.shop/",
    "category": "Bar & Restaurant",
    "types": "bar, restaurant, food, point_of_interest, establishment"
  },
  {
    "place_id": "ChIJ-TgI_y6gVogRY6RU4i5Fqzg",
    "name": "Ink N Ivy",
    "street_address": "222 South Church Street",
    "city": "Charlotte",
    "state": "NC",
    "zip_code": "28202",
    "latitude": 35.2271241,
    "longitude": -80.8462612,
    "website": "https://www.inknivy.com/charlotte",
    "category": "Bar & Restaurant",
    "types": "restaurant, bar, point_of_interest, food, establishment"
  },
  {
    "place_id": "ChIJmVbjWRKpVogR2XBW_2CaxMA",
    "name": "Duckworth's Grill & Taphouse",
    "street_address": "330 North Tryon Street",
    "city": "Charlotte",
    "state": "NC",
    "zip_code": "28202",
    "latitude": 35.2292698,
    "longitude": -80.8396856,
    "website": "https://www.duckworths.com/location/duckworths-uptown/",
    "category": "Bar & Restaurant",
    "types": "restaurant, bar, night_club, food, point_of_interest, establishment"
  },
  {
    "place_id": "ChIJ2ZPIuS2gVogR4YuAOixBchU",
    "name": "Graham St. Pub & Patio",
    "street_address": "400 South Graham Street",
    "city": "Charlotte",
    "state": "NC",
    "zip_code": "28202",
    "latitude": 35.2283134,
    "longitude": -80.8504457,
    "website": "http://grahamstnc.com/",
    "category": "Bar & Restaurant",
    "types": "bar, restaurant, food, point_of_interest, establishment"
  },
  {
    "place_id": "ChIJ1Uli3QCgVogRr8438Cl1K34",
    "name": "The Workman\u2019s Friend",
    "street_address": "1531 Central Avenue",
    "city": "Charlotte",
    "state": "NC",
    "zip_code": "28205",
    "latitude": 35.2205767,
    "longitude": -80.8122781,
    "website": "https://theworkmansfriend.com/",
    "category": "Bar & Restaurant",
    "types": "bar, restaurant, food, point_of_interest, establishment"
  },
  {
    "place_id": "ChIJ5ZXfT7GfVogRFWHF-hMmdus",
    "name": "Trolley Barn Fermentory & Food Hall",
    "street_address": "2104 South Boulevard",
    "city": "Charlotte",
    "state": "NC",
    "zip_code": "28203",
    "latitude": 35.2086596,
    "longitude": -80.8615808,
    "website": "http://trolleybarn.legionbrewing.com/",
    "category": "Bar & Restaurant",
    "types": "bar, restaurant, food, point_of_interest, establishment"
  },
  {
    "place_id": "ChIJ49b46C6gVogRSfQayaXt6Tk",
    "name": "Valhalla Pub & Eatery",
    "street_address": "317 South Church Street",
    "city": "Charlotte",
    "state": "NC",
    "zip_code": "28202",
    "latitude": 35.2260973,
    "longitude": -80.84691579999999,
    "website": "http://valhallapub.com/",
    "category": "Bar & Restaurant",
    "types": "bar, restaurant, food, point_of_interest, establishment"
  },
  {
    "place_id": "ChIJhdkXDl2hVogR22-a7c-XUpM",
    "name": "Aura Rooftop",
    "street_address": "124 East Brooklyn Village Avenue",
    "city": "Charlotte",
    "state": "NC",
    "zip_code": "28202",
    "latitude": 35.2227282,
    "longitude": -80.84796209999999,
    "website": "https://www.aurarooftop.com/?utm_source=google&utm_medium=organic&utm_campaign=business_listing",
    "category": "Bar & Restaurant",
    "types": "restaurant, night_club, bar, food, point_of_interest, establishment"
  },
  {
    "place_id": "ChIJjVzGQyWgVogRR5oVgCB1hgc",
    "name": "Cowbell Burger & Whiskey Bar",
    "street_address": "201 North Tryon Street",
    "city": "Charlotte",
    "state": "NC",
    "zip_code": "28202",
    "latitude": 35.2284654,
    "longitude": -80.8422271,
    "website": "https://eatmorecowbell.com/",
    "category": "Bar & Restaurant",
    "types": "bar, restaurant, food, point_of_interest, establishment"
  },
  {
    "place_id": "ChIJb_jbECWgVogRme4m100MMFI",
    "name": "204 North Kitchen & Cocktails",
    "street_address": "204 North Tryon Street",
    "city": "Charlotte",
    "state": "NC",
    "zip_code": "28202",
    "latitude": 35.2279868,
    "longitude": -80.84155179999999,
    "website": "https://www.204north.com/",
    "category": "Restaurant",
    "types": "restaurant, food, point_of_interest, establishment"
  },
  {
    "place_id": "ChIJPUaOwAOgVogRin4_thvBvlI",
    "name": "Moo & Brew",
    "street_address": "1300 Central Avenue",
    "city": "Charlotte",
    "state": "NC",
    "zip_code": "28205",
    "latitude": 35.22070679999999,
    "longitude": -80.8169236,
    "website": "https://mooandbrew.com/",
    "category": "Bar & Restaurant",
    "types": "bar, restaurant, food, point_of_interest, establishment"
  },
  {
    "place_id": "ChIJsc9vzxSnVogRXlyYKowMbmo",
    "name": "Cedar Street Tavern",
    "street_address": "120 North Cedar Street",
    "city": "Charlotte",
    "state": "NC",
    "zip_code": "28202",
    "latitude": 35.2337265,
    "longitude": -80.8491714,
    "website": "http://www.cedarstreettavern.com/",
    "category": "Bar & Restaurant",
    "types": "bar, restaurant, point_of_interest, food, establishment"
  },
  {
    "place_id": "ChIJixq5ESWgVogRH-kQhWdTrGs",
    "name": "Connolly's On Fifth",
    "street_address": "115 East 5th Street",
    "city": "Charlotte",
    "state": "NC",
    "zip_code": "28202",
    "latitude": 35.2277436,
    "longitude": -80.8414406,
    "website": "http://connollysirishpub.com/",
    "category": "Bar & Restaurant",
    "types": "bar, restaurant, food, point_of_interest, establishment"
  },
  {
    "place_id": "ChIJw47d7NkfVIgR9XVlaX9sxaw",
    "name": "JackBeagle's Noda",
    "street_address": "3213 North Davidson Street",
    "city": "Charlotte",
    "state": "NC",
    "zip_code": "28205",
    "latitude": 35.2473079,
    "longitude": -80.8053892,
    "website": "https://www.jackbeagles.com/",
    "category": "Bar & Restaurant",
    "types": "bar, restaurant, food, point_of_interest, establishment"
  },
  {
    "place_id": "ChIJd0nFFSWgVogRoio2VliELF4",
    "name": "R\u00ed R\u00e1 Irish Pub",
    "street_address": "208 North Tryon Street",
    "city": "Charlotte",
    "state": "NC",
    "zip_code": "28202",
    "latitude": 35.2280769,
    "longitude": -80.8415604,
    "website": "https://rira.com/charlotte/",
    "category": "Bar & Restaurant",
    "types": "restaurant, bar, food, point_of_interest, establishment"
  },
  {
    "place_id": "ChIJ-6Y6jImfVogR4C-bDK_eoOc",
    "name": "Craft City Social Pub",
    "street_address": "555 South McDowell Street",
    "city": "Charlotte",
    "state": "NC",
    "zip_code": "28204",
    "latitude": 35.2169367,
    "longitude": -80.8392575,
    "website": "https://www.marriott.com/en-us/hotels/cltws-sheraton-charlotte-hotel/overview/what-to-expect/#dining",
    "category": "Bar & Restaurant",
    "types": "restaurant, bar, food, point_of_interest, establishment"
  },
  {
    "place_id": "ChIJuwTTp8GfVogRthgrH6IDOjM",
    "name": "QC Pour House",
    "street_address": "200 West Tremont Avenue",
    "city": "Charlotte",
    "state": "NC",
    "zip_code": "28203",
    "latitude": 35.210939,
    "longitude": -80.8619674,
    "website": "http://www.qcpourhouse.com/",
    "category": "Bar & Restaurant",
    "types": "restaurant, bar, food, point_of_interest, establishment"
  },
  {
    "place_id": "ChIJCVnnhCWgVogRbw6uM2pUQFs",
    "name": "Essex Bar & Bistro",
    "street_address": "101 South Tryon Street",
    "city": "Charlotte",
    "state": "NC",
    "zip_code": "28280",
    "latitude": 35.2267908,
    "longitude": -80.8429578,
    "website": "http://www.essexnc.com/",
    "category": "Bar & Restaurant",
    "types": "restaurant, bar, food, point_of_interest, establishment"
  },
  {
    "place_id": "ChIJ8aiXDzUZU4gRDe4PxUMrtQU",
    "name": "Mac's Speed Shop",
    "street_address": "2511 South Boulevard",
    "city": "Charlotte",
    "state": "NC",
    "zip_code": "28203",
    "latitude": 35.2029457,
    "longitude": -80.86434469999999,
    "website": "http://www.macspeedshop.com/",
    "category": "Bar & Restaurant",
    "types": "bar, restaurant, food, point_of_interest, establishment"
  },
  {
    "place_id": "ChIJtxY4iACgVogRcynvqRlDq9U",
    "name": "Whiskey Warehouse",
    "street_address": "1221 The Plaza",
    "city": "Charlotte",
    "state": "NC",
    "zip_code": "28205",
    "latitude": 35.2191693,
    "longitude": -80.8111764,
    "website": "https://www.whiskeywarehouse.com/",
    "category": "Bar & Restaurant",
    "types": "restaurant, bar, food, point_of_interest, establishment"
  },
  {
    "place_id": "ChIJy9NRSiWgVogRQDRztUvZgng",
    "name": "The Daily",
    "street_address": "214 North Church Street",
    "city": "Charlotte",
    "state": "NC",
    "zip_code": "28202",
    "latitude": 35.2292671,
    "longitude": -80.8419342,
    "website": "http://www.thedailyclt.com/",
    "category": "Bar & Restaurant",
    "types": "bar, restaurant, food, point_of_interest, establishment"
  },
  {
    "place_id": "ChIJ7cS_6yWgVogR3YDDgVQDqpc",
    "name": "Mortimer's Cafe and Pub",
    "street_address": "210 East Trade Street",
    "city": "Charlotte",
    "state": "NC",
    "zip_code": "28202",
    "latitude": 35.225179,
    "longitude": -80.842265,
    "website": "http://www.mortimerspub.com/",
    "category": "Bar & Restaurant",
    "types": "bar, restaurant, food, point_of_interest, establishment"
  },
  {
    "place_id": "ChIJX6FmynehVogRsbdrJsFqbEE",
    "name": "WestEnd Tavern",
    "street_address": "2817 Rozzelles Ferry Road",
    "city": "Charlotte",
    "state": "NC",
    "zip_code": "28208",
    "latitude": 35.250345,
    "longitude": -80.87051389999999,
    "website": "http://www.westendcharlotte.com/",
    "category": "Bar & Restaurant",
    "types": "restaurant, bar, food, point_of_interest, establishment"
  },
  {
    "place_id": "ChIJ3-8PgnqhVogRfzPw5C5ZZIU",
    "name": "Clutch Kitchen & Pour House",
    "street_address": "601 South Cedar Street",
    "city": "Charlotte",
    "state": "NC",
    "zip_code": "28202",
    "latitude": 35.22844630000001,
    "longitude": -80.8547133,
    "website": "http://clutchcharlotte.com/",
    "category": "Bar & Restaurant",
    "types": "restaurant, bar, food, point_of_interest, establishment"
  },
  {
    "place_id": "ChIJkzdnd-mfVogRnDmeBjbqdCw",
    "name": "Big Ben Pub",
    "street_address": "1535 Elizabeth Avenue",
    "city": "Charlotte",
    "state": "NC",
    "zip_code": "28204",
    "latitude": 35.2139626,
    "longitude": -80.8267054,
    "website": "http://www.bigbenpub.com/",
    "category": "Bar & Restaurant",
    "types": "restaurant, bar, food, point_of_interest, establishment"
  },
  {
    "place_id": "ChIJT6HzRcUfVIgR9TxLTL7c3Sg",
    "name": "Belfast Mill Irish Pub",
    "street_address": "144 Brevard Court",
    "city": "Charlotte",
    "state": "NC",
    "zip_code": "28202",
    "latitude": 35.226008,
    "longitude": -80.846744,
    "website": "http://www.belfastmillclt.com/",
    "category": "Bar & Restaurant",
    "types": "bar, restaurant, food, point_of_interest, establishment"
  },
  {
    "place_id": "ChIJ6_f_fZefVogRVrJPzCI8lSs",
    "name": "VINYL",
    "street_address": "1440 South Tryon Street",
    "city": "Charlotte",
    "state": "NC",
    "zip_code": "28203",
    "latitude": 35.2165227,
    "longitude": -80.856597,
    "website": "http://www.vinylclt.com/",
    "category": "Restaurant",
    "types": "restaurant, food, point_of_interest, establishment"
  },
  {
    "place_id": "ChIJIRxa9iahVogR5IwXsg3nAg8",
    "name": "Free Range Bar",
    "street_address": "301 Camp Road",
    "city": "Charlotte",
    "state": "NC",
    "zip_code": "28206",
    "latitude": 35.2458597,
    "longitude": -80.8335711,
    "website": "http://www.freerangebrewing.com/",
    "category": "Bar & Restaurant",
    "types": "bar, restaurant, food, point_of_interest, establishment"
  },
  {
    "place_id": "ChIJyfHXwi6gVogRCvPGI5qe-cU",
    "name": "Queen City Bites & Crafts",
    "street_address": "135 Brevard Court",
    "city": "Charlotte",
    "state": "NC",
    "zip_code": "28202",
    "latitude": 35.2258271,
    "longitude": -80.84678050000001,
    "website": "https://queencity.top/",
    "category": "Bar & Restaurant",
    "types": "restaurant, bar, food, point_of_interest, establishment"
  },
  {
    "place_id": "ChIJdcvrmyCgVogR-NHdHFQ9iRs",
    "name": "QTavern",
    "street_address": "201 South McDowell Street",
    "city": "Charlotte",
    "state": "NC",
    "zip_code": "28204",
    "latitude": 35.2190819,
    "longitude": -80.83622820000001,
    "website": "http://qtavern.com/",
    "category": "Bar & Restaurant",
    "types": "bar, restaurant, food, point_of_interest, establishment"
  },
  {
    "place_id": "ChIJV3hp_TihVogRwiYEeU5DGWE",
    "name": "Pit Road Bar & Grill",
    "street_address": "2330 Tipton Drive",
    "city": "Charlotte",
    "state": "NC",
    "zip_code": "28206",
    "latitude": 35.2710763,
    "longitude": -80.8436188,
    "website": "http://www.victorylanekarting.com/",
    "category": "Bar & Restaurant",
    "types": "restaurant, bar, food, point_of_interest, establishment"
  },
  {
    "place_id": "ChIJ4wuOhTCgVogRnk9JtEVXQtE",
    "name": "The Corner Pub",
    "street_address": "335 North Graham Street",
    "city": "Charlotte",
    "state": "NC",
    "zip_code": "28202",
    "latitude": 35.2329509,
    "longitude": -80.8440601,
    "website": "http://cornerpubcharlotte.com/",
    "category": "Bar & Restaurant",
    "types": "bar, restaurant, food, point_of_interest, establishment"
  },
  {
    "place_id": "ChIJ6c1ZjHSgVogR0glwdDuMHho",
    "name": "Trolley Pub Charlotte",
    "street_address": "2500 Dunavant Street",
    "city": "Charlotte",
    "state": "NC",
    "zip_code": "28203",
    "latitude": 35.2046825,
    "longitude": -80.8668836,
    "website": "https://trolleypub.com/charlotte/",
    "category": "Bar & Restaurant",
    "types": "bar, travel_agency, restaurant, food, point_of_interest, establishment"
  },
  {
    "place_id": "ChIJfXBJOoqfVogRPeS2p_PjFVo",
    "name": "Charlotte Beer Garden",
    "street_address": "1300 South Tryon Street",
    "city": "Charlotte",
    "state": "NC",
    "zip_code": "28203",
    "latitude": 35.2183338,
    "longitude": -80.85424259999999,
    "website": "https://charlottebeergarden.com/",
    "category": "Bar & Restaurant",
    "types": "bar, restaurant, food, point_of_interest, establishment"
  },
  {
    "place_id": "ChIJd-4Mo1mhVogRfr9SBiy_HVY",
    "name": "Ruby Sunshine",
    "street_address": "332 West Bland Street",
    "city": "Charlotte",
    "state": "NC",
    "zip_code": "28203",
    "latitude": 35.219654,
    "longitude": -80.8575286,
    "website": "https://www.rubybrunch.com/?olonwp=JjBtp_vMLk25gkYh_bnoiQ",
    "category": "Bar & Restaurant",
    "types": "bar, restaurant, food, point_of_interest, establishment"
  },
  {
    "place_id": "ChIJCfh4NTqgVogR838O89IIMow",
    "name": "Alexander Michael's",
    "street_address": "401 West 9th Street",
    "city": "Charlotte",
    "state": "NC",
    "zip_code": "28202",
    "latitude": 35.2336206,
    "longitude": -80.8407855,
    "website": "http://www.almikestavern.com/",
    "category": "Bar & Restaurant",
    "types": "bar, restaurant, food, point_of_interest, establishment"
  },
  {
    "place_id": "ChIJnwieLwuhVogRaUMVehIXjDY",
    "name": "Streetcar Bar + Bites",
    "street_address": "2135 Thrift Road",
    "city": "Charlotte",
    "state": "NC",
    "zip_code": "28208",
    "latitude": 35.2330526,
    "longitude": -80.87297749999999,
    "website": "https://www.streetcarclt.com/",
    "category": "Bar & Restaurant",
    "types": "bar, restaurant, food, point_of_interest, establishment"
  },
  {
    "place_id": "ChIJhXdV4iCfVogRpNn8werS3XU",
    "name": "LoSo Tavern",
    "street_address": "4548 Old Pineville Road",
    "city": "Charlotte",
    "state": "NC",
    "zip_code": "28217",
    "latitude": 35.1806194,
    "longitude": -80.8799355,
    "website": "https://losotavern.com/",
    "category": "Bar & Restaurant",
    "types": "restaurant, bar, food, point_of_interest, establishment"
  },
  {
    "place_id": "ChIJzdmcqFSeVogR7RchZ8YJSQw",
    "name": "Sir Edmond Halley's",
    "street_address": "4151 Park Road",
    "city": "Charlotte",
    "state": "NC",
    "zip_code": "28209",
    "latitude": 35.1752575,
    "longitude": -80.8487079,
    "website": "https://www.siredspub.com/",
    "category": "Bar & Restaurant",
    "types": "restaurant, bar, point_of_interest, food, establishment"
  },
  {
    "place_id": "ChIJk6BzXM6hVogRBengjR_21rw",
    "name": "FreeMore Tavern",
    "street_address": "1500 West Morehead Street",
    "city": "Charlotte",
    "state": "NC",
    "zip_code": "28208",
    "latitude": 35.229328,
    "longitude": -80.8657583,
    "website": "http://freemoretavern.com/",
    "category": "Restaurant",
    "types": "restaurant, food, point_of_interest, establishment"
  },
  {
    "place_id": "ChIJu25891OeVogRln3j99ldVW4",
    "name": "Brazwells Pub",
    "street_address": "1627 Montford Drive",
    "city": "Charlotte",
    "state": "NC",
    "zip_code": "28209",
    "latitude": 35.1709464,
    "longitude": -80.8486552,
    "website": "https://www.brazwellspub.com/",
    "category": "Bar & Restaurant",
    "types": "restaurant, bar, food, point_of_interest, establishment"
  },
  {
    "place_id": "ChIJr5qVZ9ChVogReUJBXecpHAk",
    "name": "JackBeagle's Morehead",
    "street_address": "1404 West Morehead Street",
    "city": "Charlotte",
    "state": "NC",
    "zip_code": "28208",
    "latitude": 35.22921369999999,
    "longitude": -80.8640975,
    "website": "https://www.jackbeagles.com/location/morehead/",
    "category": "Bar & Restaurant",
    "types": "restaurant, bar, food, point_of_interest, establishment"
  },
  {
    "place_id": "ChIJZxNCJM0hVIgRt6bYX-4IgME",
    "name": "Steamers Sports Pub",
    "street_address": "1513 Pierson Drive",
    "city": "Charlotte",
    "state": "NC",
    "zip_code": "28205",
    "latitude": 35.1995081,
    "longitude": -80.7643712,
    "website": "http://steamerssportspub.com/",
    "category": "Bar & Restaurant",
    "types": "bar, restaurant, food, point_of_interest, establishment"
  },
  {
    "place_id": "ChIJL22k3gqfVogRfz08yaIxdQ8",
    "name": "The Vintage Whiskey & Cigar Bar of Charlotte",
    "street_address": "215 East Worthington Avenue",
    "city": "Charlotte",
    "state": "NC",
    "zip_code": "28203",
    "latitude": 35.210586,
    "longitude": -80.8579981,
    "website": "https://www.thevintageclt.com/",
    "category": "Bar & Restaurant",
    "types": "cafe, night_club, bar, store, restaurant, food, point_of_interest, establishment"
  },
  {
    "place_id": "ChIJvaJ9JiSgVogR1bYTfUem2a0",
    "name": "Ed's Tavern Dilworth",
    "street_address": "2200 Park Road",
    "city": "Charlotte",
    "state": "NC",
    "zip_code": "28203",
    "latitude": 35.2004625,
    "longitude": -80.852509,
    "website": "http://edstavern.com/",
    "category": "Bar & Restaurant",
    "types": "bar, restaurant, point_of_interest, food, establishment"
  },
  {
    "place_id": "ChIJgfynHNofVIgRpoPFyy46Bbo",
    "name": "Salud Beer Shop",
    "street_address": "3306 North Davidson Street",
    "city": "Charlotte",
    "state": "NC",
    "zip_code": "28205",
    "latitude": 35.24779650000001,
    "longitude": -80.8040937,
    "website": "http://www.saludbeershop.com/",
    "category": "Bar & Restaurant",
    "types": "bar, liquor_store, store, restaurant, food, point_of_interest, establishment"
  },
  {
    "place_id": "ChIJ79WK6C6gVogRGQuJCeC0B0g",
    "name": "Vintage Lounge Bar",
    "street_address": "317 South Church Street",
    "city": "Charlotte",
    "state": "NC",
    "zip_code": "28202",
    "latitude": 35.2261079,
    "longitude": -80.8468595,
    "website": "http://valhallapub.com/",
    "category": "Bar & Restaurant",
    "types": "bar, restaurant, point_of_interest, food, establishment"
  },
  {
    "place_id": "ChIJx5ERij8hVIgRJFH6Aqo-rb4",
    "name": "Centro Botanero Bar & Grill",
    "street_address": "5873 Albemarle Road",
    "city": "Charlotte",
    "state": "NC",
    "zip_code": "28212",
    "latitude": 35.203869,
    "longitude": -80.745716,
    "website": null,
    "category": "Bar & Restaurant",
    "types": "night_club, bar, restaurant, food, point_of_interest, establishment"
  },
  {
    "place_id": "ChIJiTZPpJefVogR3pVWSjF5gjo",
    "name": "KID CASHEW",
    "street_address": "1608 East Boulevard",
    "city": "Charlotte",
    "state": "NC",
    "zip_code": "28203",
    "latitude": 35.1992811,
    "longitude": -80.841413,
    "website": "https://www.kidcashew.com/locations/charlotte/?utm_source=gbm&utm_campaign=website",
    "category": "Restaurant",
    "types": "meal_takeaway, restaurant, food, point_of_interest, establishment"
  },
  {
    "place_id": "ChIJs1barZefVogRgUDoM9WzMpE",
    "name": "Bad Daddy's Burger Bar",
    "street_address": "1626 East Boulevard",
    "city": "Charlotte",
    "state": "NC",
    "zip_code": "28203",
    "latitude": 35.1989724,
    "longitude": -80.8408711,
    "website": "https://www.baddaddysburgerbar.com/locations/bad-daddys-burger-bar-14",
    "category": "Bar & Restaurant",
    "types": "bar, restaurant, food, point_of_interest, establishment"
  },
  {
    "place_id": "ChIJMaGqB8SfVogR9giG_-6-Bxc",
    "name": "Rally",
    "street_address": "101 Southside Drive",
    "city": "Charlotte",
    "state": "NC",
    "zip_code": "28217",
    "latitude": 35.1846819,
    "longitude": -80.8790277,
    "website": "http://www.rallypickleball.com/",
    "category": "Bar & Restaurant",
    "types": "restaurant, cafe, bar, store, food, point_of_interest, establishment"
  },
  {
    "place_id": "ChIJExcwWVmeVogRZ12QmVoXu1Q",
    "name": "Lucky Lou's Tavern",
    "street_address": "5124 Park Road",
    "city": "Charlotte",
    "state": "NC",
    "zip_code": "28209",
    "latitude": 35.160238,
    "longitude": -80.849541,
    "website": "https://luckyloustavern.com/?utm_source=google",
    "category": "Bar & Restaurant",
    "types": "night_club, bar, restaurant, food, point_of_interest, establishment"
  },
  {
    "place_id": "ChIJO2hv8HmfVogREDnf2p86cws",
    "name": "Tyber Creek Pub",
    "street_address": "1501 South Mint Street",
    "city": "Charlotte",
    "state": "NC",
    "zip_code": "28203",
    "latitude": 35.2188643,
    "longitude": -80.86061099999999,
    "website": "http://tybercreek.com/",
    "category": "Bar & Restaurant",
    "types": "bar, restaurant, food, point_of_interest, establishment"
  },
  {
    "place_id": "ChIJRaPxw1OeVogRw8ass8ldD-U",
    "name": "Moosehead Grill",
    "street_address": "1807 Montford Drive",
    "city": "Charlotte",
    "state": "NC",
    "zip_code": "28209",
    "latitude": 35.1710234,
    "longitude": -80.8471199,
    "website": "http://www.mooseheadgrillcharlotte.com/",
    "category": "Bar & Restaurant",
    "types": "bar, restaurant, point_of_interest, food, establishment"
  },
  {
    "place_id": "ChIJNymCI0afVogRwqisS3ySA3I",
    "name": "Goldie\u2019s Live Music Bar & Restaurant",
    "street_address": "3601 South Boulevard",
    "city": "Charlotte",
    "state": "NC",
    "zip_code": "28209",
    "latitude": 35.1929639,
    "longitude": -80.8731055,
    "website": "http://www.goldiesclt.com/",
    "category": "Bar & Restaurant",
    "types": "bar, restaurant, food, point_of_interest, establishment"
  },
  {
    "place_id": "ChIJEeNs79yfVogRpn4Hoyatx_o",
    "name": "Bar 4808",
    "street_address": "4808 Sharon Road",
    "city": "Charlotte",
    "state": "NC",
    "zip_code": "28210",
    "latitude": 35.1463522,
    "longitude": -80.8324591,
    "website": "https://bar4808.com/?SEO_id=GMB--R-CLTSKGI&y_source=1_Mjg5MTMwNzktNzE1LWxvY2F0aW9uLndlYnNpdGU%3D",
    "category": "Restaurant",
    "types": "restaurant, food, point_of_interest, establishment"
  },
  {
    "place_id": "ChIJeeb9vr-fVogRJ63zLqK7uhw",
    "name": "Duckworth's Grill & Taphouse",
    "street_address": "4625 Piedmont Row Drive",
    "city": "Charlotte",
    "state": "NC",
    "zip_code": "28210",
    "latitude": 35.1523906,
    "longitude": -80.8395726,
    "website": "https://www.duckworths.com/",
    "category": "Restaurant",
    "types": "restaurant, point_of_interest, food, establishment"
  },
  {
    "place_id": "ChIJ_-TS6X6fVogRueLfR24M-N8",
    "name": "Midtown Tavern",
    "street_address": "1500 East 3rd Street",
    "city": "Charlotte",
    "state": "NC",
    "zip_code": "28204",
    "latitude": 35.2126659,
    "longitude": -80.8299076,
    "website": "https://www.midtowntaverncharlotte.com/",
    "category": "Bar & Restaurant",
    "types": "bar, restaurant, food, point_of_interest, establishment"
  },
  {
    "place_id": "ChIJT4G-6S6gVogRDKtYRo4QXDA",
    "name": "French Quarter Restaurant",
    "street_address": "321 South Church Street",
    "city": "Charlotte",
    "state": "NC",
    "zip_code": "28202",
    "latitude": 35.2260439,
    "longitude": -80.8470068,
    "website": "https://frenchquartercharlotte.com/",
    "category": "Bar & Restaurant",
    "types": "bar, restaurant, food, point_of_interest, establishment"
  },
  {
    "place_id": "ChIJ7cS_6yWgVogR-FZQSpuaiTg",
    "name": "Fleming\u2019s Prime Steakhouse & Wine Bar",
    "street_address": "210 East Trade Street",
    "city": "Charlotte",
    "state": "NC",
    "zip_code": "28202",
    "latitude": 35.2254936,
    "longitude": -80.8428465,
    "website": "https://www.flemingssteakhouse.com/Locations/NC/Charlotte?y_source=1_MTU1MDMxNjAtNzE1LWxvY2F0aW9uLndlYnNpdGU%3D",
    "category": "Bar & Restaurant",
    "types": "bar, restaurant, food, point_of_interest, establishment"
  },
  {
    "place_id": "ChIJbVK69IicVogRBxx1poCMeNM",
    "name": "Pineville Tavern",
    "street_address": "314 North Polk Street",
    "city": "Pineville",
    "state": "NC",
    "zip_code": "28134",
    "latitude": 35.088217,
    "longitude": -80.8861574,
    "website": null,
    "category": "Bar & Restaurant",
    "types": "bar, restaurant, food, point_of_interest, establishment"
  },
  {
    "place_id": "ChIJH7Kh9yidVogRak_EFEBXOR8",
    "name": "Blackfinn Ameripub Ballantyne",
    "street_address": "14825 Ballantyne Village Way",
    "city": "Charlotte",
    "state": "NC",
    "zip_code": "28277",
    "latitude": 35.05393609999999,
    "longitude": -80.85132779999999,
    "website": "http://www.blackfinnballantyne.com/",
    "category": "Bar & Restaurant",
    "types": "bar, restaurant, food, point_of_interest, establishment"
  },
  {
    "place_id": "ChIJ6a5WOZiDVogRXHgHmpQIMLg",
    "name": "The Club House Bites and Booze",
    "street_address": "16715 Orchard Stone Run",
    "city": "Charlotte",
    "state": "NC",
    "zip_code": "28277",
    "latitude": 35.0263546,
    "longitude": -80.83886009999999,
    "website": "http://www.theclubhouseclt.com/",
    "category": "Bar & Restaurant",
    "types": "restaurant, night_club, bar, point_of_interest, food, establishment"
  },
  {
    "place_id": "ChIJP6PUQlmdVogROUD2Fm6Pcqg",
    "name": "Nora Mac's",
    "street_address": "11318 North Community House Road",
    "city": "Charlotte",
    "state": "NC",
    "zip_code": "28277",
    "latitude": 35.0559403,
    "longitude": -80.8352287,
    "website": "https://noramacs.com/",
    "category": "Bar & Restaurant",
    "types": "bar, restaurant, food, point_of_interest, establishment"
  },
  {
    "place_id": "ChIJ49_m01mdVogRF5WgKfE1_wY",
    "name": "Bradshaw Social House",
    "street_address": "8440 Rea Road",
    "city": "Charlotte",
    "state": "NC",
    "zip_code": "28277",
    "latitude": 35.0534937,
    "longitude": -80.812961,
    "website": "http://bradshawsocialhouse.com/",
    "category": "Bar & Restaurant",
    "types": "bar, restaurant, food, point_of_interest, establishment"
  },
  {
    "place_id": "ChIJNcrZJgooVIgREKp4CrBerPE",
    "name": "DB's Tavern",
    "street_address": "8155 Ardrey Kell Road",
    "city": "Charlotte",
    "state": "NC",
    "zip_code": "28277",
    "latitude": 35.03875879999999,
    "longitude": -80.7932634,
    "website": "https://thedbstavern.com/",
    "category": "Bar & Restaurant",
    "types": "bar, restaurant, food, point_of_interest, establishment"
  },
  {
    "place_id": "ChIJTT5Io16dVogR10h_VOpTtEg",
    "name": "The Olde Mecklenburg Restaurant & Biergarten at Ballantyne",
    "street_address": "15025 Bowl Street",
    "city": "Charlotte",
    "state": "NC",
    "zip_code": "28277",
    "latitude": 35.0566421,
    "longitude": -80.84553489999999,
    "website": "https://ombbeer.com/",
    "category": "Bar & Restaurant",
    "types": "bar, restaurant, food, point_of_interest, establishment"
  },
  {
    "place_id": "ChIJQXuYTxidVogRUSG6ODV0Wy0",
    "name": "Hickory Tavern",
    "street_address": "12210 Copper Way",
    "city": "Charlotte",
    "state": "NC",
    "zip_code": "28277",
    "latitude": 35.0710969,
    "longitude": -80.8441722,
    "website": "https://www.thehickorytavern.com/",
    "category": "Bar & Restaurant",
    "types": "bar, restaurant, food, point_of_interest, establishment"
  },
  {
    "place_id": "ChIJbQ_SQludVogRx5uKkeh45hY",
    "name": "Tap and Vine Stonecrest",
    "street_address": "7828 Rea Road",
    "city": "Charlotte",
    "state": "NC",
    "zip_code": "28277",
    "latitude": 35.0611938,
    "longitude": -80.8171998,
    "website": "https://tapandvinenc.com/ballantyne/",
    "category": "Bar & Restaurant",
    "types": "bar, restaurant, food, point_of_interest, establishment"
  },
  {
    "place_id": "ChIJHchmYl6dVogRqUyOCnAqzVM",
    "name": "Firebirds Wood Fired Grill",
    "street_address": "7716 Rea Road",
    "city": "Charlotte",
    "state": "NC",
    "zip_code": "28277",
    "latitude": 35.0620819,
    "longitude": -80.8158083,
    "website": "https://firebirdsrestaurants.com/charlotte-stonecrest",
    "category": "Restaurant",
    "types": "restaurant, food, point_of_interest, establishment"
  },
  {
    "place_id": "ChIJXUtW0L2dVogRjSZvDhpHUE4",
    "name": "Papa's House CLT",
    "street_address": "710 Main Street",
    "city": "Pineville",
    "state": "NC",
    "zip_code": "28134",
    "latitude": 35.0892933,
    "longitude": -80.89594919999999,
    "website": "http://www.papashouseclt.com/",
    "category": "Restaurant",
    "types": "restaurant, food, point_of_interest, establishment"
  },
  {
    "place_id": "ChIJw1rEy6edVogRzql4B5velVI",
    "name": "The Garrison Cocktail Bar & Restaurant",
    "street_address": "314 Main Street",
    "city": "Pineville",
    "state": "NC",
    "zip_code": "28134",
    "latitude": 35.085808,
    "longitude": -80.8906073,
    "website": "https://www.thegarrisonnc.com/",
    "category": "Bar & Restaurant",
    "types": "restaurant, night_club, bar, point_of_interest, food, establishment"
  },
  {
    "place_id": "ChIJvwKv0WeDVogRissu_oP5WLc",
    "name": "Towne Tavern at Indian Land",
    "street_address": "9789 Charlotte Highway",
    "city": "Indian Land",
    "state": "SC",
    "zip_code": "29707",
    "latitude": 35.0044614,
    "longitude": -80.8565267,
    "website": "http://indianland.townetavernrestaurants.com/",
    "category": "Restaurant",
    "types": "restaurant, food, point_of_interest, establishment"
  },
  {
    "place_id": "ChIJUb5muispVIgRYIhsVrS6hDA",
    "name": "Burtons Grill & Bar",
    "street_address": "9816 Rea Road",
    "city": "Charlotte",
    "state": "NC",
    "zip_code": "28277",
    "latitude": 35.0354912,
    "longitude": -80.80610879999999,
    "website": "https://burtonsgrill.com/locations/nc/charlotte-blakeney/",
    "category": "Bar & Restaurant",
    "types": "bar, restaurant, food, point_of_interest, establishment"
  },
  {
    "place_id": "ChIJ--bx8vecVogR5szAlfma3wg",
    "name": "TAVERN 51",
    "street_address": "8700 Pineville-Matthews Road",
    "city": "Charlotte",
    "state": "NC",
    "zip_code": "28226",
    "latitude": 35.0897783,
    "longitude": -80.8670679,
    "website": null,
    "category": "Bar & Restaurant",
    "types": "bar, restaurant, food, point_of_interest, establishment"
  },
  {
    "place_id": "ChIJ6fPG6lidVogRuEDsLyT0kjk",
    "name": "Napa Bistro & Wine Bar - Stonecrest",
    "street_address": "7708 Rea Road",
    "city": "Charlotte",
    "state": "NC",
    "zip_code": "28277",
    "latitude": 35.0622519,
    "longitude": -80.815446,
    "website": "https://www.eatatnapa.com/",
    "category": "Bar & Restaurant",
    "types": "restaurant, bar, point_of_interest, food, establishment"
  },
  {
    "place_id": "ChIJl_ds4C6dVogRhOhR82Jj6BA",
    "name": "Bad Daddy's Burger Bar",
    "street_address": "15105 John J Delaney Drive",
    "city": "Charlotte",
    "state": "NC",
    "zip_code": "28277",
    "latitude": 35.0526797,
    "longitude": -80.8473976,
    "website": "https://www.baddaddysburgerbar.com/locations/bad-daddys-burger-bar-15",
    "category": "Bar & Restaurant",
    "types": "bar, restaurant, food, point_of_interest, establishment"
  },
  {
    "place_id": "ChIJuR0-_z2dVogRyic89Hsb9nI",
    "name": "Pineville Ice House Bar & Grill",
    "street_address": "400 Towne Centre Boulevard",
    "city": "Pineville",
    "state": "NC",
    "zip_code": "28134",
    "latitude": 35.0819141,
    "longitude": -80.8839223,
    "website": "https://www.pinevilleice.com/bar-and-grill",
    "category": "Bar & Restaurant",
    "types": "bar, restaurant, food, point_of_interest, establishment"
  },
  {
    "place_id": "ChIJNcYFOgKdVogRkJVQB-fdXsw",
    "name": "Tap and Vine Quail Hollow",
    "street_address": "8426 Park Road",
    "city": "Charlotte",
    "state": "NC",
    "zip_code": "28210",
    "latitude": 35.1173419,
    "longitude": -80.8568983,
    "website": "https://tapandvinenc.com/quail-hollow/",
    "category": "Restaurant",
    "types": "restaurant, food, point_of_interest, establishment"
  },
  {
    "place_id": "ChIJfYSzZGAnVIgR6MRg7IVo0B8",
    "name": "The Lodge: A Sportsman's Grill",
    "street_address": "7725 Colony Road",
    "city": "Charlotte",
    "state": "NC",
    "zip_code": "28226",
    "latitude": 35.10648,
    "longitude": -80.807582,
    "website": "http://www.lodgecharlotte.com/",
    "category": "Bar & Restaurant",
    "types": "restaurant, bar, food, point_of_interest, establishment"
  },
  {
    "place_id": "ChIJv_S0_aidVogRfNzlfEgedpo",
    "name": "Charbar no. 7",
    "street_address": "4130 Carmel Road",
    "city": "Charlotte",
    "state": "NC",
    "zip_code": "28226",
    "latitude": 35.11611989999999,
    "longitude": -80.8242648,
    "website": "http://charbar7.com/",
    "category": "Restaurant",
    "types": "restaurant, point_of_interest, food, establishment"
  },
  {
    "place_id": "ChIJuxIakCCfVogRLzmOprQpNjk",
    "name": "McKoy's Smokehouse and Saloon",
    "street_address": "4630 Old Pineville Road",
    "city": "Charlotte",
    "state": "NC",
    "zip_code": "28217",
    "latitude": 35.178752,
    "longitude": -80.8800219,
    "website": "http://mckoys.net/",
    "category": "Restaurant",
    "types": "restaurant, food, point_of_interest, establishment"
  },
  {
    "place_id": "ChIJ2zlDlyOfVogR7wSibZVclIc",
    "name": "The Olde Mecklenburg Brewery & Biergarten",
    "street_address": "4150 Yancey Road",
    "city": "Charlotte",
    "state": "NC",
    "zip_code": "28217",
    "latitude": 35.18729,
    "longitude": -80.88175369999999,
    "website": "https://www.ombbeer.com/",
    "category": "Bar & Restaurant",
    "types": "bar, restaurant, point_of_interest, food, establishment"
  },
  {
    "place_id": "ChIJtXBMMQefVogRbFvPgeS1GiQ",
    "name": "Legion Brewing South Park",
    "street_address": "5610 Carnegie Boulevard",
    "city": "Charlotte",
    "state": "NC",
    "zip_code": "28209",
    "latitude": 35.1539213,
    "longitude": -80.8385903,
    "website": "https://southpark.legionbrewing.com/",
    "category": "Bar & Restaurant",
    "types": "bar, restaurant, point_of_interest, food, establishment"
  },
  {
    "place_id": "ChIJSQ1s6gsdVIgRgmPh0mbRLNI",
    "name": "Golden Owl Tavern",
    "street_address": "9041 Robert D. Snyder Road",
    "city": "Charlotte",
    "state": "NC",
    "zip_code": "28262",
    "latitude": 35.3102559,
    "longitude": -80.74465049999999,
    "website": "https://www.goldenowltavern.com/",
    "category": "Bar & Restaurant",
    "types": "restaurant, bar, food, point_of_interest, establishment"
  },
  {
    "place_id": "ChIJT-XTUxQcVIgRclC8ej9oWB0",
    "name": "Flying Saucer Draught Emporium",
    "street_address": "9605 North Tryon Street",
    "city": "Charlotte",
    "state": "NC",
    "zip_code": "28262",
    "latitude": 35.31671819999999,
    "longitude": -80.74052669999999,
    "website": "http://www.beerknurd.com/locations/charlotte-flying-saucer",
    "category": "Bar & Restaurant",
    "types": "restaurant, bar, food, point_of_interest, establishment"
  },
  {
    "place_id": "ChIJ_7a5WzscVIgRM3lXdHYyhoE",
    "name": "Boardwalk Billy's Raw Bar and Ribs",
    "street_address": "9005 J M Keynes Drive",
    "city": "Charlotte",
    "state": "NC",
    "zip_code": "28262",
    "latitude": 35.3106616,
    "longitude": -80.7495888,
    "website": "https://university.boardwalkbillys.com/?y_source=1_NDIwOTA0MDQtNzE1LWxvY2F0aW9uLndlYnNpdGU%3D#",
    "category": "Bar & Restaurant",
    "types": "bar, restaurant, food, point_of_interest, establishment"
  },
  {
    "place_id": "ChIJJ6-6riYcVIgRIaAhkuACohI",
    "name": "Picasso's Sports Caf\u00e9",
    "street_address": "230 East W.T. Harris Boulevard",
    "city": "Charlotte",
    "state": "NC",
    "zip_code": "28262",
    "latitude": 35.3035896,
    "longitude": -80.7491079,
    "website": "https://www.picassosportscafe.com/",
    "category": "Bar & Restaurant",
    "types": "meal_takeaway, bar, restaurant, food, point_of_interest, establishment"
  },
  {
    "place_id": "ChIJUccSCW0bVIgR-hys5MD5dg4",
    "name": "Nick and Mike Bar and Grill",
    "street_address": "11524 North Tryon Street",
    "city": "Charlotte",
    "state": "NC",
    "zip_code": "28262",
    "latitude": 35.33410339999999,
    "longitude": -80.7133592,
    "website": "https://www.nickandmikebarandgrill.com/menu",
    "category": "Bar & Restaurant",
    "types": "bar, restaurant, food, point_of_interest, establishment"
  },
  {
    "place_id": "ChIJY7Z9wyQcVIgR2Ad1Ps9Cs2c",
    "name": "Edgewater Bar & Grille",
    "street_address": "8629 J M Keynes Drive",
    "city": "Charlotte",
    "state": "NC",
    "zip_code": "28262",
    "latitude": 35.3090063,
    "longitude": -80.7505412,
    "website": "http://www.edgewaterbarandgrille.com/",
    "category": "Bar & Restaurant",
    "types": "bar, restaurant, food, point_of_interest, establishment"
  },
  {
    "place_id": "ChIJJYaneyUcVIgRB3dh-sdC_5Q",
    "name": "TGI Fridays",
    "street_address": "409 West W.T.Harris Boulevard",
    "city": "Charlotte",
    "state": "NC",
    "zip_code": "28262",
    "latitude": 35.3078352,
    "longitude": -80.7542552,
    "website": "https://locations.tgifridays.com/nc/charlotte/409-w-wt-harris-blvd.html",
    "category": "Bar & Restaurant",
    "types": "restaurant, bar, point_of_interest, food, establishment"
  },
  {
    "place_id": "ChIJMYZt3MUdVIgRvn_U2jPReC0",
    "name": "LongHorn Steakhouse",
    "street_address": "8115 Mallard Creek Road",
    "city": "Charlotte",
    "state": "NC",
    "zip_code": "28262",
    "latitude": 35.317532,
    "longitude": -80.77833299999999,
    "website": "https://www.longhornsteakhouse.com/locations/nc/charlotte/university-charlotte/5136?cmpid=br:lh_ag:ie_ch:loc_ca:LHGMB_sn:gmb_gt:charlotte-nc-5136_pl:locurl_rd:1098",
    "category": "Bar & Restaurant",
    "types": "bar, meal_takeaway, restaurant, food, point_of_interest, establishment"
  },
  {
    "place_id": "ChIJa6J_qJUfVIgR_rt8lT0_zNY",
    "name": "NC Tavern",
    "street_address": "8225 University City Boulevard",
    "city": "Charlotte",
    "state": "NC",
    "zip_code": "28213",
    "latitude": 35.2951369,
    "longitude": -80.7465151,
    "website": "http://nctavernbar.com/",
    "category": "Bar & Restaurant",
    "types": "bar, restaurant, food, point_of_interest, establishment"
  },
  {
    "place_id": "ChIJS21dgNYfVIgRhT1z1oNUVKo",
    "name": "1st & Goal",
    "street_address": "7801 University City Boulevard",
    "city": "Charlotte",
    "state": "NC",
    "zip_code": "28213",
    "latitude": 35.29268419999999,
    "longitude": -80.75214629999999,
    "website": "https://1standgoalsportsbar.com/",
    "category": "Restaurant",
    "types": "restaurant, food, point_of_interest, establishment"
  },
  {
    "place_id": "ChIJPXtMwJ0fVIgRYzF69ieZdw8",
    "name": "Legacy Lounge Clt",
    "street_address": "4701 North Tryon Street",
    "city": "Charlotte",
    "state": "NC",
    "zip_code": "28213",
    "latitude": 35.2588684,
    "longitude": -80.78744300000001,
    "website": null,
    "category": "Bar & Restaurant",
    "types": "night_club, bar, restaurant, food, point_of_interest, establishment"
  },
  {
    "place_id": "ChIJUc9s64ceVIgRtifbERb8rT8",
    "name": "Culver\u2019s",
    "street_address": "7031 University City Boulevard",
    "city": "Charlotte",
    "state": "NC",
    "zip_code": "28262",
    "latitude": 35.2905901,
    "longitude": -80.76474139999999,
    "website": "http://www.culvers.com/restaurants/charlotte-nc-university-city-blvd/?utm_source=Google&utm_medium=Maps&utm_campaign=Google+Places",
    "category": "Restaurant",
    "types": "restaurant, food, point_of_interest, store, establishment"
  },
  {
    "place_id": "ChIJm0EKEm4fVIgRQ2OtlE-bJO8",
    "name": "The Juicy Crab",
    "street_address": "5700 University Pointe Boulevard",
    "city": "Charlotte",
    "state": "NC",
    "zip_code": "28262",
    "latitude": 35.29692,
    "longitude": -80.7570375,
    "website": "https://www.thejuicycrab.com/",
    "category": "Restaurant",
    "types": "restaurant, food, point_of_interest, establishment"
  },
  {
    "place_id": "ChIJuf438lipVogRKT9w8Hz8Oe0",
    "name": "Harp and Crown LKN",
    "street_address": "19930 West Catawba Avenue",
    "city": "Cornelius",
    "state": "NC",
    "zip_code": "28031",
    "latitude": 35.4813,
    "longitude": -80.8844,
    "website": "https://harpandcrownlkn.com/",
    "category": "Bar & Restaurant",
    "types": "restaurant, bar, point_of_interest, food, establishment"
  },
  {
    "place_id": "ChIJL-hyER2pVogRq_MBpbX9OMM",
    "name": "Duckworth's Grill & Taphouse",
    "street_address": "16609 Statesville Road",
    "city": "Huntersville",
    "state": "NC",
    "zip_code": "28078",
    "latitude": 35.4401211,
    "longitude": -80.8672548,
    "website": "https://www.duckworths.com/location/duckworths-huntersville/",
    "category": "Bar & Restaurant",
    "types": "restaurant, night_club, bar, point_of_interest, food, establishment"
  },
  {
    "place_id": "ChIJYZjIHVGpVogRlZgSOhE9zQI",
    "name": "Jack's Corner Tap",
    "street_address": "8301 Magnolia Estates Drive",
    "city": "Cornelius",
    "state": "NC",
    "zip_code": "28031",
    "latitude": 35.47643009999999,
    "longitude": -80.8905446,
    "website": "http://jackscornertap.com/",
    "category": "Bar & Restaurant",
    "types": "bar, restaurant, food, point_of_interest, establishment"
  },
  {
    "place_id": "ChIJW2QSi0mqVogRbN3_X4t-ols",
    "name": "Brickhouse Tavern",
    "street_address": "209 Delburg Street",
    "city": "Davidson",
    "state": "NC",
    "zip_code": "28036",
    "latitude": 35.5037613,
    "longitude": -80.8483352,
    "website": "https://brickhousetavern.com/",
    "category": "Bar & Restaurant",
    "types": "bar, restaurant, food, point_of_interest, establishment"
  },
  {
    "place_id": "ChIJSQNxRdOpVogRi3dj4yp_PMU",
    "name": "Ed's Tavern LKN",
    "street_address": "17044 Kenton Drive",
    "city": "Cornelius",
    "state": "NC",
    "zip_code": "28031",
    "latitude": 35.4483343,
    "longitude": -80.890059,
    "website": "http://edstavernlkn.com/",
    "category": "Restaurant",
    "types": "restaurant, food, point_of_interest, establishment"
  },
  {
    "place_id": "ChIJEXtDvf6pVogR7g1wKDHnc_E",
    "name": "Link & Pin NorthCross",
    "street_address": "9723 Sam Furr Road",
    "city": "Huntersville",
    "state": "NC",
    "zip_code": "28078",
    "latitude": 35.4437113,
    "longitude": -80.86476739999999,
    "website": "https://www.linkandpin.com/",
    "category": "Bar & Restaurant",
    "types": "night_club, bar, restaurant, food, point_of_interest, establishment"
  },
  {
    "place_id": "ChIJK0GzbiepVogRIzxOx1jJdWo",
    "name": "Arnies Tavern",
    "street_address": "16500 Birkdale Commons Parkway",
    "city": "Huntersville",
    "state": "NC",
    "zip_code": "28078",
    "latitude": 35.440952,
    "longitude": -80.88226279999999,
    "website": null,
    "category": "Bar & Restaurant",
    "types": "restaurant, bar, food, point_of_interest, establishment"
  },
  {
    "place_id": "ChIJebpzkl-pVogR_dEh7ALAVks",
    "name": "H2 Public House",
    "street_address": "19906 North Cove Road",
    "city": "Cornelius",
    "state": "NC",
    "zip_code": "28031",
    "latitude": 35.4794685,
    "longitude": -80.8931616,
    "website": "https://www.h2publichouse.com/",
    "category": "Bar & Restaurant",
    "types": "bar, restaurant, food, point_of_interest, establishment"
  },
  {
    "place_id": "ChIJYZjIHVGpVogReMXV-LVsGp0",
    "name": "Al's Bar and Grille",
    "street_address": "8321 Magnolia Estates Drive",
    "city": "Cornelius",
    "state": "NC",
    "zip_code": "28031",
    "latitude": 35.4748139,
    "longitude": -80.88905559999999,
    "website": "https://www.alsbarandgrille.com/",
    "category": "Bar & Restaurant",
    "types": "bar, restaurant, food, point_of_interest, establishment"
  },
  {
    "place_id": "ChIJ9Vg5QyapVogRWpIE3WNX7do",
    "name": "Hickory Tavern",
    "street_address": "9526 Birkdale Crossing Drive",
    "city": "Huntersville",
    "state": "NC",
    "zip_code": "28078",
    "latitude": 35.4434592,
    "longitude": -80.886121,
    "website": "https://www.thehickorytavern.com/",
    "category": "Bar & Restaurant",
    "types": "bar, restaurant, food, point_of_interest, establishment"
  },
  {
    "place_id": "ChIJJSAka0epVogRwHZdAVJXmh8",
    "name": "LakeHouse Wine Bar & Grill",
    "street_address": "18665 Harborside Drive",
    "city": "Cornelius",
    "state": "NC",
    "zip_code": "28031",
    "latitude": 35.46441470000001,
    "longitude": -80.8934282,
    "website": "https://lakehouselkn.com/",
    "category": "Restaurant",
    "types": "restaurant, food, point_of_interest, establishment"
  },
  {
    "place_id": "ChIJRcKBZCGpVogR46n8Q7--Sek",
    "name": "The Kilted Buffalo",
    "street_address": "8625 Townley Road",
    "city": "Huntersville",
    "state": "NC",
    "zip_code": "28078",
    "latitude": 35.4444236,
    "longitude": -80.8800839,
    "website": "https://thekiltedbuffalo.com/",
    "category": "Bar & Restaurant",
    "types": "bar, hair_care, restaurant, point_of_interest, food, establishment"
  },
  {
    "place_id": "ChIJ87Qs-2ioVogR4-b8PFS6OdU",
    "name": "131 MAIN Restaurant",
    "street_address": "17830 Statesville Road",
    "city": "Cornelius",
    "state": "NC",
    "zip_code": "28031",
    "latitude": 35.4577889,
    "longitude": -80.8680906,
    "website": "https://www.131-main.com/lake-norman/",
    "category": "Restaurant",
    "types": "restaurant, food, point_of_interest, establishment"
  },
  {
    "place_id": "ChIJHYS_v2yrVogRYhcUskPuG8w",
    "name": "Scratch Kitchen",
    "street_address": "138 Village View Drive",
    "city": "Mooresville",
    "state": "NC",
    "zip_code": "28115",
    "latitude": 35.5270242,
    "longitude": -80.8668801,
    "website": "https://www.scratchkitchenlangtree.com/",
    "category": "Bar & Restaurant",
    "types": "bar, restaurant, food, point_of_interest, establishment"
  },
  {
    "place_id": "ChIJS3qYNoSrVogRGL8_8AsQu9s",
    "name": "Cool Fish",
    "street_address": "21726 Catawba Avenue",
    "city": "Cornelius",
    "state": "NC",
    "zip_code": "28031",
    "latitude": 35.4813035,
    "longitude": -80.8558101,
    "website": "https://www.coolfishlkn.com/",
    "category": "Bar & Restaurant",
    "types": "restaurant, meal_takeaway, bar, food, point_of_interest, establishment"
  },
  {
    "place_id": "ChIJYXcNu1-pVogRIA-ehQcto5g",
    "name": "Mac's Speed Shop",
    "street_address": "19601 Liverpool Parkway",
    "city": "Cornelius",
    "state": "NC",
    "zip_code": "28031",
    "latitude": 35.4808419,
    "longitude": -80.8784676,
    "website": "http://www.macspeedshop.com/",
    "category": "Bar & Restaurant",
    "types": "bar, restaurant, food, point_of_interest, establishment"
  },
  {
    "place_id": "ChIJB5U2w5urVogRbE8ZSxotdBA",
    "name": "Moyers Lakeside Eatery",
    "street_address": "119 Landings Drive",
    "city": "Mooresville",
    "state": "NC",
    "zip_code": "28117",
    "latitude": 35.5272241,
    "longitude": -80.8678654,
    "website": "https://www.moyerslakeside.com/",
    "category": "Restaurant",
    "types": "restaurant, point_of_interest, food, establishment"
  },
  {
    "place_id": "ChIJD6hBtbmrVogRiqe28etxKHc",
    "name": "North Harbor Club",
    "street_address": "100 North Harbor Place",
    "city": "Davidson",
    "state": "NC",
    "zip_code": "28036",
    "latitude": 35.5063166,
    "longitude": -80.8669568,
    "website": "http://www.northharborclub.com/",
    "category": "Restaurant",
    "types": "restaurant, food, point_of_interest, establishment"
  },
  {
    "place_id": "ChIJAQBcGDSqVogR-GvrKlAb6lI",
    "name": "Mandolino's Artisan Pizza",
    "street_address": "208 South Main Street",
    "city": "Davidson",
    "state": "NC",
    "zip_code": "28036",
    "latitude": 35.4979741,
    "longitude": -80.84939039999999,
    "website": "http://www.mandolinospizza.com/",
    "category": "Bar & Restaurant",
    "types": "bar, restaurant, point_of_interest, food, establishment"
  },
  {
    "place_id": "ChIJkTi10NWrVogR5J4d0dECsIo",
    "name": "Maola's Pizzeria & Restaurant",
    "street_address": "20129 North Main Street",
    "city": "Cornelius",
    "state": "NC",
    "zip_code": "28031",
    "latitude": 35.4833256,
    "longitude": -80.859667,
    "website": "http://maolas.com/",
    "category": "Restaurant",
    "types": "restaurant, point_of_interest, food, establishment"
  }
]