[
  {
    "place_id": "ChIJ2WUVRK8sDogRCez7TBpL278",
    "name": "Sweetwater Tavern & Grille (Michigan Plaza - Chicago)",
    "street_address": "225 North Michigan Avenue",
    "city": "Chicago",
    "state": "IL",
    "zip_code": "60601",
    "latitude": 41.88656530000001,
    "longitude": -87.62422749999999,
    "website": "http://www.sweetwatertavernandgrille.com/",
    "category": "Bar & Restaurant",
    "types": "restaurant, food, bar, point_of_interest, establishment"
  },
  {
    "place_id": "ChIJGQCBgKQsDogRP2e8Phkx0Ts",
    "name": "Miller's Pub",
    "street_address": "134 South Wabash Avenue",
    "city": "Chicago",
    "state": "IL",
    "zip_code": "60603",
    "latitude": 41.8798217,
    "longitude": -87.62634829999999,
    "website": "http://www.millerspub.com/",
    "category": "Bar & Restaurant",
    "types": "restaurant, bar, food, point_of_interest, establishment"
  },
  {
    "place_id": "ChIJW80a0KgtDogRQnr2pn9IkH4",
    "name": "No Vacancy",
    "street_address": "509 North Wells Street",
    "city": "Chicago",
    "state": "IL",
    "zip_code": "60654",
    "latitude": 41.8911525,
    "longitude": -87.63369999999999,
    "website": "https://www.dontnvus.com/",
    "category": "Bar & Restaurant",
    "types": "restaurant, bar, point_of_interest, food, establishment"
  },
  {
    "place_id": "ChIJmX3iRrUsDogRjMUU6zqjDoU",
    "name": "The Green Door Tavern",
    "street_address": "678 North Orleans Street",
    "city": "Chicago",
    "state": "IL",
    "zip_code": "60654",
    "latitude": 41.89462820000001,
    "longitude": -87.6374062,
    "website": "https://www.greendoorchicago.com/",
    "category": "Bar & Restaurant",
    "types": "restaurant, night_club, bar, food, point_of_interest, establishment"
  },
  {
    "place_id": "ChIJs57fXLAsDogRA23fjf_Aqu8",
    "name": "State and Lake Chicago Tavern",
    "street_address": "201 North State Street",
    "city": "Chicago",
    "state": "IL",
    "zip_code": "60601",
    "latitude": 41.8860414,
    "longitude": -87.62762330000001,
    "website": "https://stateandlakechicago.com/?y_source=1_MTU0MDUzNDItNzE1LWxvY2F0aW9uLndlYnNpdGU%3D",
    "category": "Restaurant",
    "types": "restaurant, food, point_of_interest, establishment"
  },
  {
    "place_id": "ChIJqYQOva8sDogRhObdaAScJAc",
    "name": "Emerald Loop Bar & Grill",
    "street_address": "216 North Wabash Avenue",
    "city": "Chicago",
    "state": "IL",
    "zip_code": "60601",
    "latitude": 41.88637019999999,
    "longitude": -87.6265311,
    "website": "http://www.emeraldloop.com/",
    "category": "Bar & Restaurant",
    "types": "bar, restaurant, point_of_interest, food, establishment"
  },
  {
    "place_id": "ChIJ20IN_rEsDogRzrIp-_d1lUk",
    "name": "Theory",
    "street_address": "9 West Hubbard Street",
    "city": "Chicago",
    "state": "IL",
    "zip_code": "60654",
    "latitude": 41.8899304,
    "longitude": -87.6285525,
    "website": "http://www.theorychicago.com/",
    "category": "Bar & Restaurant",
    "types": "bar, night_club, restaurant, point_of_interest, food, establishment"
  },
  {
    "place_id": "ChIJHeQm7qosDogRBoyLIHx58yQ",
    "name": "Timothy O'Toole's Pub Chicago",
    "street_address": "622 North Fairbanks Court",
    "city": "Chicago",
    "state": "IL",
    "zip_code": "60611",
    "latitude": 41.89325210000001,
    "longitude": -87.6204905,
    "website": "http://www.timothyotooles.com/chicago/",
    "category": "Bar & Restaurant",
    "types": "bar, restaurant, food, point_of_interest, establishment"
  },
  {
    "place_id": "ChIJIZsKeFUrDogR6sdXMWqQsFk",
    "name": "D4 Irish Pub & Cafe",
    "street_address": "East Grand Avenue",
    "city": "Chicago",
    "state": "IL",
    "zip_code": "60611",
    "latitude": 41.8921031,
    "longitude": -87.6191022,
    "website": "http://www.d4pub.com/",
    "category": "Bar & Restaurant",
    "types": "bar, restaurant, point_of_interest, food, establishment"
  },
  {
    "place_id": "ChIJIbAP574sDogR0YxYM4vAkLE",
    "name": "Kindling | Downtown Cookout & Cocktails",
    "street_address": "202 South Franklin Street",
    "city": "Chicago",
    "state": "IL",
    "zip_code": "60606",
    "latitude": 41.8791527,
    "longitude": -87.63548120000002,
    "website": "https://www.kindlingchicago.com/",
    "category": "Bar & Restaurant",
    "types": "bar, restaurant, point_of_interest, food, establishment"
  },
  {
    "place_id": "ChIJT_A3rbgsDogREjTZZkQe3_E",
    "name": "South Branch Tavern & Grille (The Loop - Chicago)",
    "street_address": "100 South Wacker Drive",
    "city": "Chicago",
    "state": "IL",
    "zip_code": "60606",
    "latitude": 41.8804843,
    "longitude": -87.6377693,
    "website": "http://www.southbranchchicago.com/",
    "category": "Bar & Restaurant",
    "types": "bar, restaurant, food, point_of_interest, establishment"
  },
  {
    "place_id": "ChIJq2m9AUwtDogRZqQOta19PgA",
    "name": "The Embassy Public House",
    "street_address": "1435 West Taylor Street",
    "city": "Chicago",
    "state": "IL",
    "zip_code": "60607",
    "latitude": 41.86910150000001,
    "longitude": -87.6630266,
    "website": "http://www.theembassypublichouse.com/",
    "category": "Bar & Restaurant",
    "types": "bar, restaurant, point_of_interest, food, establishment"
  },
  {
    "place_id": "ChIJG_5DY6ssDogREv0qsxlGEec",
    "name": "Copper Fox Gastropub",
    "street_address": "155 East Ontario Street",
    "city": "Chicago",
    "state": "IL",
    "zip_code": "60611",
    "latitude": 41.8931149,
    "longitude": -87.6229269,
    "website": "https://www.copperfoxchicago.com/?utm_source=google&utm_medium=organic&utm_campaign=business_listing",
    "category": "Bar & Restaurant",
    "types": "restaurant, bar, food, point_of_interest, establishment"
  },
  {
    "place_id": "ChIJF8TLr5csDogRo_Kq9TvdjHo",
    "name": "First Draft",
    "street_address": "649 South Clark Street",
    "city": "Chicago",
    "state": "IL",
    "zip_code": "60605",
    "latitude": 41.8734567,
    "longitude": -87.6305,
    "website": "https://www.firstdraftchicago.com/",
    "category": "Bar & Restaurant",
    "types": "restaurant, bar, food, point_of_interest, establishment"
  },
  {
    "place_id": "ChIJ_4v36k_TD4gRtmUioIQSx4Q",
    "name": "Butch McGuire's",
    "street_address": "20 West Division Street",
    "city": "Chicago",
    "state": "IL",
    "zip_code": "60610",
    "latitude": 41.9040574,
    "longitude": -87.6296357,
    "website": "https://butchmcguires.com/",
    "category": "Bar & Restaurant",
    "types": "restaurant, bar, food, point_of_interest, establishment"
  },
  {
    "place_id": "ChIJ6QPIAlPTD4gRvwOcakYkLXE",
    "name": "Pippin\u2019s Tavern",
    "street_address": "39 East Chicago Avenue",
    "city": "Chicago",
    "state": "IL",
    "zip_code": "60611",
    "latitude": 41.8964793,
    "longitude": -87.62662499999999,
    "website": "https://pippinstavern.com/",
    "category": "Bar & Restaurant",
    "types": "bar, restaurant, point_of_interest, food, establishment"
  },
  {
    "place_id": "ChIJD1xaCaMsDogRbB-jrzj-KCs",
    "name": "Exchequer Restaurant & Pub",
    "street_address": "226 South Wabash Avenue",
    "city": "Chicago",
    "state": "IL",
    "zip_code": "60604",
    "latitude": 41.8787244,
    "longitude": -87.6265671,
    "website": "http://www.exchequerpub.com/",
    "category": "Bar & Restaurant",
    "types": "bar, restaurant, food, point_of_interest, establishment"
  },
  {
    "place_id": "ChIJiWe7DaYsDogREwDDFjcd9pk",
    "name": "Kaiser Tiger",
    "street_address": "1415 West Randolph Street",
    "city": "Chicago",
    "state": "IL",
    "zip_code": "60607",
    "latitude": 41.8838854,
    "longitude": -87.663,
    "website": "https://www.kaisertiger.com/",
    "category": "Bar & Restaurant",
    "types": "restaurant, food, bar, point_of_interest, establishment"
  },
  {
    "place_id": "ChIJY1wQ3LQsDogR9klvNGYb1Cg",
    "name": "The Franklin Room",
    "street_address": "675 North Franklin Street",
    "city": "Chicago",
    "state": "IL",
    "zip_code": "60654",
    "latitude": 41.8944251,
    "longitude": -87.6354612,
    "website": "https://www.franklinroom.com/",
    "category": "Bar & Restaurant",
    "types": "bar, restaurant, point_of_interest, food, establishment"
  },
  {
    "place_id": "ChIJS9DQYLwsDogRC4rmbqrg-Lg",
    "name": "Elephant & Castle",
    "street_address": "111 West Adams Street",
    "city": "Chicago",
    "state": "IL",
    "zip_code": "60603",
    "latitude": 41.8793112,
    "longitude": -87.6314087,
    "website": "https://www.elephantcastle.com/en/locations/il/chicago/111-west-adams-street",
    "category": "Restaurant",
    "types": "restaurant, food, point_of_interest, establishment"
  },
  {
    "place_id": "ChIJk3gcow3TD4gRG-uhUeIa1BE",
    "name": "The Galway Arms",
    "street_address": "2442 North Clark Street",
    "city": "Chicago",
    "state": "IL",
    "zip_code": "60614",
    "latitude": 41.9266257,
    "longitude": -87.6413218,
    "website": "http://www.galwayarms.com/",
    "category": "Bar & Restaurant",
    "types": "bar, restaurant, point_of_interest, food, establishment"
  },
  {
    "place_id": "ChIJm_qTZ3UtDogRoCSuyTUMkmI",
    "name": "Madison Tavern",
    "street_address": "500 West Madison Street",
    "city": "Chicago",
    "state": "IL",
    "zip_code": "60661",
    "latitude": 41.88203730000001,
    "longitude": -87.6400371,
    "website": "https://www.madisontavern.com/",
    "category": "Bar & Restaurant",
    "types": "bar, restaurant, food, point_of_interest, establishment"
  },
  {
    "place_id": "ChIJRUJDa6osDogRLLjdnY-rPKw",
    "name": "Monarch & Lion",
    "street_address": "302 East Illinois Street",
    "city": "Chicago",
    "state": "IL",
    "zip_code": "60611",
    "latitude": 41.891153,
    "longitude": -87.61997400000001,
    "website": "https://www.monarchandlion.com/",
    "category": "Bar & Restaurant",
    "types": "restaurant, bar, food, point_of_interest, establishment"
  },
  {
    "place_id": "ChIJS-H_g8gsDogREqE0ZhW6Z50",
    "name": "New Line Tavern",
    "street_address": "201 North Clinton Street",
    "city": "Chicago",
    "state": "IL",
    "zip_code": "60661",
    "latitude": 41.8860118,
    "longitude": -87.64110339999999,
    "website": "http://newlinetavern.com/",
    "category": "Bar & Restaurant",
    "types": "bar, restaurant, food, point_of_interest, establishment"
  },
  {
    "place_id": "ChIJZ6EtAq4sDogR1HFg0MbZe6g",
    "name": "Mother Hubbard's Sports Pub",
    "street_address": "5 West Hubbard Street",
    "city": "Chicago",
    "state": "IL",
    "zip_code": "60654",
    "latitude": 41.88992289999999,
    "longitude": -87.6283507,
    "website": "http://www.motherhubbardschicago.com/",
    "category": "Bar & Restaurant",
    "types": "bar, restaurant, food, point_of_interest, establishment"
  },
  {
    "place_id": "ChIJ-XdXNKUsDogRW-m5g5Siao8",
    "name": "The Dearborn",
    "street_address": "145 North Dearborn Street",
    "city": "Chicago",
    "state": "IL",
    "zip_code": "60602",
    "latitude": 41.8843373,
    "longitude": -87.6292766,
    "website": "http://www.thedearborntavern.com/",
    "category": "Bar & Restaurant",
    "types": "bar, restaurant, point_of_interest, food, establishment"
  },
  {
    "place_id": "ChIJLa9qbkbTD4gR6to_2hEbbN0",
    "name": "Old Town Pub",
    "street_address": "1339 North Wells Street",
    "city": "Chicago",
    "state": "IL",
    "zip_code": "60610",
    "latitude": 41.9068928,
    "longitude": -87.634316,
    "website": "https://www.oldtownpubchicago.com/",
    "category": "Bar & Restaurant",
    "types": "restaurant, bar, food, point_of_interest, establishment"
  },
  {
    "place_id": "ChIJC9cVJNksDogRD02Xf30121U",
    "name": "The CrossRoads Bar & Grill",
    "street_address": "1120 West Madison Street",
    "city": "Chicago",
    "state": "IL",
    "zip_code": "60607",
    "latitude": 41.88188700000001,
    "longitude": -87.65531539999999,
    "website": "http://thecrossroadschicago.com/",
    "category": "Bar & Restaurant",
    "types": "restaurant, bar, food, point_of_interest, establishment"
  },
  {
    "place_id": "ChIJMWe7RL4sDogR3KxP_dZRLg8",
    "name": "Franklin Tap",
    "street_address": "325 South Franklin Street",
    "city": "Chicago",
    "state": "IL",
    "zip_code": "60606",
    "latitude": 41.8773351,
    "longitude": -87.63495549999999,
    "website": "https://www.franklintap.com/",
    "category": "Bar & Restaurant",
    "types": "bar, restaurant, food, point_of_interest, establishment"
  },
  {
    "place_id": "ChIJozC_ST0tDogR6NuevG697Ac",
    "name": "Park Tavern",
    "street_address": "1645 West Jackson Boulevard",
    "city": "Chicago",
    "state": "IL",
    "zip_code": "60612",
    "latitude": 41.877347,
    "longitude": -87.6686464,
    "website": "http://www.parktavernchicago.com/",
    "category": "Bar & Restaurant",
    "types": "bar, restaurant, point_of_interest, food, establishment"
  },
  {
    "place_id": "ChIJrTfew1HTD4gRX-yR9FosV9E",
    "name": "LUXBAR",
    "street_address": "18 East Bellevue Place",
    "city": "Chicago",
    "state": "IL",
    "zip_code": "60611",
    "latitude": 41.9017752,
    "longitude": -87.627623,
    "website": "https://www.luxbar.com/",
    "category": "Bar & Restaurant",
    "types": "restaurant, bar, food, point_of_interest, establishment"
  },
  {
    "place_id": "ChIJlS4cMDUtDogRs6G4vrzuSXQ",
    "name": "Cleos Bar and Grill",
    "street_address": "1935 West Chicago Avenue",
    "city": "Chicago",
    "state": "IL",
    "zip_code": "60622",
    "latitude": 41.8958056,
    "longitude": -87.676,
    "website": "http://www.cleospub.com/",
    "category": "Bar & Restaurant",
    "types": "bar, restaurant, point_of_interest, food, establishment"
  },
  {
    "place_id": "ChIJxX302sgsDogRSGh85i6fXPk",
    "name": "Jefferson Tap & Grille",
    "street_address": "325 North Jefferson Street",
    "city": "Chicago",
    "state": "IL",
    "zip_code": "60661",
    "latitude": 41.88753690000001,
    "longitude": -87.6425399,
    "website": "http://www.jeffersontap.com/",
    "category": "Bar & Restaurant",
    "types": "bar, restaurant, point_of_interest, food, establishment"
  },
  {
    "place_id": "ChIJ8TzYZq8sDogReHU45CcrI7Y",
    "name": "Broken English Taco Pub",
    "street_address": "75 East Lake Street",
    "city": "Chicago",
    "state": "IL",
    "zip_code": "60601",
    "latitude": 41.88561230000001,
    "longitude": -87.6251039,
    "website": "https://www.tacopub.com/",
    "category": "Bar & Restaurant",
    "types": "bar, restaurant, food, point_of_interest, establishment"
  },
  {
    "place_id": "ChIJGciEo3ktDogRbwTFEeuIJrk",
    "name": "Fatpour Tap Works - McCormick",
    "street_address": "2206 South Indiana Avenue",
    "city": "Chicago",
    "state": "IL",
    "zip_code": "60616",
    "latitude": 41.8526847,
    "longitude": -87.6224282,
    "website": "https://fatpourtapworks.com/mccormick",
    "category": "Bar & Restaurant",
    "types": "restaurant, bar, point_of_interest, food, establishment"
  },
  {
    "place_id": "ChIJO0zgvw3TD4gRtEez2q5Y-EA",
    "name": "Armitage Alehouse",
    "street_address": "1000 West Armitage Avenue",
    "city": "Chicago",
    "state": "IL",
    "zip_code": "60614",
    "latitude": 41.91835319999999,
    "longitude": -87.6536,
    "website": "https://armitagealehouse.com/",
    "category": "Restaurant",
    "types": "restaurant, point_of_interest, food, establishment"
  },
  {
    "place_id": "ChIJb3InH07TD4gR9Nm83yII4YE",
    "name": "Dublin's Bar & Grill",
    "street_address": "1050 North State Street",
    "city": "Chicago",
    "state": "IL",
    "zip_code": "60610",
    "latitude": 41.9016667,
    "longitude": -87.6286111,
    "website": "https://dublinschicago.com/",
    "category": "Bar & Restaurant",
    "types": "bar, restaurant, food, point_of_interest, establishment"
  },
  {
    "place_id": "ChIJ_YiNCb4sDogRQlaMeRMQ8Xk",
    "name": "O'Neil's on Wells",
    "street_address": "411 South Wells Street",
    "city": "Chicago",
    "state": "IL",
    "zip_code": "60607",
    "latitude": 41.8764494,
    "longitude": -87.6335063,
    "website": "http://oneilsonwells.com/",
    "category": "Bar & Restaurant",
    "types": "bar, restaurant, point_of_interest, food, establishment"
  },
  {
    "place_id": "ChIJwdP-zuTTD4gRYb7lvenxVns",
    "name": "Gracie O' Malley's Wicker Park",
    "street_address": "1635 North Milwaukee Avenue",
    "city": "Chicago",
    "state": "IL",
    "zip_code": "60647",
    "latitude": 41.911238,
    "longitude": -87.6784739,
    "website": "http://www.gracieomalleyschicago.com/",
    "category": "Bar & Restaurant",
    "types": "restaurant, food, bar, point_of_interest, establishment"
  },
  {
    "place_id": "ChIJdRDdZ1YtDogRCBENE6Wwd28",
    "name": "Black Barrel Tavern",
    "street_address": "1061 West Madison Street",
    "city": "Chicago",
    "state": "IL",
    "zip_code": "60607",
    "latitude": 41.8815627,
    "longitude": -87.6543971,
    "website": "http://www.blackbarrelchicago.com/",
    "category": "Bar & Restaurant",
    "types": "bar, restaurant, food, point_of_interest, establishment"
  },
  {
    "place_id": "ChIJhYDngCfND4gRwk6Nkm5yQSE",
    "name": "The Wolfhound Bar and Kitchen",
    "street_address": "3188 North Elston Avenue",
    "city": "Chicago",
    "state": "IL",
    "zip_code": "60618",
    "latitude": 41.9390744,
    "longitude": -87.6982328,
    "website": "http://wolfhoundchicago.com/",
    "category": "Bar & Restaurant",
    "types": "bar, restaurant, food, point_of_interest, establishment"
  },
  {
    "place_id": "ChIJbUkZIEDSD4gRhF9YMlE-baI",
    "name": "The Globe Pub",
    "street_address": "1934 West Irving Park Road",
    "city": "Chicago",
    "state": "IL",
    "zip_code": "60613",
    "latitude": 41.9543896,
    "longitude": -87.67774639999999,
    "website": "http://theglobepub.com/",
    "category": "Bar & Restaurant",
    "types": "bar, restaurant, food, point_of_interest, establishment"
  },
  {
    "place_id": "ChIJtTepCUbSD4gRDYMgHBtsQvs",
    "name": "A. J. Hudson's Public House",
    "street_address": "3801 North Ashland Avenue",
    "city": "Chicago",
    "state": "IL",
    "zip_code": "60613",
    "latitude": 41.9507798,
    "longitude": -87.6686854,
    "website": "http://www.ajhudsonspublichouse.com/",
    "category": "Bar & Restaurant",
    "types": "restaurant, food, bar, point_of_interest, establishment"
  },
  {
    "place_id": "ChIJgZ8EebksDogRGGZSlPZ0edM",
    "name": "Stocks & Blondes",
    "street_address": "40 North Wells Street",
    "city": "Chicago",
    "state": "IL",
    "zip_code": "60606",
    "latitude": 41.882874,
    "longitude": -87.6340489,
    "website": "http://stocksandblondesbar.com/",
    "category": "Bar & Restaurant",
    "types": "bar, restaurant, food, point_of_interest, establishment"
  },
  {
    "place_id": "ChIJ_xlKYpLND4gR0MBnKE3BROI",
    "name": "Fuller's Pub",
    "street_address": "3203 West Irving Park Road",
    "city": "Chicago",
    "state": "IL",
    "zip_code": "60618",
    "latitude": 41.9537133,
    "longitude": -87.70826,
    "website": "http://fullerspubchicago.com/",
    "category": "Bar & Restaurant",
    "types": "bar, restaurant, point_of_interest, food, establishment"
  },
  {
    "place_id": "ChIJA4BSDU7SD4gRNxKTxbp7k-g",
    "name": "The Butcher\u2019s Tap",
    "street_address": "3553 North Southport Avenue",
    "city": "Chicago",
    "state": "IL",
    "zip_code": "60657",
    "latitude": 41.9467867,
    "longitude": -87.663725,
    "website": "https://thebutcherstap.com/",
    "category": "Bar & Restaurant",
    "types": "bar, restaurant, food, point_of_interest, establishment"
  },
  {
    "place_id": "ChIJJTTb8LEsDogRCbELjhuqyck",
    "name": "O'Callaghan's",
    "street_address": "29 West Hubbard Street",
    "city": "Chicago",
    "state": "IL",
    "zip_code": "60654",
    "latitude": 41.8899333,
    "longitude": -87.62921109999999,
    "website": "http://www.ocallaghanspub.com/",
    "category": "Bar & Restaurant",
    "types": "restaurant, bar, point_of_interest, food, establishment"
  },
  {
    "place_id": "ChIJXWvF8a3TD4gREr9Us5SfzXw",
    "name": "The Graystone Tavern",
    "street_address": "3441 North Sheffield Avenue",
    "city": "Chicago",
    "state": "IL",
    "zip_code": "60657",
    "latitude": 41.9447886,
    "longitude": -87.6540066,
    "website": "http://www.graystonetavernchicago.com/",
    "category": "Bar & Restaurant",
    "types": "bar, restaurant, food, point_of_interest, establishment"
  },
  {
    "place_id": "ChIJGf7CPz_TD4gR6FdYR7ZGS9I",
    "name": "The Albion Manor",
    "street_address": "1480 West Webster Avenue",
    "city": "Chicago",
    "state": "IL",
    "zip_code": "60614",
    "latitude": 41.9218187,
    "longitude": -87.66627659999999,
    "website": "https://www.thealbionmanor.com/",
    "category": "Bar & Restaurant",
    "types": "bar, restaurant, food, point_of_interest, establishment"
  },
  {
    "place_id": "ChIJZx6UBYfSD4gRt2fD9GMnyfI",
    "name": "Frank and Mary's Tavern",
    "street_address": "2905 North Elston Avenue",
    "city": "Chicago",
    "state": "IL",
    "zip_code": "60618",
    "latitude": 41.9342697,
    "longitude": -87.6905625,
    "website": "http://frankandmarystavern.com/",
    "category": "Bar & Restaurant",
    "types": "bar, restaurant, point_of_interest, food, establishment"
  },
  {
    "place_id": "ChIJGzQWcxTSD4gROEl-Bb7YDfE",
    "name": "Wild Goose Bar & Grill",
    "street_address": "4600 North Lincoln Avenue",
    "city": "Chicago",
    "state": "IL",
    "zip_code": "60625",
    "latitude": 41.9651141,
    "longitude": -87.6864322,
    "website": "http://www.wildgoosebar.com/",
    "category": "Bar & Restaurant",
    "types": "restaurant, bar, food, point_of_interest, establishment"
  },
  {
    "place_id": "ChIJnT_NVovND4gRKi2fdohd_4w",
    "name": "Gracie O'Malley's Portage Park",
    "street_address": "4058 North Milwaukee Avenue",
    "city": "Chicago",
    "state": "IL",
    "zip_code": "60641",
    "latitude": 41.9543621,
    "longitude": -87.74927869999999,
    "website": "https://www.gracieomalleyschicago.com/",
    "category": "Bar & Restaurant",
    "types": "restaurant, bar, food, point_of_interest, establishment"
  },
  {
    "place_id": "ChIJFQp8EWvSD4gRvOcgPz3o1qg",
    "name": "O'Donovan's",
    "street_address": "2100 West Irving Park Road",
    "city": "Chicago",
    "state": "IL",
    "zip_code": "60618",
    "latitude": 41.9543967,
    "longitude": -87.6814438,
    "website": "http://www.odonovansbar.com/",
    "category": "Bar & Restaurant",
    "types": "restaurant, food, bar, point_of_interest, establishment"
  },
  {
    "place_id": "ChIJ0dH3BCotDogR8Yn-VWG_yYI",
    "name": "Twisted Spoke",
    "street_address": "501 North Ogden Avenue",
    "city": "Chicago",
    "state": "IL",
    "zip_code": "60642",
    "latitude": 41.8912694,
    "longitude": -87.6585722,
    "website": "http://twistedspoke.com/",
    "category": "Bar & Restaurant",
    "types": "restaurant, food, bar, point_of_interest, establishment"
  },
  {
    "place_id": "ChIJf3h_t9osDogReehZO7Hgk50",
    "name": "Bar Siena",
    "street_address": "832 West Randolph Street",
    "city": "Chicago",
    "state": "IL",
    "zip_code": "60607",
    "latitude": 41.884679,
    "longitude": -87.64882720000001,
    "website": "https://www.barsiena.com/",
    "category": "Bar & Restaurant",
    "types": "bar, restaurant, food, point_of_interest, establishment"
  },
  {
    "place_id": "ChIJuZYRJ8DSD4gRdJuh5-8ngjg",
    "name": "Lottie's Pub",
    "street_address": "1925 West Cortland Street",
    "city": "Chicago",
    "state": "IL",
    "zip_code": "60622",
    "latitude": 41.9157902,
    "longitude": -87.6761834,
    "website": "https://www.lottiespub.com/",
    "category": "Bar & Restaurant",
    "types": "bar, restaurant, food, point_of_interest, establishment"
  },
  {
    "place_id": "ChIJN9aOgGrSD4gR3mPuXbkhlPI",
    "name": "Brownstone",
    "street_address": "3937 North Lincoln Avenue",
    "city": "Chicago",
    "state": "IL",
    "zip_code": "60613",
    "latitude": 41.9533808,
    "longitude": -87.6779202,
    "website": "http://www.brownstonetavern.com/",
    "category": "Bar & Restaurant",
    "types": "bar, restaurant, food, point_of_interest, establishment"
  },
  {
    "place_id": "ChIJr-ace87TD4gRwfZywo92Zto",
    "name": "The Leavitt Street Inn & Tavern",
    "street_address": "2345 North Leavitt Street",
    "city": "Chicago",
    "state": "IL",
    "zip_code": "60647",
    "latitude": 41.9240438,
    "longitude": -87.6825284,
    "website": "https://www.theleavittstreet.com/",
    "category": "Bar & Restaurant",
    "types": "bar, restaurant, food, point_of_interest, establishment"
  },
  {
    "place_id": "ChIJh9JuDZXTD4gR1ATKX8KKNsU",
    "name": "Almost Home Tavern & Grill",
    "street_address": "3801 North Clark Street",
    "city": "Chicago",
    "state": "IL",
    "zip_code": "60613",
    "latitude": 41.9511771,
    "longitude": -87.65951629999999,
    "website": "https://www.almosthometavern.com/",
    "category": "Bar & Restaurant",
    "types": "bar, restaurant, food, point_of_interest, establishment"
  },
  {
    "place_id": "ChIJo1q4_2bSD4gRV6gJmagv6Q8",
    "name": "Village Tap",
    "street_address": "2055 West Roscoe Street",
    "city": "Chicago",
    "state": "IL",
    "zip_code": "60618",
    "latitude": 41.943072,
    "longitude": -87.6805961,
    "website": "http://www.villagetap.com/",
    "category": "Bar & Restaurant",
    "types": "restaurant, bar, food, point_of_interest, establishment"
  },
  {
    "place_id": "ChIJqxmlO1XSD4gRNome3-iToO0",
    "name": "Will's Northwoods Inn",
    "street_address": "3030 North Racine Avenue",
    "city": "Chicago",
    "state": "IL",
    "zip_code": "60657",
    "latitude": 41.9372595,
    "longitude": -87.65907059999999,
    "website": "http://www.willsnorthwoodsinn.com/",
    "category": "Bar & Restaurant",
    "types": "bar, restaurant, food, point_of_interest, establishment"
  },
  {
    "place_id": "ChIJ9QhNWp3TD4gRk4s5h0Xo6fo",
    "name": "The Reveler",
    "street_address": "3403 North Damen Avenue",
    "city": "Chicago",
    "state": "IL",
    "zip_code": "60657",
    "latitude": 41.9434142,
    "longitude": -87.67829280000001,
    "website": "https://revelerchicago.com/",
    "category": "Bar & Restaurant",
    "types": "bar, restaurant, point_of_interest, food, establishment"
  },
  {
    "place_id": "ChIJO10QtzzSD4gRvAgPUMISfhI",
    "name": "O'Shaughnessy's Public House",
    "street_address": "4557 North Ravenswood Avenue",
    "city": "Chicago",
    "state": "IL",
    "zip_code": "60640",
    "latitude": 41.9650497,
    "longitude": -87.6738805,
    "website": "http://www.oshaughnessychicago.com/",
    "category": "Bar & Restaurant",
    "types": "bar, restaurant, food, point_of_interest, establishment"
  },
  {
    "place_id": "ChIJV1i0SbUtDogR6PAGpbVKDV4",
    "name": "Bar La Rue",
    "street_address": "820 West Fulton Street",
    "city": "Chicago",
    "state": "IL",
    "zip_code": "60661",
    "latitude": 41.8870139,
    "longitude": -87.6484589,
    "website": "http://www.barlarue.com/",
    "category": "Bar & Restaurant",
    "types": "bar, restaurant, food, point_of_interest, establishment"
  },
  {
    "place_id": "ChIJI1QqE6jTD4gR1MB2KLrkAZc",
    "name": "Parrots Bar & Grill",
    "street_address": "754 West Wellington Avenue",
    "city": "Chicago",
    "state": "IL",
    "zip_code": "60657",
    "latitude": 41.9364755,
    "longitude": -87.6490106,
    "website": "https://parrotspubterrace.shop/",
    "category": "Bar & Restaurant",
    "types": "bar, restaurant, food, point_of_interest, establishment"
  },
  {
    "place_id": "ChIJ5T8gwqbTD4gRRV525ZDW_tA",
    "name": "Wilde Bar & Restaurant",
    "street_address": "3130 North Broadway",
    "city": "Chicago",
    "state": "IL",
    "zip_code": "60657",
    "latitude": 41.9386917,
    "longitude": -87.6445083,
    "website": "http://www.wildechicago.com/",
    "category": "Bar & Restaurant",
    "types": "bar, restaurant, food, point_of_interest, establishment"
  },
  {
    "place_id": "ChIJ5a8ra6QsDogRENtJLAp40AE",
    "name": "The Gage",
    "street_address": "24 South Michigan Avenue",
    "city": "Chicago",
    "state": "IL",
    "zip_code": "60603",
    "latitude": 41.8813268,
    "longitude": -87.6246925,
    "website": "http://www.thegagechicago.com/",
    "category": "Bar & Restaurant",
    "types": "restaurant, food, bar, point_of_interest, establishment"
  },
  {
    "place_id": "ChIJL74HG4jRD4gRZAsc6JenPxg",
    "name": "Hopleaf",
    "street_address": "5148 North Clark Street",
    "city": "Chicago",
    "state": "IL",
    "zip_code": "60640",
    "latitude": 41.975817,
    "longitude": -87.6685797,
    "website": "http://www.hopleafbar.com/",
    "category": "Bar & Restaurant",
    "types": "bar, restaurant, food, point_of_interest, establishment"
  },
  {
    "place_id": "ChIJ46Gmw0_TD4gRHvJ2iAX0IjA",
    "name": "Hopsmith Chicago",
    "street_address": "15 West Division Street",
    "city": "Chicago",
    "state": "IL",
    "zip_code": "60610",
    "latitude": 41.903808,
    "longitude": -87.62933400000001,
    "website": "https://hopsmithchicago.com/",
    "category": "Bar & Restaurant",
    "types": "bar, restaurant, point_of_interest, food, establishment"
  },
  {
    "place_id": "ChIJtz_kakHTD4gRvZ2uz-D9C2U",
    "name": "Corcoran's Grill & Pub",
    "street_address": "1615 North Wells Street",
    "city": "Chicago",
    "state": "IL",
    "zip_code": "60614",
    "latitude": 41.9116134,
    "longitude": -87.6344858,
    "website": "http://www.corcoransoldtown.com/",
    "category": "Bar & Restaurant",
    "types": "restaurant, bar, food, point_of_interest, establishment"
  },
  {
    "place_id": "ChIJP8DQ0FLTD4gRLj3jMoqUHXI",
    "name": "Jake Melnick's Corner Tap",
    "street_address": "41 East Superior Street",
    "city": "Chicago",
    "state": "IL",
    "zip_code": "60611",
    "latitude": 41.895538,
    "longitude": -87.6265138,
    "website": "http://www.jakemelnicks.com/",
    "category": "Bar & Restaurant",
    "types": "bar, restaurant, food, point_of_interest, establishment"
  },
  {
    "place_id": "ChIJi5pb_iXTD4gRMnn3MQXpkxQ",
    "name": "Beck's Chicago",
    "street_address": "2201 North Clybourn Avenue",
    "city": "Chicago",
    "state": "IL",
    "zip_code": "60614",
    "latitude": 41.9217463,
    "longitude": -87.6643706,
    "website": "https://beckschicago.com/",
    "category": "Bar & Restaurant",
    "types": "bar, restaurant, food, point_of_interest, establishment"
  },
  {
    "place_id": "ChIJayrh_dgsDogR-vEREMu2Oug",
    "name": "The Press Room",
    "street_address": "1134 West Washington Boulevard",
    "city": "Chicago",
    "state": "IL",
    "zip_code": "60607",
    "latitude": 41.883193,
    "longitude": -87.65576779999999,
    "website": "http://pressroomchicago.com/",
    "category": "Bar & Restaurant",
    "types": "bar, restaurant, food, point_of_interest, establishment"
  },
  {
    "place_id": "ChIJV9ve1aTTD4gR569nrCfNs74",
    "name": "ROCKS lakeview",
    "street_address": "3463 North Broadway",
    "city": "Chicago",
    "state": "IL",
    "zip_code": "60657",
    "latitude": 41.9450508,
    "longitude": -87.6456566,
    "website": "http://www.rockslakeview.com/",
    "category": "Bar & Restaurant",
    "types": "bar, restaurant, food, point_of_interest, establishment"
  },
  {
    "place_id": "ChIJjcxm9rksDogRq-DGbt1Wtxo",
    "name": "Randolph Tavern",
    "street_address": "188 West Randolph Street",
    "city": "Chicago",
    "state": "IL",
    "zip_code": "60601",
    "latitude": 41.8846092,
    "longitude": -87.6335593,
    "website": "http://www.randolphtavern.com/",
    "category": "Bar & Restaurant",
    "types": "bar, restaurant, food, point_of_interest, establishment"
  },
  {
    "place_id": "ChIJ35PmkBstDogR5ttrfkbvADY",
    "name": "Hawkeye's Bar",
    "street_address": "1458 West Taylor Street",
    "city": "Chicago",
    "state": "IL",
    "zip_code": "60607",
    "latitude": 41.8694705,
    "longitude": -87.6639258,
    "website": "http://hawkeyeschicago.com/",
    "category": "Bar & Restaurant",
    "types": "bar, restaurant, food, point_of_interest, establishment"
  },
  {
    "place_id": "ChIJ8acxcSQtDogRxnEBTTBqyDg",
    "name": "Billy Goat Tavern (near United Center)",
    "street_address": "1535 West Madison Street",
    "city": "Chicago",
    "state": "IL",
    "zip_code": "60607",
    "latitude": 41.8812273,
    "longitude": -87.6658873,
    "website": "http://www.billygoattavern.com/",
    "category": "Bar & Restaurant",
    "types": "bar, restaurant, food, point_of_interest, establishment"
  },
  {
    "place_id": "ChIJ7zwFga8sDogR48o0MWz4Jes",
    "name": "Elephant & Castle",
    "street_address": "185 North Wabash Avenue",
    "city": "Chicago",
    "state": "IL",
    "zip_code": "60601",
    "latitude": 41.8854526,
    "longitude": -87.626024,
    "website": "https://www.elephantcastle.com/en/locations/il/chicago/185-north-wabash-avenue",
    "category": "Restaurant",
    "types": "restaurant, food, point_of_interest, establishment"
  },
  {
    "place_id": "ChIJacxyq5oxDogRzEoIKFM1ErE",
    "name": "Illinois Bar & Grill",
    "street_address": "4135 West 47th Street",
    "city": "Chicago",
    "state": "IL",
    "zip_code": "60632",
    "latitude": 41.8075985,
    "longitude": -87.72741309999999,
    "website": null,
    "category": "Bar & Restaurant",
    "types": "bar, restaurant, point_of_interest, food, establishment"
  },
  {
    "place_id": "ChIJfecaS6QsDogRYoT-1zdAdJE",
    "name": "Remington's",
    "street_address": "20 North Michigan Avenue",
    "city": "Chicago",
    "state": "IL",
    "zip_code": "60602",
    "latitude": 41.8826897,
    "longitude": -87.6246716,
    "website": "http://www.remingtonschicago.com/?y_source=1_NDYzMDg0MTYtNzE1LWxvY2F0aW9uLndlYnNpdGU%3D",
    "category": "Bar & Restaurant",
    "types": "bar, restaurant, point_of_interest, food, establishment"
  },
  {
    "place_id": "ChIJMaurKrIsDogRfzxokqjCMys",
    "name": "Bub City",
    "street_address": "435 North Clark Street",
    "city": "Chicago",
    "state": "IL",
    "zip_code": "60654",
    "latitude": 41.89025180000001,
    "longitude": -87.63089269999999,
    "website": "http://www.bub-city.com/",
    "category": "Bar & Restaurant",
    "types": "bar, restaurant, food, point_of_interest, establishment"
  },
  {
    "place_id": "ChIJzwGUD5csDogRjT1mpzDe38o",
    "name": "Half Sour",
    "street_address": "755 South Clark Street",
    "city": "Chicago",
    "state": "IL",
    "zip_code": "60605",
    "latitude": 41.87244800000001,
    "longitude": -87.63032199999999,
    "website": "http://halfsourchicago.com/",
    "category": "Bar & Restaurant",
    "types": "restaurant, bar, food, point_of_interest, establishment"
  },
  {
    "place_id": "ChIJMe6pU1gsDogRVi7P2WTpr5A",
    "name": "Pleasant House Pub",
    "street_address": "2119 South Halsted Street",
    "city": "Chicago",
    "state": "IL",
    "zip_code": "60608",
    "latitude": 41.853647,
    "longitude": -87.6463864,
    "website": "http://pleasanthousepub.com/",
    "category": "Bar & Restaurant",
    "types": "bakery, restaurant, food, store, bar, point_of_interest, establishment"
  },
  {
    "place_id": "ChIJPTFErjksDogR1r4aJ7c7oxg",
    "name": "Mitchell's Tap",
    "street_address": "3356 South Halsted Street",
    "city": "Chicago",
    "state": "IL",
    "zip_code": "60608",
    "latitude": 41.8331474,
    "longitude": -87.6463033,
    "website": null,
    "category": "Bar & Restaurant",
    "types": "bar, restaurant, point_of_interest, food, establishment"
  }
]