[
  {
    "place_id": "ChIJ58nvncmzQYgR2Xukozvb-S8",
    "name": "Brew House",
    "street_address": "1047 East McMillan Street",
    "city": "Cincinnati",
    "state": "OH",
    "zip_code": "45206",
    "latitude": 39.1256003,
    "longitude": -84.4863802,
    "website": "https://brewhouse.com/",
    "category": "Bar & Restaurant",
    "types": "bar, restaurant, point_of_interest, food, establishment"
  },
  {
    "place_id": "ChIJUWg87pmxQYgRW21RSuCmmGA",
    "name": "Red Leprechaun",
    "street_address": "20 West Freedom Way",
    "city": "Cincinnati",
    "state": "OH",
    "zip_code": "45202",
    "latitude": 39.0970368,
    "longitude": -84.51248609999999,
    "website": "http://www.redleprechaun.com/",
    "category": "Bar & Restaurant",
    "types": "bar, restaurant, food, point_of_interest, establishment"
  },
  {
    "place_id": "ChIJt-5Dq1CxQYgRdum1akpW7h8",
    "name": "Nicholson's Fine Food & Whiskey",
    "street_address": "625 Walnut Street",
    "city": "Cincinnati",
    "state": "OH",
    "zip_code": "45202",
    "latitude": 39.1033356,
    "longitude": -84.5120189,
    "website": "https://nicholsonspub.com/",
    "category": "Bar & Restaurant",
    "types": "bar, restaurant, food, point_of_interest, establishment"
  },
  {
    "place_id": "ChIJeb_heWCxQYgRqFSaeRWN3q4",
    "name": "City View Tavern",
    "street_address": "403 Oregon Street",
    "city": "Cincinnati",
    "state": "OH",
    "zip_code": "45202",
    "latitude": 39.1060631,
    "longitude": -84.5010386,
    "website": null,
    "category": "Bar & Restaurant",
    "types": "bar, restaurant, food, point_of_interest, establishment"
  },
  {
    "place_id": "ChIJmR62d4S2QYgR1bvtwH9h_ec",
    "name": "Incline Public House",
    "street_address": "2601 West 8th Street",
    "city": "Cincinnati",
    "state": "OH",
    "zip_code": "45204",
    "latitude": 39.1053287,
    "longitude": -84.5566096,
    "website": "http://www.inclinepublichouse.com/",
    "category": "Bar & Restaurant",
    "types": "bar, restaurant, food, point_of_interest, establishment"
  },
  {
    "place_id": "ChIJI21lEsGxQYgR1oBodsWfE4g",
    "name": "Covington Yard",
    "street_address": "401 Greenup Street",
    "city": "Covington",
    "state": "KY",
    "zip_code": "41011",
    "latitude": 39.087103,
    "longitude": -84.50800819999999,
    "website": "http://covingtonyard.com/",
    "category": "Bar & Restaurant",
    "types": "bar, restaurant, food, point_of_interest, establishment"
  },
  {
    "place_id": "ChIJiZ6KluizQYgRdlZIix-NT4k",
    "name": "The Pitch Cincy",
    "street_address": "1430 Central Parkway",
    "city": "Cincinnati",
    "state": "OH",
    "zip_code": "45202",
    "latitude": 39.11107619999999,
    "longitude": -84.5201094,
    "website": "https://www.thepitchcincy.com/",
    "category": "Bar & Restaurant",
    "types": "bar, restaurant, food, point_of_interest, establishment"
  },
  {
    "place_id": "ChIJIVGBjy2xQYgRbRyEiuURXRY",
    "name": "Crown Republic Gastropub",
    "street_address": "720 Sycamore Street",
    "city": "Cincinnati",
    "state": "OH",
    "zip_code": "45202",
    "latitude": 39.1050609,
    "longitude": -84.508749,
    "website": "https://crownrepublicgastropub.com/",
    "category": "Bar & Restaurant",
    "types": "restaurant, bar, food, point_of_interest, establishment"
  },
  {
    "place_id": "ChIJx7CYKSyzQYgRinMnR3G5cVc",
    "name": "Lost & Found OTR",
    "street_address": "22 East 14th Street",
    "city": "Cincinnati",
    "state": "OH",
    "zip_code": "45202",
    "latitude": 39.11122,
    "longitude": -84.5145383,
    "website": "https://www.lostandfoundotr.com/",
    "category": "Bar & Restaurant",
    "types": "bar, restaurant, food, point_of_interest, establishment"
  },
  {
    "place_id": "ChIJZedO3kSxQYgRu00UfoMiUMQ",
    "name": "Moerlein Lager House",
    "street_address": "115 Joe Nuxhall Way",
    "city": "Cincinnati",
    "state": "OH",
    "zip_code": "45202",
    "latitude": 39.0962532,
    "longitude": -84.50871010000002,
    "website": "https://www.moerleinlagerhouse.com/",
    "category": "Bar & Restaurant",
    "types": "restaurant, bar, food, point_of_interest, establishment"
  },
  {
    "place_id": "ChIJORKsJlCxQYgRMmfcaP05_Vo",
    "name": "The Blind Pig",
    "street_address": "24 West 3rd Street",
    "city": "Cincinnati",
    "state": "OH",
    "zip_code": "45202",
    "latitude": 39.09871159999999,
    "longitude": -84.5134137,
    "website": "https://blindpigcincy.com/?y_source=1_MjY0ODAxNjYtNzE1LWxvY2F0aW9uLndlYnNpdGU%3D",
    "category": "Bar & Restaurant",
    "types": "bar, restaurant, food, point_of_interest, establishment"
  },
  {
    "place_id": "ChIJZcVM7bWxQYgRUAF4WkiJ5gk",
    "name": "Paddy's on Main",
    "street_address": "520 Main Street",
    "city": "Covington",
    "state": "KY",
    "zip_code": "41011",
    "latitude": 39.0847454,
    "longitude": -84.51736029999999,
    "website": "https://paddysonmainnky.com/",
    "category": "Bar & Restaurant",
    "types": "bar, night_club, restaurant, point_of_interest, food, establishment"
  },
  {
    "place_id": "ChIJt_pOYEGyQYgRyoIZZDgbAnQ",
    "name": "O'Bryon's Bar & Grill",
    "street_address": "1998 Madison Road",
    "city": "Cincinnati",
    "state": "OH",
    "zip_code": "45208",
    "latitude": 39.13217999999999,
    "longitude": -84.4631574,
    "website": "http://www.obryonsbarandgrill.com/",
    "category": "Bar & Restaurant",
    "types": "bar, restaurant, food, point_of_interest, establishment"
  },
  {
    "place_id": "ChIJfWU7P0WxQYgR0Z7qRaNJrUI",
    "name": "Yard House",
    "street_address": "95 East Freedom Way",
    "city": "Cincinnati",
    "state": "OH",
    "zip_code": "45202",
    "latitude": 39.09686,
    "longitude": -84.51047,
    "website": "https://www.yardhouse.com/locations/oh/cincinnati/cincinnati-the-banks/8344?cmpid=br:yh_ag:ie_ch:loc_ca:YHGMB_sn:gmb_gt:cincinnati-oh-8344_pl:locurl_rd:1042",
    "category": "Bar & Restaurant",
    "types": "meal_takeaway, bar, restaurant, food, point_of_interest, establishment"
  },
  {
    "place_id": "ChIJfaYGokizQYgRLOq55EF679s",
    "name": "Home Court Tavern / Sinners & Saints",
    "street_address": "2062 Riverside Drive",
    "city": "Cincinnati",
    "state": "OH",
    "zip_code": "45202",
    "latitude": 39.12177679999999,
    "longitude": -84.47510899999999,
    "website": "http://homecourtcincy.com/",
    "category": "Bar & Restaurant",
    "types": "bar, restaurant, food, point_of_interest, establishment"
  },
  {
    "place_id": "ChIJm-RNUv2zQYgRRktuNl3HEPs",
    "name": "Goodfellas Pizzeria - OTR",
    "street_address": "1211 Main Street",
    "city": "Cincinnati",
    "state": "OH",
    "zip_code": "45202",
    "latitude": 39.10917250000001,
    "longitude": -84.5118416,
    "website": "https://www.goodfellaspizzeria.com/",
    "category": "Bar & Restaurant",
    "types": "bar, restaurant, food, point_of_interest, establishment"
  },
  {
    "place_id": "ChIJC2VaKv2zQYgR_0EwPeGykiE",
    "name": "The Pony",
    "street_address": "1346 Main Street",
    "city": "Cincinnati",
    "state": "OH",
    "zip_code": "45202",
    "latitude": 39.1111334,
    "longitude": -84.5118346,
    "website": "https://www.facebook.com/The-Pony-OTR-1327700877321830/",
    "category": "Bar & Restaurant",
    "types": "bar, restaurant, food, point_of_interest, establishment"
  },
  {
    "place_id": "ChIJ4z6U4cqxQYgRhQhdfFkEzgk",
    "name": "The Fifth Lounge",
    "street_address": "668 West 5th Street",
    "city": "Covington",
    "state": "KY",
    "zip_code": "41011",
    "latitude": 39.08570389999999,
    "longitude": -84.52168920000001,
    "website": "https://www.meetnky.com/listing/the-fifth-lounge/3967/",
    "category": "Bar & Restaurant",
    "types": "bar, restaurant, food, point_of_interest, establishment"
  },
  {
    "place_id": "ChIJQcsYCGSxQYgRnzWcv9Uefyc",
    "name": "The Well",
    "street_address": "8 West 7th Street",
    "city": "Covington",
    "state": "KY",
    "zip_code": "41011",
    "latitude": 39.08351999999999,
    "longitude": -84.51062499999999,
    "website": "http://www.thewellcovington.com/",
    "category": "Restaurant",
    "types": "restaurant, food, point_of_interest, establishment"
  },
  {
    "place_id": "ChIJeQkNxrKxQYgRpLo6GGj91bM",
    "name": "Arnold's Pub",
    "street_address": "208 West Pike Street",
    "city": "Covington",
    "state": "KY",
    "zip_code": "41011",
    "latitude": 39.08232599999999,
    "longitude": -84.51356539999999,
    "website": "https://arnoldspubky.com/",
    "category": "Bar & Restaurant",
    "types": "night_club, bar, restaurant, food, point_of_interest, establishment"
  },
  {
    "place_id": "ChIJGxphFzSxQYgRPbTqdPYm8Eg",
    "name": "Cock & Bull Public House Mainstrasse Village",
    "street_address": "601 Main Street",
    "city": "Covington",
    "state": "KY",
    "zip_code": "41011",
    "latitude": 39.084011,
    "longitude": -84.51774900000001,
    "website": "http://www.cockandbullcincinnati.com/",
    "category": "Bar & Restaurant",
    "types": "bar, restaurant, food, point_of_interest, establishment"
  },
  {
    "place_id": "ChIJ8ZYsFzSxQYgRtGvZudf3KEA",
    "name": "Wiseguy Lounge - Mainstrasse",
    "street_address": "603 Main Street",
    "city": "Covington",
    "state": "KY",
    "zip_code": "41011",
    "latitude": 39.08394929999999,
    "longitude": -84.5177716,
    "website": "https://www.goodfellaspizzeria.com/wiseguy-lounge",
    "category": "Bar & Restaurant",
    "types": "bar, night_club, restaurant, food, point_of_interest, establishment"
  },
  {
    "place_id": "ChIJ5cckBDSxQYgRLd8Q1Q9nGDA",
    "name": "Zola Pub and Grill",
    "street_address": "626 Main Street",
    "city": "Covington",
    "state": "KY",
    "zip_code": "41011",
    "latitude": 39.08330579999999,
    "longitude": -84.5173367,
    "website": "http://zolapubandgrill.com/",
    "category": "Bar & Restaurant",
    "types": "bar, restaurant, food, point_of_interest, establishment"
  },
  {
    "place_id": "ChIJXaPUQjSxQYgRi3POEJ4OBm8",
    "name": "Zazou Covington",
    "street_address": "502 West 6th Street",
    "city": "Covington",
    "state": "KY",
    "zip_code": "41011",
    "latitude": 39.0844375,
    "longitude": -84.51888459999999,
    "website": null,
    "category": "Bar & Restaurant",
    "types": "bar, restaurant, food, point_of_interest, establishment"
  },
  {
    "place_id": "ChIJdYf0gzixQYgRXCrsw4OOpqA",
    "name": "Molly Malone's Irish Pub & Restaurant",
    "street_address": "112 East 4th Street",
    "city": "Covington",
    "state": "KY",
    "zip_code": "41011",
    "latitude": 39.08752889999999,
    "longitude": -84.5088234,
    "website": "https://mollymalonesirishpub.com/covington/",
    "category": "Bar & Restaurant",
    "types": "bar, restaurant, food, point_of_interest, establishment"
  },
  {
    "place_id": "ChIJozCRBUexQYgRmBvbX86WZdk",
    "name": "The Gruff",
    "street_address": "129 East 2nd Street",
    "city": "Covington",
    "state": "KY",
    "zip_code": "41011",
    "latitude": 39.0897371,
    "longitude": -84.508752,
    "website": "http://www.atthegruff.com/",
    "category": "Bar & Restaurant",
    "types": "restaurant, bar, store, food, point_of_interest, establishment"
  },
  {
    "place_id": "ChIJTwkY4hO3QYgRqu7MvWsjCwc",
    "name": "Fort Mitchell Public House",
    "street_address": "2053 Dixie Highway",
    "city": "Fort Mitchell",
    "state": "KY",
    "zip_code": "41011",
    "latitude": 39.05316469999999,
    "longitude": -84.5494509,
    "website": "http://www.fortmitchellpub.com/",
    "category": "Bar & Restaurant",
    "types": "bar, restaurant, food, point_of_interest, establishment"
  },
  {
    "place_id": "ChIJn1k2XUexQYgRZlzf4V8plgs",
    "name": "Blinkers Tavern",
    "street_address": "318 Greenup Street",
    "city": "Covington",
    "state": "KY",
    "zip_code": "41011",
    "latitude": 39.088271,
    "longitude": -84.5078631,
    "website": "http://blinkerstavern.com/",
    "category": "Bar & Restaurant",
    "types": "bar, restaurant, food, point_of_interest, establishment"
  },
  {
    "place_id": "ChIJxWUjbW-xQYgRrRw2HL6kdaY",
    "name": "O'Bryon's Bar & Grill",
    "street_address": "736 Washington Avenue",
    "city": "Newport",
    "state": "KY",
    "zip_code": "41071",
    "latitude": 39.0908032,
    "longitude": -84.4892161,
    "website": "http://obryonsbarandgrill.com/",
    "category": "Bar & Restaurant",
    "types": "bar, restaurant, food, point_of_interest, establishment"
  },
  {
    "place_id": "ChIJM8F9R1mxQYgR2yjsO-u2pUs",
    "name": "By Golly's Covington",
    "street_address": "313 Greenup Street",
    "city": "Covington",
    "state": "KY",
    "zip_code": "41011",
    "latitude": 39.088292,
    "longitude": -84.5082293,
    "website": "https://bygollys.com/",
    "category": "Bar & Restaurant",
    "types": "bar, restaurant, point_of_interest, food, establishment"
  },
  {
    "place_id": "ChIJdyFRBjSxQYgRnt8a2AdZ1yo",
    "name": "Strasse Haus",
    "street_address": "630 Main Street",
    "city": "Covington",
    "state": "KY",
    "zip_code": "41011",
    "latitude": 39.0832316,
    "longitude": -84.5172992,
    "website": "https://www.facebook.com/Strasse-Haus-143480442345587/",
    "category": "Bar & Restaurant",
    "types": "bar, restaurant, food, point_of_interest, establishment"
  },
  {
    "place_id": "ChIJX7F7yNKxQYgRXHvirXRGH4o",
    "name": "Olde Fort Pub",
    "street_address": "1041 South Fort Thomas Avenue",
    "city": "Fort Thomas",
    "state": "KY",
    "zip_code": "41075",
    "latitude": 39.0644172,
    "longitude": -84.4470695,
    "website": null,
    "category": "Bar & Restaurant",
    "types": "bar, restaurant, food, point_of_interest, establishment"
  },
  {
    "place_id": "ChIJRaN-ekexQYgRsrLjV01h1c4",
    "name": "Smoke Justis",
    "street_address": "302 Court Street",
    "city": "Covington",
    "state": "KY",
    "zip_code": "41011",
    "latitude": 39.0883321,
    "longitude": -84.5086654,
    "website": "https://www.smokejustis.com/",
    "category": "Bar & Restaurant",
    "types": "restaurant, bar, food, point_of_interest, establishment"
  },
  {
    "place_id": "ChIJ_QPiPFKxQYgRdjWkkCDvXGo",
    "name": "Plum Street Bar & Cafe",
    "street_address": "423 Plum Street",
    "city": "Cincinnati",
    "state": "OH",
    "zip_code": "45202",
    "latitude": 39.10002219999999,
    "longitude": -84.5179361,
    "website": null,
    "category": "Bar & Restaurant",
    "types": "bar, restaurant, food, point_of_interest, establishment"
  },
  {
    "place_id": "ChIJNQ_siVCxQYgR0ktQVfaZbiA",
    "name": "McCormick & Schmick's Seafood & Steaks",
    "street_address": "21 East 5th Street",
    "city": "Cincinnati",
    "state": "OH",
    "zip_code": "45202",
    "latitude": 39.10090529999999,
    "longitude": -84.5126452,
    "website": "https://www.mccormickandschmicks.com/location/mccormick-schmicks-cincinnati-oh/",
    "category": "Bar & Restaurant",
    "types": "restaurant, meal_takeaway, bar, food, point_of_interest, establishment"
  },
  {
    "place_id": "ChIJzc8tP0WxQYgRIvOtfnWXLwc",
    "name": "Tin Roof",
    "street_address": "160 East Freedom Way",
    "city": "Cincinnati",
    "state": "OH",
    "zip_code": "45202",
    "latitude": 39.09751199999999,
    "longitude": -84.50956099999999,
    "website": "http://tinroofcincinnati.com/",
    "category": "Bar & Restaurant",
    "types": "restaurant, bar, food, point_of_interest, establishment"
  },
  {
    "place_id": "ChIJrbf5Uv2zQYgReQGVOvDJaho",
    "name": "Wiseguy Lounge - OTR",
    "street_address": "1211 Main Street",
    "city": "Cincinnati",
    "state": "OH",
    "zip_code": "45202",
    "latitude": 39.1091634,
    "longitude": -84.51188379999999,
    "website": "https://www.goodfellaspizzeria.com/wiseguy-lounge/",
    "category": "Bar & Restaurant",
    "types": "bar, night_club, restaurant, food, point_of_interest, establishment"
  },
  {
    "place_id": "ChIJ-8qmK1exQYgRUX2rN4jZSBg",
    "name": "Knockback Nats",
    "street_address": "10 West 7th Street",
    "city": "Cincinnati",
    "state": "OH",
    "zip_code": "45202",
    "latitude": 39.1037834,
    "longitude": -84.51418149999999,
    "website": "https://www.facebook.com/Knockback-Nats-Neighborhood-Bar-146296676362/",
    "category": "Bar & Restaurant",
    "types": "bar, restaurant, food, point_of_interest, establishment"
  },
  {
    "place_id": "ChIJkwWbZQOxQYgRYU1DiIcwTn8",
    "name": "Condado Tacos",
    "street_address": "195 East Freedom Way",
    "city": "Cincinnati",
    "state": "OH",
    "zip_code": "45202",
    "latitude": 39.097252,
    "longitude": -84.5088579,
    "website": "https://locations.condadotacos.com/oh/195-e-freedom-way?utm_source=GMB&utm_medium=organic",
    "category": "Bar & Restaurant",
    "types": "meal_takeaway, bar, restaurant, food, point_of_interest, establishment"
  },
  {
    "place_id": "ChIJe-1w8X2yQYgR5tBP4nPNBlo",
    "name": "The Pub - Rookwood",
    "street_address": "2692 Edmondson Road",
    "city": "Cincinnati",
    "state": "OH",
    "zip_code": "45208",
    "latitude": 39.1477989,
    "longitude": -84.44482289999999,
    "website": "https://experiencethepub.com/locations/rookwood/",
    "category": "Bar & Restaurant",
    "types": "restaurant, bar, food, point_of_interest, establishment"
  },
  {
    "place_id": "ChIJSXV6P4GyQYgRTWZL5nBM1Ws",
    "name": "Pilot Inn",
    "street_address": "3921 Edwards Road",
    "city": "Cincinnati",
    "state": "OH",
    "zip_code": "45209",
    "latitude": 39.15074769999999,
    "longitude": -84.4424504,
    "website": "https://www.thepilotinn.com/",
    "category": "Bar & Restaurant",
    "types": "bar, restaurant, food, point_of_interest, establishment"
  },
  {
    "place_id": "ChIJf548sBSzQYgRtnCs5yvFmU8",
    "name": "St. Bernard Pub",
    "street_address": "4537 Vine Street",
    "city": "Cincinnati",
    "state": "OH",
    "zip_code": "45217",
    "latitude": 39.1658364,
    "longitude": -84.5007897,
    "website": "http://stbernardpub.com/",
    "category": "Bar & Restaurant",
    "types": "bar, restaurant, food, point_of_interest, establishment"
  },
  {
    "place_id": "ChIJYSsoYoW0QYgRb3dgMsd0zzw",
    "name": "Northside Yacht Club",
    "street_address": "4231 Spring Grove Avenue",
    "city": "Cincinnati",
    "state": "OH",
    "zip_code": "45223",
    "latitude": 39.1598382,
    "longitude": -84.5325809,
    "website": "http://www.northsideyachtclub.com/",
    "category": "Bar & Restaurant",
    "types": "bar, restaurant, food, point_of_interest, establishment"
  },
  {
    "place_id": "ChIJCxCVtfK0QYgRl26w_AQjoaA",
    "name": "Garden on the Rock Bar & Grill",
    "street_address": "1686 Blue Rock Street",
    "city": "Cincinnati",
    "state": "OH",
    "zip_code": "45223",
    "latitude": 39.160634,
    "longitude": -84.54344999999999,
    "website": null,
    "category": "Bar & Restaurant",
    "types": "bar, restaurant, food, point_of_interest, establishment"
  },
  {
    "place_id": "ChIJ3TULHYezQYgRwlK_S2Gs0Ws",
    "name": "Arlin's Bar & Garden",
    "street_address": "307 Ludlow Avenue",
    "city": "Cincinnati",
    "state": "OH",
    "zip_code": "45220",
    "latitude": 39.1433487,
    "longitude": -84.5197203,
    "website": "http://www.facebook.com/arlinsbar",
    "category": "Bar & Restaurant",
    "types": "bar, restaurant, food, point_of_interest, establishment"
  },
  {
    "place_id": "ChIJb97ps420QYgRCcykWkp-TKs",
    "name": "The Hamilton",
    "street_address": "4029 Hamilton Avenue",
    "city": "Cincinnati",
    "state": "OH",
    "zip_code": "45223",
    "latitude": 39.15950039999999,
    "longitude": -84.53964479999999,
    "website": "https://www.facebook.com/share/18TNjAjrYL/",
    "category": "Bar & Restaurant",
    "types": "liquor_store, bar, store, restaurant, food, point_of_interest, establishment"
  },
  {
    "place_id": "ChIJe3xizRO0QYgR1c7benUOEOw",
    "name": "Cousin Jeffrey's Honky Tonk",
    "street_address": "2406 Spring Grove Avenue",
    "city": "Cincinnati",
    "state": "OH",
    "zip_code": "45214",
    "latitude": 39.1259997,
    "longitude": -84.5356094,
    "website": "https://mmm.page/cincinnatihonkytonk",
    "category": "Bar & Restaurant",
    "types": "bar, restaurant, food, point_of_interest, establishment"
  },
  {
    "place_id": "ChIJU-fhWHmtQYgR0sJxY817GbI",
    "name": "Oakley Pub & Grill",
    "street_address": "3924 Isabella Avenue",
    "city": "Cincinnati",
    "state": "OH",
    "zip_code": "45209",
    "latitude": 39.1513648,
    "longitude": -84.4319587,
    "website": "http://oakleypubandgrill.com/",
    "category": "Bar & Restaurant",
    "types": "bar, restaurant, food, point_of_interest, establishment"
  },
  {
    "place_id": "ChIJGXiKr_6tQYgRUI_jE2v5uys",
    "name": "Local Post East End Eatery",
    "street_address": "3923 Eastern Avenue",
    "city": "Cincinnati",
    "state": "OH",
    "zip_code": "45226",
    "latitude": 39.109588,
    "longitude": -84.4334789,
    "website": "http://localposteatery.com/",
    "category": "Bar & Restaurant",
    "types": "bar, restaurant, food, point_of_interest, establishment"
  },
  {
    "place_id": "ChIJ1TTYy3utQYgRUP_E2qKr1XE",
    "name": "The Oak Tavern",
    "street_address": "3089 Madison Road",
    "city": "Cincinnati",
    "state": "OH",
    "zip_code": "45209",
    "latitude": 39.1525654,
    "longitude": -84.43066259999999,
    "website": "http://www.oaktavernoakley.com/",
    "category": "Bar & Restaurant",
    "types": "bar, restaurant, food, point_of_interest, establishment"
  },
  {
    "place_id": "ChIJgQNuGA6tQYgReSZntQEsM0o",
    "name": "Mercer Social House",
    "street_address": "6623 Main Street",
    "city": "Newtown",
    "state": "OH",
    "zip_code": "45244",
    "latitude": 39.1241657,
    "longitude": -84.3693509,
    "website": "https://www.mercersocialhouse.com/",
    "category": "Restaurant",
    "types": "restaurant, food, point_of_interest, establishment"
  },
  {
    "place_id": "ChIJ4yyD4jOyQYgRKxhVgTSqBYc",
    "name": "BrewRiver Creole Kitchen",
    "street_address": "4632 Eastern Avenue",
    "city": "Cincinnati",
    "state": "OH",
    "zip_code": "45226",
    "latitude": 39.1188891,
    "longitude": -84.4188815,
    "website": "https://www.brewrivercreolekitchen.com/",
    "category": "Bar & Restaurant",
    "types": "restaurant, bar, food, point_of_interest, establishment"
  },
  {
    "place_id": "ChIJxW_WrIGtQYgRpT_Rhy0F2wM",
    "name": "The Establishment",
    "street_address": "2900 Wasson Road",
    "city": "Cincinnati",
    "state": "OH",
    "zip_code": "45209",
    "latitude": 39.14453719999999,
    "longitude": -84.4354408,
    "website": "https://www.establishmentoakley.com/",
    "category": "Bar & Restaurant",
    "types": "bar, restaurant, food, point_of_interest, establishment"
  },
  {
    "place_id": "ChIJBQOGCOazQYgR13iKdpeRJ5I",
    "name": "6 @ Nite",
    "street_address": "1535 Madison Road",
    "city": "Cincinnati",
    "state": "OH",
    "zip_code": "45206",
    "latitude": 39.1295246,
    "longitude": -84.4771248,
    "website": "http://6atnite.com/",
    "category": "Bar & Restaurant",
    "types": "restaurant, bar, night_club, food, point_of_interest, establishment"
  },
  {
    "place_id": "ChIJdezguxqzQYgRh9IijeqiWgo",
    "name": "Rusk Kitchen + Bar",
    "street_address": "2724 Woodburn Avenue",
    "city": "Cincinnati",
    "state": "OH",
    "zip_code": "45206",
    "latitude": 39.1286726,
    "longitude": -84.4770925,
    "website": "https://ruskcincy.com/",
    "category": "Bar & Restaurant",
    "types": "restaurant, bar, point_of_interest, food, establishment"
  },
  {
    "place_id": "ChIJu5WSqo2tQYgRqJdn99JdqRM",
    "name": "Mt. Lookout Tavern",
    "street_address": "3209 Linwood Avenue",
    "city": "Cincinnati",
    "state": "OH",
    "zip_code": "45226",
    "latitude": 39.12801899999999,
    "longitude": -84.43031900000001,
    "website": "http://www.mtlookouttavern.com/",
    "category": "Bar & Restaurant",
    "types": "bar, restaurant, food, point_of_interest, establishment"
  },
  {
    "place_id": "ChIJLRP8NA6zQYgRPW5ey0WdRFI",
    "name": "Stonies Pub and Grill",
    "street_address": "5400 Carthage Avenue",
    "city": "Cincinnati",
    "state": "OH",
    "zip_code": "45212",
    "latitude": 39.1738504,
    "longitude": -84.454886,
    "website": "http://stonies-pub-grill.edan.io/",
    "category": "Bar & Restaurant",
    "types": "bar, restaurant, food, point_of_interest, establishment"
  },
  {
    "place_id": "ChIJmWZyAU6tQYgRk5T2xx8TLJ4",
    "name": "Nine Giant",
    "street_address": "6095 Montgomery Road",
    "city": "Cincinnati",
    "state": "OH",
    "zip_code": "45213",
    "latitude": 39.18225399999999,
    "longitude": -84.4276775,
    "website": "http://www.ninegiant.com/",
    "category": "Bar & Restaurant",
    "types": "restaurant, bar, point_of_interest, food, establishment"
  },
  {
    "place_id": "ChIJe-1w8X2yQYgRlwq3UGsPZkQ",
    "name": "Rusty Bucket Restaurant and Tavern",
    "street_address": "2692 Madison Road",
    "city": "Cincinnati",
    "state": "OH",
    "zip_code": "45208",
    "latitude": 39.1474176,
    "longitude": -84.4429335,
    "website": "https://www.myrustybucket.com/rookwood",
    "category": "Bar & Restaurant",
    "types": "bar, restaurant, food, point_of_interest, establishment"
  },
  {
    "place_id": "ChIJSWH1qY2tQYgRLz_GjG5pUpI",
    "name": "MILLIONS CAFE",
    "street_address": "3210 Linwood Avenue",
    "city": "Cincinnati",
    "state": "OH",
    "zip_code": "45208",
    "latitude": 39.1282021,
    "longitude": -84.4298996,
    "website": "http://www.millions-cafe.com/",
    "category": "Bar & Restaurant",
    "types": "bar, restaurant, food, point_of_interest, establishment"
  },
  {
    "place_id": "ChIJB1wVuUOtQYgRMyR2Gmhrmcs",
    "name": "Hooligans Pub & Eatery",
    "street_address": "3340 Highland Avenue",
    "city": "Cincinnati",
    "state": "OH",
    "zip_code": "45213",
    "latitude": 39.1708596,
    "longitude": -84.4240117,
    "website": "https://hooligans-pub.com/",
    "category": "Bar & Restaurant",
    "types": "bar, restaurant, point_of_interest, food, establishment"
  },
  {
    "place_id": "ChIJNd1fn1StQYgRbprCG-xr8Y8",
    "name": "F\u00e4sser",
    "street_address": "6022 Madison Road",
    "city": "Cincinnati",
    "state": "OH",
    "zip_code": "45227",
    "latitude": 39.1606481,
    "longitude": -84.39080460000001,
    "website": "http://fassercincy.com/",
    "category": "Bar & Restaurant",
    "types": "bar, restaurant, food, point_of_interest, establishment"
  },
  {
    "place_id": "ChIJ0cgfd0SzQYgR6GXLWjXY2ik",
    "name": "Ford's Garage Norwood",
    "street_address": "2692 Madison Road",
    "city": "Cincinnati",
    "state": "OH",
    "zip_code": "45208",
    "latitude": 39.1475575,
    "longitude": -84.4440568,
    "website": "https://www.fordsgarageusa.com/locations/norwood/",
    "category": "Bar & Restaurant",
    "types": "bar, restaurant, food, point_of_interest, establishment"
  },
  {
    "place_id": "ChIJXwqnmk61QYgRmSfZi-aCoZU",
    "name": "Cloverleaf Pub",
    "street_address": "3269 North Bend Road",
    "city": "Cincinnati",
    "state": "OH",
    "zip_code": "45239",
    "latitude": 39.189983,
    "longitude": -84.59205899999999,
    "website": "https://facebook.com/CloverleafPub/",
    "category": "Bar & Restaurant",
    "types": "bar, restaurant, point_of_interest, food, establishment"
  },
  {
    "place_id": "ChIJ1Z-4-L-0QYgRir5DMXL0hZc",
    "name": "The Comet",
    "street_address": "4579 Hamilton Avenue",
    "city": "Cincinnati",
    "state": "OH",
    "zip_code": "45223",
    "latitude": 39.1727953,
    "longitude": -84.5432843,
    "website": "https://cometbar.com/",
    "category": "Bar & Restaurant",
    "types": "bar, restaurant, food, point_of_interest, establishment"
  },
  {
    "place_id": "ChIJ22X5Nne1QYgRSVqHIkqUJvI",
    "name": "W Bar + Bistro",
    "street_address": "3447 Epworth Avenue",
    "city": "Cincinnati",
    "state": "OH",
    "zip_code": "45211",
    "latitude": 39.15009939999999,
    "longitude": -84.599808,
    "website": "http://wbarbistro.com/",
    "category": "Restaurant",
    "types": "restaurant, food, point_of_interest, establishment"
  },
  {
    "place_id": "ChIJzV9WHfWzQYgRPeVn-l1Z_fY",
    "name": "Mac's Pizza Pub",
    "street_address": "205 West McMillan Street",
    "city": "Cincinnati",
    "state": "OH",
    "zip_code": "45219",
    "latitude": 39.1277058,
    "longitude": -84.51967270000002,
    "website": "https://macspizzapub.com/",
    "category": "Bar & Restaurant",
    "types": "restaurant, bar, food, point_of_interest, establishment"
  },
  {
    "place_id": "ChIJ4blvPG6xQYgRj9_JSnkKETY",
    "name": "Mansion Hill Tavern",
    "street_address": "502 Washington Avenue",
    "city": "Newport",
    "state": "KY",
    "zip_code": "41071",
    "latitude": 39.0936631,
    "longitude": -84.4916842,
    "website": "https://mansionhilltavern.com/",
    "category": "Bar & Restaurant",
    "types": "restaurant, bar, point_of_interest, food, establishment"
  },
  {
    "place_id": "ChIJ9UWCBlqxQYgRoH9ooQSY_jI",
    "name": "Nada",
    "street_address": "600 Walnut Street",
    "city": "Cincinnati",
    "state": "OH",
    "zip_code": "45202",
    "latitude": 39.1028992,
    "longitude": -84.5113634,
    "website": "http://eatdrinknada.com/",
    "category": "Bar & Restaurant",
    "types": "bar, restaurant, food, point_of_interest, establishment"
  },
  {
    "place_id": "ChIJVVVlboezQYgRMWUkvPGChyY",
    "name": "Gaslight Bar and Grill",
    "street_address": "351 Ludlow Avenue",
    "city": "Cincinnati",
    "state": "OH",
    "zip_code": "45220",
    "latitude": 39.143584,
    "longitude": -84.5212768,
    "website": "http://gaslightbarandgrillclifton.com/",
    "category": "Bar & Restaurant",
    "types": "restaurant, bar, food, point_of_interest, establishment"
  },
  {
    "place_id": "ChIJz30bFd-zQYgRXOBbYlQ3YfI",
    "name": "Mt. Adams Bar & Grill",
    "street_address": "938 Hatch Street",
    "city": "Cincinnati",
    "state": "OH",
    "zip_code": "45202",
    "latitude": 39.1093867,
    "longitude": -84.497423,
    "website": "http://mtadamsbarandgrill.com/",
    "category": "Bar & Restaurant",
    "types": "bar, restaurant, food, point_of_interest, establishment"
  },
  {
    "place_id": "ChIJa__ZMaGvQYgRkfsHiryAWtM",
    "name": "Sutton Bar & Grill",
    "street_address": "1832 Sutton Avenue",
    "city": "Cincinnati",
    "state": "OH",
    "zip_code": "45230",
    "latitude": 39.0877134,
    "longitude": -84.3898979,
    "website": "http://suttonbarandgrill.com/",
    "category": "Bar & Restaurant",
    "types": "bar, restaurant, food, point_of_interest, establishment"
  },
  {
    "place_id": "ChIJ9XYcxYCyQYgRyGXPQ6HH8as",
    "name": "Seasons 52",
    "street_address": "3819 Edwards Road",
    "city": "Cincinnati",
    "state": "OH",
    "zip_code": "45209",
    "latitude": 39.1490264,
    "longitude": -84.4435364,
    "website": "https://www.seasons52.com/locations/oh/cincinnati/cincinnati/4535?cmpid=br:s52_ag:ie_ch:loc_ca:S52GMB_sn:gmb_gt:cincinnati-oh-4535_pl:locurl_rd:1032",
    "category": "Bar & Restaurant",
    "types": "bar, meal_takeaway, restaurant, food, point_of_interest, establishment"
  },
  {
    "place_id": "ChIJr-XfnJ-rQYgRTXdOAURebzQ",
    "name": "Ethel's Tavern",
    "street_address": "4095 Round Bottom Road",
    "city": "Cincinnati",
    "state": "OH",
    "zip_code": "45244",
    "latitude": 39.1391913,
    "longitude": -84.3337222,
    "website": null,
    "category": "Bar & Restaurant",
    "types": "bar, restaurant, food, point_of_interest, establishment"
  },
  {
    "place_id": "ChIJeTRL4KauQYgRYYf1FDKrQ4E",
    "name": "Anderson Township Pub",
    "street_address": "6694 Clough Pike",
    "city": "Cincinnati",
    "state": "OH",
    "zip_code": "45244",
    "latitude": 39.0991309,
    "longitude": -84.3688063,
    "website": "http://www.andersontownshippub.com/",
    "category": "Bar & Restaurant",
    "types": "bar, restaurant, food, point_of_interest, establishment"
  },
  {
    "place_id": "ChIJUZsXy15TQIgRLPHff6LgW-g",
    "name": "Ali's Bar and Grill",
    "street_address": "7820 Camargo Road",
    "city": "Cincinnati",
    "state": "OH",
    "zip_code": "45243",
    "latitude": 39.187659,
    "longitude": -84.36108399999999,
    "website": "http://alisbarandgrill.com/",
    "category": "Bar & Restaurant",
    "types": "bar, restaurant, food, point_of_interest, establishment"
  },
  {
    "place_id": "ChIJd4U7OJ-tQYgRWfczD-G39lY",
    "name": "Hap's Irish Pub",
    "street_address": "3510 Erie Avenue",
    "city": "Cincinnati",
    "state": "OH",
    "zip_code": "45208",
    "latitude": 39.1412935,
    "longitude": -84.41871259999999,
    "website": "https://www.facebook.com/Haps-Irish-Pub-125057637545502/",
    "category": "Bar & Restaurant",
    "types": "bar, restaurant, food, point_of_interest, establishment"
  },
  {
    "place_id": "ChIJt5i9FvWsQYgR-CaVlJzIu5c",
    "name": "Dilly. Bistro, Bar & Bottle Shop",
    "street_address": "6818 Wooster Pike",
    "city": "Cincinnati",
    "state": "OH",
    "zip_code": "45227",
    "latitude": 39.1454708,
    "longitude": -84.37676669999999,
    "website": "http://www.dillybistro.com/",
    "category": "Bar & Restaurant",
    "types": "liquor_store, bar, store, restaurant, food, point_of_interest, establishment"
  },
  {
    "place_id": "ChIJzRqyc22sQYgRKP5ju6pk8ew",
    "name": "Newtown Village Tavern Pizza",
    "street_address": "6778 Main Street",
    "city": "Cincinnati",
    "state": "OH",
    "zip_code": "45244",
    "latitude": 39.12463609999999,
    "longitude": -84.3657829,
    "website": "http://nvtpizza.com/",
    "category": "Restaurant",
    "types": "meal_delivery, restaurant, food, point_of_interest, establishment"
  },
  {
    "place_id": "ChIJN6PFDk6tQYgRCAauNgcah4I",
    "name": "The Gas Light Cafe",
    "street_address": "6104 Montgomery Road",
    "city": "Cincinnati",
    "state": "OH",
    "zip_code": "45213",
    "latitude": 39.18205919999999,
    "longitude": -84.4268811,
    "website": "http://www.thegaslightcafe.com/",
    "category": "Bar & Restaurant",
    "types": "bar, restaurant, point_of_interest, food, establishment"
  },
  {
    "place_id": "ChIJR9hJo-mtQYgRrx0RmczndTw",
    "name": "The Turf Club",
    "street_address": "4618 Eastern Avenue",
    "city": "Cincinnati",
    "state": "OH",
    "zip_code": "45226",
    "latitude": 39.1182954,
    "longitude": -84.4191134,
    "website": "https://www.turfclubcincy.com/",
    "category": "Bar & Restaurant",
    "types": "bar, restaurant, food, point_of_interest, establishment"
  },
  {
    "place_id": "ChIJXwOV5VesQYgRk4_W_5QqIM0",
    "name": "Mac\u2019s Pizza Pub",
    "street_address": "6309 Wooster Pike",
    "city": "Cincinnati",
    "state": "OH",
    "zip_code": "45227",
    "latitude": 39.143519,
    "longitude": -84.386288,
    "website": "http://www.macspizzapub.com/",
    "category": "Bar & Restaurant",
    "types": "bar, restaurant, food, point_of_interest, establishment"
  },
  {
    "place_id": "ChIJ0-_aI7SrQYgRK7MbbjSKexs",
    "name": "Fifty West Brewing Company- Burger Bar",
    "street_address": "7605 Wooster Pike",
    "city": "Cincinnati",
    "state": "OH",
    "zip_code": "45227",
    "latitude": 39.13931309999999,
    "longitude": -84.3551961,
    "website": "https://fiftywestbrew.com/",
    "category": "Restaurant",
    "types": "restaurant, point_of_interest, food, establishment"
  },
  {
    "place_id": "ChIJv8slF4BTQIgRzDlk9qHc_Uk",
    "name": "Corner Pub",
    "street_address": "7833 Cooper Road",
    "city": "Cincinnati",
    "state": "OH",
    "zip_code": "45242",
    "latitude": 39.2263889,
    "longitude": -84.35527780000001,
    "website": "http://corner-pub-cincinnati.lany.io/",
    "category": "Bar & Restaurant",
    "types": "bar, restaurant, food, point_of_interest, establishment"
  },
  {
    "place_id": "ChIJj6qS5KFTQIgRE6Ui9kLN1AA",
    "name": "Slatts Pub & Grill",
    "street_address": "4858 Cooper Road",
    "city": "Cincinnati",
    "state": "OH",
    "zip_code": "45242",
    "latitude": 39.2311093,
    "longitude": -84.3755783,
    "website": "http://www.slattspub.com/",
    "category": "Bar & Restaurant",
    "types": "bar, restaurant, food, point_of_interest, establishment"
  },
  {
    "place_id": "ChIJeaNnYcRTQIgR9HEdJFfG07c",
    "name": "Blu Restaurant & Bar",
    "street_address": "4554 Lake Forest Drive",
    "city": "Blue Ash",
    "state": "OH",
    "zip_code": "45242",
    "latitude": 39.2551233,
    "longitude": -84.3813921,
    "website": "https://www.hilton.com/en/hotels/cvgbaes-embassy-suites-cincinnati-northeast-blue-ash/dining/",
    "category": "Bar & Restaurant",
    "types": "bar, restaurant, food, point_of_interest, establishment"
  },
  {
    "place_id": "ChIJkfvdDYBTQIgR9xBO9TqPmqQ",
    "name": "Village Tavern",
    "street_address": "9390 Montgomery Road",
    "city": "Cincinnati",
    "state": "OH",
    "zip_code": "45242",
    "latitude": 39.2266612,
    "longitude": -84.35469289999999,
    "website": null,
    "category": "Bar & Restaurant",
    "types": "bar, restaurant, food, point_of_interest, establishment"
  },
  {
    "place_id": "ChIJfxYw_-dTQIgRI4amJmoTQUQ",
    "name": "Sammy's Craft Burgers & Beers",
    "street_address": "4767 Creek Road",
    "city": "Cincinnati",
    "state": "OH",
    "zip_code": "45242",
    "latitude": 39.257828,
    "longitude": -84.37512199999999,
    "website": "http://sammyscbb.com/",
    "category": "Bar & Restaurant",
    "types": "bar, restaurant, food, point_of_interest, establishment"
  },
  {
    "place_id": "ChIJ8cP9CYpRQIgRVm1tO8HL1Cg",
    "name": "Blue Goose Sports Cafe",
    "street_address": "11060 Reading Road",
    "city": "Cincinnati",
    "state": "OH",
    "zip_code": "45241",
    "latitude": 39.269544,
    "longitude": -84.4127743,
    "website": "http://www.bluegoosesportscafe.com/",
    "category": "Bar & Restaurant",
    "types": "bar, store, restaurant, food, point_of_interest, establishment"
  },
  {
    "place_id": "ChIJyYCnNtFSQIgRyY8_NO1BXCg",
    "name": "Silverton Caf\u00e9",
    "street_address": "7201 Montgomery Road",
    "city": "Cincinnati",
    "state": "OH",
    "zip_code": "45236",
    "latitude": 39.193319,
    "longitude": -84.401929,
    "website": "http://thesilvertoncafe.com/",
    "category": "Bar & Restaurant",
    "types": "cafe, bar, restaurant, food, point_of_interest, establishment"
  },
  {
    "place_id": "ChIJySIbsB5UQIgRAdoZ1v_DC9k",
    "name": "Montgomery Towne Tavern",
    "street_address": "10813 Montgomery Road",
    "city": "Cincinnati",
    "state": "OH",
    "zip_code": "45242",
    "latitude": 39.25970909999999,
    "longitude": -84.3411064,
    "website": "http://www.facebook.com/MontgomeryTowneTavern",
    "category": "Bar & Restaurant",
    "types": "bar, restaurant, food, point_of_interest, establishment"
  },
  {
    "place_id": "ChIJdexigDlTQIgR68P9M1MYDe4",
    "name": "Higher Gravity Summit Park",
    "street_address": "10241 Summit Parkway",
    "city": "Blue Ash",
    "state": "OH",
    "zip_code": "45242",
    "latitude": 39.24965259999999,
    "longitude": -84.3852428,
    "website": "https://highergravitycrafthaus.com/",
    "category": "Bar & Restaurant",
    "types": "bar, liquor_store, restaurant, food, store, point_of_interest, establishment"
  },
  {
    "place_id": "ChIJry6JkthSQIgRrL_NAXxIL8Q",
    "name": "Deer Park Tavern",
    "street_address": "7228 Blue Ash Road",
    "city": "Cincinnati",
    "state": "OH",
    "zip_code": "45236",
    "latitude": 39.19981249999999,
    "longitude": -84.39760729999999,
    "website": null,
    "category": "Bar & Restaurant",
    "types": "bar, restaurant, food, point_of_interest, establishment"
  },
  {
    "place_id": "ChIJ67tzKlaxQYgR5BGXUGtIjxo",
    "name": "Senate",
    "street_address": "1100 Summit Place",
    "city": "Blue Ash",
    "state": "OH",
    "zip_code": "45242",
    "latitude": 39.250967,
    "longitude": -84.3855005,
    "website": "http://www.senatepub.com/",
    "category": "Bar & Restaurant",
    "types": "bar, restaurant, food, point_of_interest, establishment"
  },
  {
    "place_id": "ChIJzWo2UrZTQIgRA4aMenRhsY0",
    "name": "The Park Pour",
    "street_address": "4815 Cooper Road",
    "city": "Cincinnati",
    "state": "OH",
    "zip_code": "45242",
    "latitude": 39.2307069,
    "longitude": -84.3762533,
    "website": "http://theparkpour.com/",
    "category": "Bar & Restaurant",
    "types": "restaurant, liquor_store, bar, cafe, store, food, point_of_interest, establishment"
  },
  {
    "place_id": "ChIJ0bIPC8FTQIgRz_H2mloVnWQ",
    "name": "Firehouse Grill",
    "street_address": "4785 Lake Forest Drive",
    "city": "Cincinnati",
    "state": "OH",
    "zip_code": "45242",
    "latitude": 39.25170290000001,
    "longitude": -84.37844299999999,
    "website": "http://www.firehousegrillcincinnati.com/",
    "category": "Bar & Restaurant",
    "types": "restaurant, bar, food, point_of_interest, establishment"
  },
  {
    "place_id": "ChIJwRwwwNZSQIgRz07IrLeDc7g",
    "name": "HighGrain Taproom & Kitchen",
    "street_address": "6860 Plainfield Road",
    "city": "Cincinnati",
    "state": "OH",
    "zip_code": "45236",
    "latitude": 39.192935,
    "longitude": -84.40023599999999,
    "website": "http://www.highgrainbrewing.com/",
    "category": "Bar & Restaurant",
    "types": "bar, restaurant, food, point_of_interest, establishment"
  },
  {
    "place_id": "ChIJKfAPFYpRQIgR5ZhQCg60q5M",
    "name": "Al's Bar",
    "street_address": "11133 Reading Road",
    "city": "Cincinnati",
    "state": "OH",
    "zip_code": "45241",
    "latitude": 39.2710075,
    "longitude": -84.4130249,
    "website": null,
    "category": "Bar & Restaurant",
    "types": "bar, restaurant, food, point_of_interest, establishment"
  },
  {
    "place_id": "ChIJ0Qb4JddSQIgRxtxMjm9ITEs",
    "name": "MVP Sports Bar and Grille",
    "street_address": "6923 Plainfield Road",
    "city": "Cincinnati",
    "state": "OH",
    "zip_code": "45236",
    "latitude": 39.1945056,
    "longitude": -84.4006917,
    "website": "http://www.mvpbarandgrille.com/",
    "category": "Bar & Restaurant",
    "types": "bar, restaurant, point_of_interest, food, establishment"
  },
  {
    "place_id": "ChIJAQi7PQ9TQIgRFdUkEpn_92c",
    "name": "Logo's Sports Bar & Grill",
    "street_address": "8954 Blue Ash Road",
    "city": "Cincinnati",
    "state": "OH",
    "zip_code": "45242",
    "latitude": 39.22091309999999,
    "longitude": -84.38399629999999,
    "website": "https://m.facebook.com/pages/category/Sports-Bar/Logos-Sports-Bar-Grill-116376075052736/",
    "category": "Bar & Restaurant",
    "types": "bar, restaurant, point_of_interest, food, establishment"
  },
  {
    "place_id": "ChIJ-fG7eO1TQIgRyCDzRkSfuc8",
    "name": "The Brown Dog Cafe",
    "street_address": "1000 Summit Place",
    "city": "Blue Ash",
    "state": "OH",
    "zip_code": "45242",
    "latitude": 39.25046830000001,
    "longitude": -84.3851475,
    "website": "https://thebrowndogcafe.com/",
    "category": "Bar & Restaurant",
    "types": "bar, restaurant, food, point_of_interest, establishment"
  },
  {
    "place_id": "ChIJgyTF4DdTQIgRceU4RCzXhsc",
    "name": "Hoppin' Vines",
    "street_address": "8150 Montgomery Road",
    "city": "Cincinnati",
    "state": "OH",
    "zip_code": "45236",
    "latitude": 39.20339769999999,
    "longitude": -84.3682236,
    "website": "http://hoppinvines.com/",
    "category": "Bar & Restaurant",
    "types": "restaurant, bowling_alley, bar, food, point_of_interest, establishment"
  },
  {
    "place_id": "ChIJN1wruktZQIgRftHe0fViNMY",
    "name": "Beerhead Bar & Eatery",
    "street_address": "5277 Kings Mills Road",
    "city": "Mason",
    "state": "OH",
    "zip_code": "45040",
    "latitude": 39.35767240000001,
    "longitude": -84.27591199999999,
    "website": "http://www.beerheadbar.com/",
    "category": "Restaurant",
    "types": "restaurant, food, point_of_interest, establishment"
  },
  {
    "place_id": "ChIJhfZyREVXQIgRxTv7Bux4uxU",
    "name": "James' Third Base Sports Bar and Grill",
    "street_address": "1079 Reading Road",
    "city": "Mason",
    "state": "OH",
    "zip_code": "45040",
    "latitude": 39.3380889,
    "longitude": -84.34287259999999,
    "website": "http://www.jtbsportsbar.com/",
    "category": "Bar & Restaurant",
    "types": "bar, restaurant, food, point_of_interest, establishment"
  },
  {
    "place_id": "ChIJjyPNOz_4QIgRdfupOmVvhPk",
    "name": "The Monkey Bar & Grille",
    "street_address": "7837 Old 3C Highway",
    "city": "Maineville",
    "state": "OH",
    "zip_code": "45039",
    "latitude": 39.3220191,
    "longitude": -84.2519575,
    "website": "http://themonkeybarandgrille.com/",
    "category": "Bar & Restaurant",
    "types": "bar, restaurant, food, point_of_interest, establishment"
  },
  {
    "place_id": "ChIJXaNbMzj3QIgRQbukwOBWV9w",
    "name": "Ironwood Grill & Tap",
    "street_address": "5158 Kings Island Drive",
    "city": "Mason",
    "state": "OH",
    "zip_code": "45040",
    "latitude": 39.36019599999999,
    "longitude": -84.25710959999999,
    "website": "https://www.visitcampcedar.com/amenities/dining",
    "category": "Restaurant",
    "types": "restaurant, food, point_of_interest, establishment"
  },
  {
    "place_id": "ChIJOwk93hv5QIgRtEAPDKClog0",
    "name": "Miami River Brewhouse - Kings Island",
    "street_address": "6300 Kings Island Drive",
    "city": "Mason",
    "state": "OH",
    "zip_code": "45040",
    "latitude": 39.3415197,
    "longitude": -84.2678035,
    "website": "https://www.visitkingsisland.com/dining/miami-river-brewhouse",
    "category": "Restaurant",
    "types": "restaurant, food, point_of_interest, establishment"
  },
  {
    "place_id": "ChIJISl-AQ9YQIgR_7XpJN9Jm1A",
    "name": "The Old Bag of Nails Pub - Mason",
    "street_address": "5234 Kings Mills Road",
    "city": "Mason",
    "state": "OH",
    "zip_code": "45040",
    "latitude": 39.3605211,
    "longitude": -84.277411,
    "website": "http://www.oldbagofnails.com/",
    "category": "Bar & Restaurant",
    "types": "restaurant, bar, food, point_of_interest, establishment"
  },
  {
    "place_id": "ChIJhV-EfttQQIgR12pNgHL4oHg",
    "name": "The Hangar of West Chester",
    "street_address": "9292 Cincinnati Columbus Road",
    "city": "Cincinnati",
    "state": "OH",
    "zip_code": "45241",
    "latitude": 39.31720949999999,
    "longitude": -84.3697839,
    "website": "https://www.hangarofwestchester.com/",
    "category": "Bar & Restaurant",
    "types": "bar, restaurant, food, point_of_interest, establishment"
  },
  {
    "place_id": "ChIJ1T3eYd5ZQIgRLx_JP7cztQg",
    "name": "S.W. Clyborne Co. Provision & Spirits",
    "street_address": "5948 Snider Road",
    "city": "Mason",
    "state": "OH",
    "zip_code": "45040",
    "latitude": 39.3527378,
    "longitude": -84.3305542,
    "website": "https://www.clybornes.com/",
    "category": "Bar & Restaurant",
    "types": "bar, restaurant, food, point_of_interest, establishment"
  },
  {
    "place_id": "ChIJ-98rtuRXQIgRdpGKUcDkNrM",
    "name": "Eli's Sports Bar & Grill",
    "street_address": "3187 Western Row Road",
    "city": "Maineville",
    "state": "OH",
    "zip_code": "45039",
    "latitude": 39.3351162,
    "longitude": -84.2770642,
    "website": "http://elissportsbar.com/",
    "category": "Bar & Restaurant",
    "types": "bar, restaurant, food, point_of_interest, establishment"
  },
  {
    "place_id": "ChIJgxRqazFYQIgRgXGmxsaIdBk",
    "name": "Wildflower Caf\u00e9 and Wine Shop",
    "street_address": "207 East Main Street",
    "city": "Mason",
    "state": "OH",
    "zip_code": "45040",
    "latitude": 39.3614618,
    "longitude": -84.3056775,
    "website": "http://www.wildflowermason.com/",
    "category": "Bar & Restaurant",
    "types": "restaurant, liquor_store, bar, food, point_of_interest, store, establishment"
  },
  {
    "place_id": "ChIJcXxBtxpYQIgRZk6ph5-huvU",
    "name": "The Great 18 Bar and Grill",
    "street_address": "6042 Fairway Drive",
    "city": "Mason",
    "state": "OH",
    "zip_code": "45040",
    "latitude": 39.35029,
    "longitude": -84.2784169,
    "website": "https://www.masongrizzly.com/",
    "category": "Bar & Restaurant",
    "types": "bar, restaurant, food, point_of_interest, establishment"
  },
  {
    "place_id": "ChIJlUV78NVZQIgRHG8viW2pueU",
    "name": "Warped Wing Brewpub & Smokery - Mason",
    "street_address": "5650 Tylersville Road",
    "city": "Mason",
    "state": "OH",
    "zip_code": "45040",
    "latitude": 39.3527439,
    "longitude": -84.3213932,
    "website": "http://warpedwing.com/mason",
    "category": "Restaurant",
    "types": "restaurant, food, point_of_interest, establishment"
  },
  {
    "place_id": "ChIJSeDV9V1XQIgReTAQ7ll9oqw",
    "name": "Diggs Bar and Grill",
    "street_address": "854 Reading Road",
    "city": "Mason",
    "state": "OH",
    "zip_code": "45040",
    "latitude": 39.3425102,
    "longitude": -84.3332977,
    "website": "https://diggsbarandgrill.com/",
    "category": "Bar & Restaurant",
    "types": "bar, restaurant, food, point_of_interest, establishment"
  },
  {
    "place_id": "ChIJJVXMYtdZQIgR-0Cwe5cENUM",
    "name": "Lucky Dog Grille",
    "street_address": "729 Reading Road",
    "city": "Mason",
    "state": "OH",
    "zip_code": "45040",
    "latitude": 39.3509654,
    "longitude": -84.3239833,
    "website": "https://www.luckydoggrille.com/",
    "category": "Restaurant",
    "types": "restaurant, food, point_of_interest, establishment"
  },
  {
    "place_id": "ChIJy7bjAd9ZQIgRBsHzbcRuiPw",
    "name": "Buffalo Wild Wings",
    "street_address": "6050 Snider Road",
    "city": "Mason",
    "state": "OH",
    "zip_code": "45040",
    "latitude": 39.3512373,
    "longitude": -84.3302777,
    "website": "https://www.buffalowildwings.com/locations/us/oh/mason/6050-snider-road/sports-bar-542?utm_source=google%20my%20business&utm_medium=organic&utm_campaign=website%20link",
    "category": "Bar & Restaurant",
    "types": "bar, meal_takeaway, restaurant, food, point_of_interest, establishment"
  },
  {
    "place_id": "ChIJbWvz-gpRQIgRqUI5xdEUsZ8",
    "name": "Brick House Bar & Grill",
    "street_address": "11961 Lebanon Road",
    "city": "Sharonville",
    "state": "OH",
    "zip_code": "45241",
    "latitude": 39.29162060000001,
    "longitude": -84.3960767,
    "website": "http://brickhousecincy.com/",
    "category": "Bar & Restaurant",
    "types": "bar, restaurant, food, point_of_interest, establishment"
  },
  {
    "place_id": "ChIJJ6WbarRPQIgRuZFdsnBTL_A",
    "name": "The Back Porch Saloon",
    "street_address": "9626 Princeton Glendale Road",
    "city": "Cincinnati",
    "state": "OH",
    "zip_code": "45011",
    "latitude": 39.3169024,
    "longitude": -84.4638787,
    "website": "http://www.backporchsaloon.com/",
    "category": "Bar & Restaurant",
    "types": "bar, restaurant, food, point_of_interest, establishment"
  },
  {
    "place_id": "ChIJ-avSmGxRQIgR0Xb-nYAJNQU",
    "name": "Twin Peaks",
    "street_address": "9424 Civic Centre Boulevard",
    "city": "Cincinnati",
    "state": "OH",
    "zip_code": "45069",
    "latitude": 39.3205244,
    "longitude": -84.4223299,
    "website": "https://twinpeaksrestaurant.com/locations/west-chester",
    "category": "Bar & Restaurant",
    "types": "bar, restaurant, food, point_of_interest, establishment"
  },
  {
    "place_id": "ChIJofzlq7pPQIgR-O0rEHe0eVc",
    "name": "Star Lounge & Bar",
    "street_address": "8953 Princeton Glendale Road",
    "city": "Cincinnati",
    "state": "OH",
    "zip_code": "45069",
    "latitude": 39.334198,
    "longitude": -84.463168,
    "website": "http://www.starloungeandbar.com/",
    "category": "Restaurant",
    "types": "restaurant, food, point_of_interest, establishment"
  },
  {
    "place_id": "ChIJnXsc2C5PQIgRbs7RcHsexOQ",
    "name": "The Clubhouse Sports Grille",
    "street_address": "8188 Princeton Glendale Road",
    "city": "Beckett Ridge",
    "state": "OH",
    "zip_code": "45069",
    "latitude": 39.35350750000001,
    "longitude": -84.4599442,
    "website": "http://theclubhousesportsgrille.com/",
    "category": "Bar & Restaurant",
    "types": "restaurant, bar, point_of_interest, food, establishment"
  },
  {
    "place_id": "ChIJJyoVYiRQQIgRlQCxgZB4MPM",
    "name": "Dingle House Irish Pub & Grub",
    "street_address": "9102 West Chester Towne Centre Road",
    "city": "Cincinnati",
    "state": "OH",
    "zip_code": "45069",
    "latitude": 39.3266521,
    "longitude": -84.4303199,
    "website": "http://www.dinglehouse.com/",
    "category": "Bar & Restaurant",
    "types": "bar, restaurant, point_of_interest, food, establishment"
  },
  {
    "place_id": "ChIJ0_REhENaQIgRuDjjRwB1lgs",
    "name": "Draft Bar & Grille",
    "street_address": "7029 Yankee Road",
    "city": "Cincinnati",
    "state": "OH",
    "zip_code": "45044",
    "latitude": 39.376029,
    "longitude": -84.38221899999999,
    "website": "http://draftbarandgrille.co/",
    "category": "Bar & Restaurant",
    "types": "bar, restaurant, food, point_of_interest, establishment"
  },
  {
    "place_id": "ChIJC8gyAC5QQIgRY8bXPSMlCIw",
    "name": "Matt the Miller's Tavern",
    "street_address": "9558 Civic Centre Boulevard",
    "city": "Cincinnati",
    "state": "OH",
    "zip_code": "45069",
    "latitude": 39.317411,
    "longitude": -84.427649,
    "website": "https://mtmtavern.com/locations-menus/west-chester/",
    "category": "Bar & Restaurant",
    "types": "restaurant, bar, food, point_of_interest, establishment"
  },
  {
    "place_id": "ChIJa6cF8D9aQIgRlNKlAOkTDoM",
    "name": "Rusty Bucket Restaurant and Tavern",
    "street_address": "7524 Bales Street",
    "city": "Cincinnati",
    "state": "OH",
    "zip_code": "45069",
    "latitude": 39.3720657,
    "longitude": -84.373109,
    "website": "https://www.myrustybucket.com/liberty-center",
    "category": "Bar & Restaurant",
    "types": "bar, restaurant, point_of_interest, food, establishment"
  },
  {
    "place_id": "ChIJI-Ay0TpQQIgRQ10ovSnzT1I",
    "name": "Wise Owl Wine Bar",
    "street_address": "6206 Muhlhauser Road",
    "city": "Cincinnati",
    "state": "OH",
    "zip_code": "45069",
    "latitude": 39.3260015,
    "longitude": -84.4275739,
    "website": "http://www.wiseowlwinebar.com/",
    "category": "Bar & Restaurant",
    "types": "bar, restaurant, food, point_of_interest, establishment"
  },
  {
    "place_id": "ChIJ_xLNoDxQQIgRnvkJbNUN2jw",
    "name": "The Bistro - Eat. Drink. Connect.\u00ae",
    "street_address": "6250 Muhlhauser Road",
    "city": "Cincinnati",
    "state": "OH",
    "zip_code": "45069",
    "latitude": 39.327869,
    "longitude": -84.426032,
    "website": "https://www.marriott.com/hotels/hotel-information/restaurant/cvgwc-courtyard-cincinnati-north-at-union-centre/?scid=f2ae0541-1279-4f24-b197-a979c79310b0",
    "category": "Restaurant",
    "types": "restaurant, food, point_of_interest, establishment"
  },
  {
    "place_id": "ChIJnXbjRABRQIgRvU6RK-DoMWw",
    "name": "Voodoo Brewing Co - West Chester, OH",
    "street_address": "9456 Water Front Drive",
    "city": "Cincinnati",
    "state": "OH",
    "zip_code": "45069",
    "latitude": 39.3180006,
    "longitude": -84.4235444,
    "website": "https://westchester.voodoobrewery.com/",
    "category": "Bar & Restaurant",
    "types": "bar, restaurant, point_of_interest, food, establishment"
  },
  {
    "place_id": "ChIJ9UpLPzFQQIgR10HiRyVzmgU",
    "name": "Main Event West Chester",
    "street_address": "9477 Oxford Way",
    "city": "Cincinnati",
    "state": "OH",
    "zip_code": "45069",
    "latitude": 39.3177235,
    "longitude": -84.4242775,
    "website": "http://www.mainevent.com/locations/ohio/west-chester",
    "category": "Restaurant",
    "types": "restaurant, bowling_alley, food, point_of_interest, establishment"
  },
  {
    "place_id": "ChIJUbm4mCVQQIgRqmxFBYW4h_Q",
    "name": "Mellow Mushroom",
    "street_address": "9238 Floer Drive",
    "city": "Cincinnati",
    "state": "OH",
    "zip_code": "45069",
    "latitude": 39.323228,
    "longitude": -84.43042,
    "website": "https://mellowmushroom.com/location/oh-west-chester-9238-floer-dr-45069/?utm_source=gmb&utm_medium=organic&utm_campaign=WestChester-OH&utm_content=147",
    "category": "Bar & Restaurant",
    "types": "bar, meal_takeaway, restaurant, food, point_of_interest, establishment"
  },
  {
    "place_id": "ChIJ12hfNz5aQIgRKT_QzLcPNqg",
    "name": "Northstar Cafe at Liberty Center",
    "street_address": "7610 Sloan Way",
    "city": "Cincinnati",
    "state": "OH",
    "zip_code": "45069",
    "latitude": 39.3722723,
    "longitude": -84.3716527,
    "website": "http://www.thenorthstarcafe.com/",
    "category": "Restaurant",
    "types": "cafe, restaurant, food, point_of_interest, establishment"
  },
  {
    "place_id": "ChIJlZvcUgBLQIgR14lWeshmGPw",
    "name": "The Lounge Uptown",
    "street_address": "18 Eswin Street",
    "city": "Cincinnati",
    "state": "OH",
    "zip_code": "45218",
    "latitude": 39.2687759,
    "longitude": -84.5226357,
    "website": null,
    "category": "Bar & Restaurant",
    "types": "bar, restaurant, food, point_of_interest, establishment"
  },
  {
    "place_id": "ChIJiZAkblhPQIgR_YjrraNGzMY",
    "name": "On The Rocks Bourbon Bar & Restaurant",
    "street_address": "11400 Chester Road",
    "city": "Cincinnati",
    "state": "OH",
    "zip_code": "45246",
    "latitude": 39.2795267,
    "longitude": -84.4421588,
    "website": "https://www.marriott.com/en-us/hotels/cvgde-delta-hotels-cincinnati-sharonville/dining/",
    "category": "Restaurant",
    "types": "restaurant, food, point_of_interest, establishment"
  },
  {
    "place_id": "ChIJ-UC8QrdNQIgRqlRC36e10eQ",
    "name": "Pike Bar & Grill",
    "street_address": "10010 Springfield Pike",
    "city": "Cincinnati",
    "state": "OH",
    "zip_code": "45215",
    "latitude": 39.2476397,
    "longitude": -84.47036489999999,
    "website": "http://facebook.com/pikebarandgrill",
    "category": "Bar & Restaurant",
    "types": "bar, restaurant, food, point_of_interest, establishment"
  },
  {
    "place_id": "ChIJ6Uux8CJPQIgR9Z79anCJ344",
    "name": "Stockton Beer Garden",
    "street_address": "6400 Dixie Highway",
    "city": "Fairfield",
    "state": "OH",
    "zip_code": "45014",
    "latitude": 39.3234985,
    "longitude": -84.5035024,
    "website": "https://www.milesofgolf.com/cincinnati-entertainment",
    "category": "Bar & Restaurant",
    "types": "bar, restaurant, food, point_of_interest, establishment"
  },
  {
    "place_id": "ChIJt-sJ9mBTQIgRJN8TAsbyi5A",
    "name": "513 Sports Cafe",
    "street_address": "11525 Chester Road",
    "city": "Cincinnati",
    "state": "OH",
    "zip_code": "45246",
    "latitude": 39.2835477,
    "longitude": -84.4436453,
    "website": null,
    "category": "Bar & Restaurant",
    "types": "restaurant, bar, point_of_interest, food, establishment"
  },
  {
    "place_id": "ChIJB0puvZhOQIgRwecL7IE0T2o",
    "name": "Cruise Inn Sports Bar & Grill",
    "street_address": "695 Northland Boulevard",
    "city": "Cincinnati",
    "state": "OH",
    "zip_code": "45240",
    "latitude": 39.2802925,
    "longitude": -84.5003814,
    "website": null,
    "category": "Bar & Restaurant",
    "types": "night_club, bar, restaurant, food, point_of_interest, establishment"
  },
  {
    "place_id": "ChIJHznquiFJQIgRW2fHw_5ajIc",
    "name": "Par's Place",
    "street_address": "6126 Winton Road",
    "city": "Fairfield",
    "state": "OH",
    "zip_code": "45014",
    "latitude": 39.31397,
    "longitude": -84.541082,
    "website": "https://www.facebook.com/ParsPlace/",
    "category": "Bar & Restaurant",
    "types": "bar, restaurant, food, point_of_interest, establishment"
  },
  {
    "place_id": "ChIJYT7SWiVPQIgRjGRwwOHieXA",
    "name": "Sneaky Pete's",
    "street_address": "3152 Lighthouse Drive",
    "city": "Fairfield",
    "state": "OH",
    "zip_code": "45014",
    "latitude": 39.3254743,
    "longitude": -84.51085959999999,
    "website": null,
    "category": "Bar & Restaurant",
    "types": "bar, restaurant, food, point_of_interest, establishment"
  },
  {
    "place_id": "ChIJVbnvw_ZOQIgRp5sSBw85_QU",
    "name": "Bargos Grill & Tap",
    "street_address": "7105 Dixie Highway",
    "city": "Springdale",
    "state": "OH",
    "zip_code": "45246",
    "latitude": 39.3137741,
    "longitude": -84.4886856,
    "website": "http://www.bargosgrill.com/",
    "category": "Bar & Restaurant",
    "types": "bar, restaurant, food, point_of_interest, establishment"
  },
  {
    "place_id": "ChIJzUFi4XdOQIgR3zJnnt0cUp4",
    "name": "Friendly Stop Bar & Grill",
    "street_address": "985 Congress Avenue",
    "city": "Cincinnati",
    "state": "OH",
    "zip_code": "45246",
    "latitude": 39.27270419999999,
    "longitude": -84.4686222,
    "website": "http://friendlystop.com/",
    "category": "Bar & Restaurant",
    "types": "bar, cafe, restaurant, food, point_of_interest, establishment"
  },
  {
    "place_id": "ChIJJfWl0_VOQIgRv5kyFWKYqMk",
    "name": "Chatters Bar And Grill",
    "street_address": "12064 Springfield Pike",
    "city": "Springdale",
    "state": "OH",
    "zip_code": "45246",
    "latitude": 39.2986456,
    "longitude": -84.48268,
    "website": "https://www.showcasecinemas.com/chatters/",
    "category": "Bar & Restaurant",
    "types": "bar, restaurant, food, point_of_interest, establishment"
  },
  {
    "place_id": "ChIJJQrmQPBPQIgRGgKPHJeSp58",
    "name": "Mango\u2019s Tropical Oasis",
    "street_address": "12183 Springfield Pike",
    "city": "Cincinnati",
    "state": "OH",
    "zip_code": "45246",
    "latitude": 39.3016216,
    "longitude": -84.4863278,
    "website": "https://www.facebook.com/MeetMeAtMangos/",
    "category": "Bar & Restaurant",
    "types": "bar, restaurant, food, point_of_interest, establishment"
  }
]