[
  {
    "place_id": "ChIJQY4CM3vwMIgRN4ZME4a3g6I",
    "name": "Flat Iron Cafe",
    "street_address": "1114 Center Street",
    "city": "Cleveland",
    "state": "OH",
    "zip_code": "44113",
    "latitude": 41.494303,
    "longitude": -81.7018618,
    "website": "https://www.flatironcafe.com/",
    "category": "Bar & Restaurant",
    "types": "bar, restaurant, food, point_of_interest, establishment"
  },
  {
    "place_id": "ChIJc_YezID6MIgRx5kRh1hKIrc",
    "name": "Thirsty Parrot",
    "street_address": "812 Huron Road East",
    "city": "Cleveland",
    "state": "OH",
    "zip_code": "44115",
    "latitude": 41.49807399999999,
    "longitude": -81.68581100000002,
    "website": "http://www.thirstyparrot.com/",
    "category": "Bar & Restaurant",
    "types": "bar, restaurant, food, point_of_interest, establishment"
  },
  {
    "place_id": "ChIJWfUn3UPwMIgRZgBRevctkBM",
    "name": "The Harp",
    "street_address": "4408 Detroit Avenue",
    "city": "Cleveland",
    "state": "OH",
    "zip_code": "44113",
    "latitude": 41.48775599999999,
    "longitude": -81.71693599999999,
    "website": "http://www.the-harp.com/",
    "category": "Bar & Restaurant",
    "types": "bar, restaurant, food, point_of_interest, establishment"
  },
  {
    "place_id": "ChIJ0xmEMmPwMIgRRDj5VnLwjUs",
    "name": "Punch Bowl Social",
    "street_address": "1086 West 11th Street",
    "city": "Cleveland",
    "state": "OH",
    "zip_code": "44113",
    "latitude": 41.499959,
    "longitude": -81.70556599999999,
    "website": "https://punchbowlsocial.com/location/cleveland/",
    "category": "Restaurant",
    "types": "restaurant, food, point_of_interest, establishment"
  },
  {
    "place_id": "ChIJwdkxp5j6MIgRyNppK2Fc7aA",
    "name": "The Bourbon Street Barrel Room",
    "street_address": "2393 Professor Avenue",
    "city": "Cleveland",
    "state": "OH",
    "zip_code": "44113",
    "latitude": 41.479992,
    "longitude": -81.6846833,
    "website": "http://www.bourbonstreetbarrelroom.com/",
    "category": "Restaurant",
    "types": "restaurant, food, point_of_interest, establishment"
  },
  {
    "place_id": "ChIJl8pdJH_7MIgRSFVc_CssSjA",
    "name": "The Stadium Sports Bar And Grill",
    "street_address": "721 Bolivar Road",
    "city": "Cleveland",
    "state": "OH",
    "zip_code": "44115",
    "latitude": 41.4974188,
    "longitude": -81.6860444,
    "website": null,
    "category": "Restaurant",
    "types": "restaurant, food, point_of_interest, establishment"
  },
  {
    "place_id": "ChIJ_z8mLGzwMIgRu45HOGO3BMU",
    "name": "Old Angle Tavern",
    "street_address": "1848 West 25th Street",
    "city": "Cleveland",
    "state": "OH",
    "zip_code": "44113",
    "latitude": 41.485906,
    "longitude": -81.705168,
    "website": "http://www.oldangle.com/",
    "category": "Bar & Restaurant",
    "types": "bar, restaurant, food, point_of_interest, establishment"
  },
  {
    "place_id": "ChIJBXJfX3XxMIgRY3SsP7ryh1Y",
    "name": "All Saints Public House",
    "street_address": "1261 West 76th Street",
    "city": "Cleveland",
    "state": "OH",
    "zip_code": "44102",
    "latitude": 41.48585449999999,
    "longitude": -81.7373216,
    "website": "http://allsaintspublichouse.com/",
    "category": "Bar & Restaurant",
    "types": "bar, restaurant, food, point_of_interest, establishment"
  },
  {
    "place_id": "ChIJd14pr4r_MIgRxozYUJiV5xY",
    "name": "Viking Public House",
    "street_address": "2300 Euclid Avenue",
    "city": "Cleveland",
    "state": "OH",
    "zip_code": "44115",
    "latitude": 41.50171040000001,
    "longitude": -81.67307980000001,
    "website": "https://viking-publichouse.com/",
    "category": "Bar & Restaurant",
    "types": "bar, restaurant, food, point_of_interest, establishment"
  },
  {
    "place_id": "ChIJMdePjKj6MIgRIOdIcCO7J0k",
    "name": "Rowley Inn",
    "street_address": "1104 Rowley Avenue",
    "city": "Cleveland",
    "state": "OH",
    "zip_code": "44109",
    "latitude": 41.4690309,
    "longitude": -81.6879794,
    "website": "http://www.therowleyinn.com/",
    "category": "Bar & Restaurant",
    "types": "bar, restaurant, food, point_of_interest, establishment"
  },
  {
    "place_id": "ChIJKcCtr3z6MIgR2x9ulilJ15I",
    "name": "Moe's Tavern",
    "street_address": "1740 East 17th Street",
    "city": "Cleveland",
    "state": "OH",
    "zip_code": "44114",
    "latitude": 41.5039489,
    "longitude": -81.68066209999999,
    "website": "http://moes-cle.com/",
    "category": "Bar & Restaurant",
    "types": "bar, restaurant, food, point_of_interest, establishment"
  },
  {
    "place_id": "ChIJjThvkbXxMIgRsWwEQWAitAs",
    "name": "The Lakehouse",
    "street_address": "1146 Old River Road",
    "city": "Cleveland",
    "state": "OH",
    "zip_code": "44113",
    "latitude": 41.4992033,
    "longitude": -81.7050644,
    "website": "https://www.lakehousecle.com/?utm_source=gbp&utm_medium=organic",
    "category": "Bar & Restaurant",
    "types": "restaurant, night_club, meal_takeaway, bar, food, point_of_interest, establishment"
  },
  {
    "place_id": "ChIJGZYB7ID6MIgRZvVcGyx0lhs",
    "name": "City Tap Cleveland",
    "street_address": "750 Prospect Avenue East",
    "city": "Cleveland",
    "state": "OH",
    "zip_code": "44115",
    "latitude": 41.4984528,
    "longitude": -81.687121,
    "website": "http://www.citytapcleveland.com/",
    "category": "Bar & Restaurant",
    "types": "bar, restaurant, food, point_of_interest, establishment"
  },
  {
    "place_id": "ChIJczBtslf7MIgRSn3pAhZLVtc",
    "name": "Literary Tavern",
    "street_address": "1031 Literary Road",
    "city": "Cleveland",
    "state": "OH",
    "zip_code": "44113",
    "latitude": 41.4802655,
    "longitude": -81.68848779999999,
    "website": "https://literarytavern.com/",
    "category": "Bar & Restaurant",
    "types": "bar, restaurant, food, point_of_interest, establishment"
  },
  {
    "place_id": "ChIJ8wjoPu_7MIgRugI4jAF2qM4",
    "name": "Stadium 3 Bar and Grille",
    "street_address": "1111 Lakeside Avenue East",
    "city": "Cleveland",
    "state": "OH",
    "zip_code": "44114",
    "latitude": 41.5067526,
    "longitude": -81.68955389999999,
    "website": null,
    "category": "Restaurant",
    "types": "restaurant, food, point_of_interest, establishment"
  },
  {
    "place_id": "ChIJP3W_O4D6MIgRYxYqWtb7meI",
    "name": "Flannery's Pub",
    "street_address": "323 Prospect Avenue East",
    "city": "Cleveland",
    "state": "OH",
    "zip_code": "44115",
    "latitude": 41.498413,
    "longitude": -81.6901626,
    "website": "http://www.flanneryscle.com/",
    "category": "Bar & Restaurant",
    "types": "bar, restaurant, food, point_of_interest, establishment"
  },
  {
    "place_id": "ChIJ1Wk2bgD7MIgRf5OJX2tBNuI",
    "name": "Flight Social",
    "street_address": "347 Euclid Avenue",
    "city": "Cleveland",
    "state": "OH",
    "zip_code": "44114",
    "latitude": 41.4999292,
    "longitude": -81.6903766,
    "website": "http://www.flightsocialcle.com/",
    "category": "Restaurant",
    "types": "restaurant, point_of_interest, food, establishment"
  },
  {
    "place_id": "ChIJDfrqEmTwMIgRL2jRqAwOfbo",
    "name": "McCarthy's Downtown",
    "street_address": "1231 Main Avenue",
    "city": "Cleveland",
    "state": "OH",
    "zip_code": "44113",
    "latitude": 41.4958231,
    "longitude": -81.7066333,
    "website": "https://downtownmccarthys.com/",
    "category": "Restaurant",
    "types": "restaurant, food, point_of_interest, establishment"
  },
  {
    "place_id": "ChIJy__oMGLwMIgRgmDFPCDn5y0",
    "name": "Hi 5",
    "street_address": "1052 Old River Road",
    "city": "Cleveland",
    "state": "OH",
    "zip_code": "44113",
    "latitude": 41.4997542,
    "longitude": -81.7071976,
    "website": "http://hi5cle.com/",
    "category": "Bar & Restaurant",
    "types": "bar, restaurant, food, point_of_interest, establishment"
  },
  {
    "place_id": "ChIJrVLkpnfxMIgRTuwXnxEtUSU",
    "name": "Eliot's Bar",
    "street_address": "100 Lakeside Avenue East",
    "city": "Cleveland",
    "state": "OH",
    "zip_code": "44114",
    "latitude": 41.5029143,
    "longitude": -81.6955564,
    "website": null,
    "category": "Restaurant",
    "types": "restaurant, food, point_of_interest, establishment"
  },
  {
    "place_id": "ChIJn5k8PH36MIgR3s2-ppUKYyk",
    "name": "Parnell's Irish Pub",
    "street_address": "1415 Euclid Avenue",
    "city": "Cleveland",
    "state": "OH",
    "zip_code": "44115",
    "latitude": 41.5011994,
    "longitude": -81.6813435,
    "website": "http://www.parnells.pub/",
    "category": "Bar & Restaurant",
    "types": "bar, restaurant, food, point_of_interest, establishment"
  },
  {
    "place_id": "ChIJUfzrNYD6MIgR4MGHQDf47wc",
    "name": "Harry Buffalo East 4th",
    "street_address": "2120 East 4th Street",
    "city": "Cleveland",
    "state": "OH",
    "zip_code": "44115",
    "latitude": 41.4978158,
    "longitude": -81.68995869999999,
    "website": "https://www.harrybuffalo.com/",
    "category": "Bar & Restaurant",
    "types": "bar, restaurant, food, point_of_interest, establishment"
  },
  {
    "place_id": "ChIJqzSSqoD6MIgR9RXPe9dnVd4",
    "name": "Ledger Bar",
    "street_address": "2017 East 9th Street",
    "city": "Cleveland",
    "state": "OH",
    "zip_code": "44115",
    "latitude": 41.499764,
    "longitude": -81.6857985,
    "website": "https://www.metropolitancleveland.com/eat-drink/ledger-bar",
    "category": "Bar & Restaurant",
    "types": "bar, night_club, restaurant, food, point_of_interest, establishment"
  },
  {
    "place_id": "ChIJQX-4w0vwMIgRRM1bZJ5mZ3M",
    "name": "Stone Mad Pub",
    "street_address": "1306 West 65th Street",
    "city": "Cleveland",
    "state": "OH",
    "zip_code": "44102",
    "latitude": 41.4866397,
    "longitude": -81.7304912,
    "website": "https://www.stonemadpub.com/",
    "category": "Bar & Restaurant",
    "types": "bar, restaurant, food, point_of_interest, establishment"
  },
  {
    "place_id": "ChIJh-Sh0m3wMIgRJJrKlU2PHVQ",
    "name": "ABC the Tavern",
    "street_address": "1872 West 25th Street",
    "city": "Cleveland",
    "state": "OH",
    "zip_code": "44113",
    "latitude": 41.4856142,
    "longitude": -81.70494599999999,
    "website": "https://www.abcthetavern.com/",
    "category": "Bar & Restaurant",
    "types": "bar, restaurant, food, point_of_interest, establishment"
  },
  {
    "place_id": "ChIJA-V2u23wMIgRe6rtMBxi8uQ",
    "name": "Great Lakes Brewing Company",
    "street_address": "2516 Market Avenue",
    "city": "Cleveland",
    "state": "OH",
    "zip_code": "44113",
    "latitude": 41.4844029,
    "longitude": -81.70453260000001,
    "website": "https://www.greatlakesbrewing.com/",
    "category": "Bar & Restaurant",
    "types": "bar, restaurant, food, point_of_interest, establishment"
  },
  {
    "place_id": "ChIJcd3yPoD6MIgRaK17Vbfg7lc",
    "name": "Butcher and the Brewer",
    "street_address": "2043 East 4th Street",
    "city": "Cleveland",
    "state": "OH",
    "zip_code": "44115",
    "latitude": 41.49914649999999,
    "longitude": -81.6900132,
    "website": "https://www.butcherandthebrewer.com/",
    "category": "Bar & Restaurant",
    "types": "bar, restaurant, food, point_of_interest, establishment"
  },
  {
    "place_id": "ChIJWTTYUGP6MIgRZYpqNFgULWY",
    "name": "Becky's",
    "street_address": "1762 East 18th Street",
    "city": "Cleveland",
    "state": "OH",
    "zip_code": "44114",
    "latitude": 41.50401,
    "longitude": -81.679504,
    "website": "https://www.beckysbar.com/",
    "category": "Bar & Restaurant",
    "types": "bar, restaurant, food, point_of_interest, establishment"
  },
  {
    "place_id": "ChIJTwOMUWjwMIgRpUWoyiHIFRQ",
    "name": "JUKEBOX",
    "street_address": "1404 West 29th Street",
    "city": "Cleveland",
    "state": "OH",
    "zip_code": "44113",
    "latitude": 41.4895582,
    "longitude": -81.71104799999999,
    "website": "http://www.jukeboxcle.com/",
    "category": "Bar & Restaurant",
    "types": "restaurant, bar, food, point_of_interest, establishment"
  },
  {
    "place_id": "ChIJswSOtn3wMIgRbUwNZqCS7-w",
    "name": "Johnny's Little Bar",
    "street_address": "614 Frankfort Avenue",
    "city": "Cleveland",
    "state": "OH",
    "zip_code": "44113",
    "latitude": 41.4986405,
    "longitude": -81.6982992,
    "website": "https://johnnyslittlebar.site/",
    "category": "Bar & Restaurant",
    "types": "bar, restaurant, food, point_of_interest, establishment"
  },
  {
    "place_id": "ChIJxbBCjBzwMIgR77O88kchKGI",
    "name": "Dunlap's Corner Bar",
    "street_address": "3258 West 32nd Street",
    "city": "Cleveland",
    "state": "OH",
    "zip_code": "44109",
    "latitude": 41.4653512,
    "longitude": -81.7043431,
    "website": "http://www.dunlapsbar.com/",
    "category": "Bar & Restaurant",
    "types": "bar, restaurant, food, point_of_interest, establishment"
  },
  {
    "place_id": "ChIJN3ly1G76MIgRzTWnwmmzKUI",
    "name": "Lopresti Union Club Bar & Restaurant",
    "street_address": "2549 Saint Clair Avenue Northeast",
    "city": "Cleveland",
    "state": "OH",
    "zip_code": "44114",
    "latitude": 41.5115902,
    "longitude": -81.67484329999999,
    "website": "https://loprestiunionclub.takeout7.com/Home",
    "category": "Bar & Restaurant",
    "types": "restaurant, bar, food, point_of_interest, establishment"
  },
  {
    "place_id": "ChIJ0csm-D7xMIgRzoQHOC02mxg",
    "name": "BrewDog Cleveland Outpost",
    "street_address": "1956 Carter Road",
    "city": "Cleveland",
    "state": "OH",
    "zip_code": "44113",
    "latitude": 41.4926407,
    "longitude": -81.69799859999999,
    "website": "https://www.brewdog.com/usa/cleveland",
    "category": "Bar & Restaurant",
    "types": "bar, restaurant, food, point_of_interest, establishment"
  },
  {
    "place_id": "ChIJ_Rer5-j7MIgR2qauk_1TCo0",
    "name": "Whistle Taproom & Venue",
    "street_address": "818 Huron Road East",
    "city": "Cleveland",
    "state": "OH",
    "zip_code": "44115",
    "latitude": 41.49848129999999,
    "longitude": -81.6860367,
    "website": "https://whistlecle.com/",
    "category": "Bar & Restaurant",
    "types": "restaurant, bar, food, point_of_interest, establishment"
  },
  {
    "place_id": "ChIJZ2oER3_6MIgRk9vCw65XGF8",
    "name": "Winking Lizard Downtown Cleveland",
    "street_address": "1300 East 9th Street",
    "city": "Cleveland",
    "state": "OH",
    "zip_code": "44114",
    "latitude": 41.5038926,
    "longitude": -81.6908424,
    "website": "https://www.winkinglizard.com/",
    "category": "Restaurant",
    "types": "restaurant, food, point_of_interest, establishment"
  },
  {
    "place_id": "ChIJKV4ajn36MIgRk8UBIPcM6ws",
    "name": "Yours Truly Playhouse Square",
    "street_address": "1228 Euclid Avenue",
    "city": "Cleveland",
    "state": "OH",
    "zip_code": "44115",
    "latitude": 41.5004613,
    "longitude": -81.68377509999999,
    "website": "http://ytr.com/",
    "category": "Restaurant",
    "types": "restaurant, food, point_of_interest, establishment"
  },
  {
    "place_id": "ChIJObuim336MIgRwyvMBNR7JVY",
    "name": "Brel's Restaurant & Bar at Playhouse Square (Formerly Ghost Light)",
    "street_address": "1260 Euclid Avenue",
    "city": "Cleveland",
    "state": "OH",
    "zip_code": "44115",
    "latitude": 41.5004669,
    "longitude": -81.683371,
    "website": "https://www.ihg.com/crowneplaza/hotels/us/en/cleveland/cleps/hoteldetail/dining",
    "category": "Restaurant",
    "types": "restaurant, food, point_of_interest, establishment"
  },
  {
    "place_id": "ChIJyZkvv23wMIgRWOFuFcRalQw",
    "name": "Market Garden Brewpub & Pizza",
    "street_address": "1947 West 25th Street",
    "city": "Cleveland",
    "state": "OH",
    "zip_code": "44113",
    "latitude": 41.4850769,
    "longitude": -81.70343059999999,
    "website": "http://marketgardenbrewery.com/",
    "category": "Bar & Restaurant",
    "types": "bar, restaurant, food, point_of_interest, establishment"
  },
  {
    "place_id": "ChIJfdEr6V3wMIgRiG8os8YBenI",
    "name": "Whiskey Island Still & Eatery",
    "street_address": "2800 Whiskey Island Drive",
    "city": "Cleveland",
    "state": "OH",
    "zip_code": "44102",
    "latitude": 41.4977924,
    "longitude": -81.71593879999999,
    "website": "http://www.whiskeyislandstillandeatery.net/",
    "category": "Bar & Restaurant",
    "types": "storage, bar, restaurant, food, point_of_interest, establishment"
  },
  {
    "place_id": "ChIJP5UlMQDxMIgRKPosD5ldkds",
    "name": "The W Sports Bar",
    "street_address": "5428 Detroit Avenue",
    "city": "Cleveland",
    "state": "OH",
    "zip_code": "44102",
    "latitude": 41.48562390000001,
    "longitude": -81.72489540000001,
    "website": "https://www.thewsportsbarcleveland.com/",
    "category": "Bar & Restaurant",
    "types": "bar, restaurant, food, point_of_interest, establishment"
  },
  {
    "place_id": "ChIJTQxaFfjvMIgRu2dKVebnn90",
    "name": "Never Say Dive",
    "street_address": "4497 Broadview Road",
    "city": "Cleveland",
    "state": "OH",
    "zip_code": "44109",
    "latitude": 41.4335282,
    "longitude": -81.696908,
    "website": "http://www.neversaydivecle.com/",
    "category": "Bar & Restaurant",
    "types": "bar, restaurant, food, point_of_interest, establishment"
  },
  {
    "place_id": "ChIJh6w4YgfvMIgRif4_558y628",
    "name": "Bar 17 Tavern",
    "street_address": "4555 State Road",
    "city": "Cleveland",
    "state": "OH",
    "zip_code": "44109",
    "latitude": 41.4302245,
    "longitude": -81.7074277,
    "website": "https://facebook.com/Bar-17-101396155064176/?ref=page_internal&mt_nav=0",
    "category": "Bar & Restaurant",
    "types": "bar, restaurant, food, point_of_interest, establishment"
  },
  {
    "place_id": "ChIJxSgNlbTvMIgRWXHZndDYHB4",
    "name": "McG's Pub And Grub",
    "street_address": "6815 Memphis Avenue",
    "city": "Cleveland",
    "state": "OH",
    "zip_code": "44144",
    "latitude": 41.4397284,
    "longitude": -81.733539,
    "website": "https://m.facebook.com/McGs-Pub-and-Grub-115389583682/",
    "category": "Bar & Restaurant",
    "types": "bar, restaurant, food, point_of_interest, establishment"
  },
  {
    "place_id": "ChIJI_IToJbvMIgR8A0HrqBJR0k",
    "name": "Pearl Road Tavern & Eatery",
    "street_address": "4370 Pearl Road",
    "city": "Cleveland",
    "state": "OH",
    "zip_code": "44109",
    "latitude": 41.43683659999999,
    "longitude": -81.70899120000001,
    "website": null,
    "category": "Bar & Restaurant",
    "types": "bar, restaurant, food, point_of_interest, establishment"
  },
  {
    "place_id": "ChIJkzLLcWvvMIgRGYBwoc1TplQ",
    "name": "Headquarters Bar and Grill",
    "street_address": "9617 Clinton Road",
    "city": "Brooklyn",
    "state": "OH",
    "zip_code": "44144",
    "latitude": 41.4507902,
    "longitude": -81.7511533,
    "website": "https://www.headquarterscleveland.com/",
    "category": "Bar & Restaurant",
    "types": "bar, restaurant, food, point_of_interest, establishment"
  },
  {
    "place_id": "ChIJzURdSLjvMIgRf-3E_D16JVk",
    "name": "Kenny's Tavern",
    "street_address": "4227 Fulton Road",
    "city": "Cleveland",
    "state": "OH",
    "zip_code": "44144",
    "latitude": 41.4415023,
    "longitude": -81.722799,
    "website": null,
    "category": "Bar & Restaurant",
    "types": "bar, restaurant, food, point_of_interest, establishment"
  },
  {
    "place_id": "ChIJ1RmcGiXlMIgRBiI-I4EMS3w",
    "name": "49 Street Tavern",
    "street_address": "4129 East 49th Street",
    "city": "Newburgh Heights",
    "state": "OH",
    "zip_code": "44105",
    "latitude": 41.446147,
    "longitude": -81.656458,
    "website": null,
    "category": "Bar & Restaurant",
    "types": "bar, restaurant, food, point_of_interest, establishment"
  },
  {
    "place_id": "ChIJGU_wp8XvMIgRL49le130smM",
    "name": "Lucky's Bar & Grill",
    "street_address": "6021 Memphis Avenue",
    "city": "Cleveland",
    "state": "OH",
    "zip_code": "44144",
    "latitude": 41.4397072,
    "longitude": -81.7289179,
    "website": "http://www.luckysbarandgrill.net/",
    "category": "Bar & Restaurant",
    "types": "bar, meal_delivery, meal_takeaway, restaurant, food, point_of_interest, establishment"
  },
  {
    "place_id": "ChIJNYCCClnlMIgR7EyvF0gpVms",
    "name": "Cleats Club Seat Grille Old Brooklyn",
    "street_address": "3995 Jennings Road",
    "city": "Cleveland",
    "state": "OH",
    "zip_code": "44109",
    "latitude": 41.4477476,
    "longitude": -81.68745860000001,
    "website": "https://www.cleatswings.com/old-brooklyn",
    "category": "Bar & Restaurant",
    "types": "bar, restaurant, food, point_of_interest, establishment"
  },
  {
    "place_id": "ChIJo92IUCr7MIgRLSx5vui9phs",
    "name": "Peoples Bar and Grill",
    "street_address": "3614 East 65th Street",
    "city": "Cleveland",
    "state": "OH",
    "zip_code": "44105",
    "latitude": 41.4600188,
    "longitude": -81.64511,
    "website": "http://www.peoplesbarandgrill.com/",
    "category": "Bar & Restaurant",
    "types": "bar, restaurant, food, point_of_interest, establishment"
  },
  {
    "place_id": "ChIJ-TLax7nvMIgRv8SUJosIiq4",
    "name": "Murphy's Law",
    "street_address": "5303 Memphis Avenue",
    "city": "Cleveland",
    "state": "OH",
    "zip_code": "44144",
    "latitude": 41.43968419999999,
    "longitude": -81.72271529999999,
    "website": "https://www.facebook.com/pg/Murphys-Law-Irish-Pub-Cleveland-OH-118384698227930/about/?ref=page_internal",
    "category": "Bar & Restaurant",
    "types": "bar, restaurant, food, point_of_interest, establishment"
  },
  {
    "place_id": "ChIJ5_fAv3HwMIgRv5LI3ZFBXV8",
    "name": "Hoopples",
    "street_address": "1930 Columbus Road",
    "city": "Cleveland",
    "state": "OH",
    "zip_code": "44113",
    "latitude": 41.48726449999999,
    "longitude": -81.7007362,
    "website": "https://www.facebook.com/major.hoopples?mibextid=LQQJ4d",
    "category": "Bar & Restaurant",
    "types": "bar, restaurant, food, point_of_interest, establishment"
  },
  {
    "place_id": "ChIJ78epuVflMIgR9tc-bO7HdEc",
    "name": "Gino's Cento Anno",
    "street_address": "1314 Denison Avenue",
    "city": "Cleveland",
    "state": "OH",
    "zip_code": "44109",
    "latitude": 41.4521306,
    "longitude": -81.6895897,
    "website": "https://www.facebook.com/Ginos-Cento-Anno-750452418359330/",
    "category": "Bar & Restaurant",
    "types": "bar, restaurant, food, point_of_interest, establishment"
  },
  {
    "place_id": "ChIJeU1Iwjr9MIgRvL1iMdWZVEc",
    "name": "The Kensington Pub",
    "street_address": "2260 Lee Road",
    "city": "Cleveland Heights",
    "state": "OH",
    "zip_code": "44118",
    "latitude": 41.4980386,
    "longitude": -81.5654637,
    "website": "https://thekensingtonpub.wixsite.com/mysite",
    "category": "Bar & Restaurant",
    "types": "restaurant, bar, food, point_of_interest, establishment"
  },
  {
    "place_id": "ChIJNwaBOon7MIgRwyDK9r7VCnE",
    "name": "The Jolly Scholar",
    "street_address": "11111 Euclid Avenue",
    "city": "Cleveland",
    "state": "OH",
    "zip_code": "44106",
    "latitude": 41.5075437,
    "longitude": -81.6082796,
    "website": "http://www.thejollyscholar.com/",
    "category": "Bar & Restaurant",
    "types": "bar, restaurant, food, point_of_interest, establishment"
  },
  {
    "place_id": "ChIJPVqF8IX8MIgRhLm0TtbWehQ",
    "name": "Academy Tavern",
    "street_address": "12800 Larchmere Boulevard",
    "city": "Cleveland",
    "state": "OH",
    "zip_code": "44120",
    "latitude": 41.4873704,
    "longitude": -81.5930249,
    "website": "https://academytaverncle.com/",
    "category": "Bar & Restaurant",
    "types": "bar, restaurant, food, point_of_interest, establishment"
  },
  {
    "place_id": "ChIJfY6BHVL8MIgR0fL_OaXlcSA",
    "name": "Rudy's Pub",
    "street_address": "2191 Lee Road",
    "city": "Cleveland Heights",
    "state": "OH",
    "zip_code": "44118",
    "latitude": 41.50014540000001,
    "longitude": -81.5652286,
    "website": "https://rudyspub.org/",
    "category": "Bar & Restaurant",
    "types": "bar, restaurant, food, point_of_interest, establishment"
  },
  {
    "place_id": "ChIJjRYZ1lP8MIgRx_HtQol4gVQ",
    "name": "The Social Room",
    "street_address": "2261 Lee Road",
    "city": "Cleveland Heights",
    "state": "OH",
    "zip_code": "44118",
    "latitude": 41.4980325,
    "longitude": -81.5650883,
    "website": "https://www.facebook.com/thesocialroom/",
    "category": "Bar & Restaurant",
    "types": "bar, restaurant, food, point_of_interest, establishment"
  },
  {
    "place_id": "ChIJBwJufFH8MIgRY905WTFQenE",
    "name": "The Tavern Company",
    "street_address": "2299 Lee Road",
    "city": "Cleveland Heights",
    "state": "OH",
    "zip_code": "44118",
    "latitude": 41.4972037,
    "longitude": -81.5649186,
    "website": "http://www.taverncompany.net/",
    "category": "Bar & Restaurant",
    "types": "bar, restaurant, food, point_of_interest, establishment"
  },
  {
    "place_id": "ChIJFa2X9or7MIgRggAEZDIKT50",
    "name": "L'Albatros",
    "street_address": "11401 Bellflower Road",
    "city": "Cleveland",
    "state": "OH",
    "zip_code": "44106",
    "latitude": 41.5117062,
    "longitude": -81.6064012,
    "website": "http://www.albatrosbrasserie.com/",
    "category": "Bar & Restaurant",
    "types": "bar, restaurant, food, point_of_interest, establishment"
  },
  {
    "place_id": "ChIJbes2Z7L9MIgRWMRuJE17cEQ",
    "name": "M.T. Glass",
    "street_address": "13443 Cedar Road",
    "city": "Cleveland Heights",
    "state": "OH",
    "zip_code": "44118",
    "latitude": 41.5014419,
    "longitude": -81.5564942,
    "website": null,
    "category": "Bar & Restaurant",
    "types": "bar, restaurant, food, point_of_interest, establishment"
  },
  {
    "place_id": "ChIJCUjdLWX8MIgRxswyfqDCRMk",
    "name": "The Fairmount Cocktail Bar",
    "street_address": "2448 Fairmount Boulevard",
    "city": "Cleveland",
    "state": "OH",
    "zip_code": "44106",
    "latitude": 41.5008194,
    "longitude": -81.5926391,
    "website": "http://www.thefairmount.net/",
    "category": "Bar & Restaurant",
    "types": "bar, restaurant, food, point_of_interest, establishment"
  },
  {
    "place_id": "ChIJJcNSHVL8MIgRsoymqtutqOQ",
    "name": "Boss Dog Brewing Co.",
    "street_address": "2179 Lee Road",
    "city": "Cleveland Heights",
    "state": "OH",
    "zip_code": "44118",
    "latitude": 41.50027239999999,
    "longitude": -81.56509299999999,
    "website": "http://bossdogbrewing.com/",
    "category": "Bar & Restaurant",
    "types": "restaurant, bar, food, point_of_interest, establishment"
  },
  {
    "place_id": "ChIJjf_4hTX5MIgRTROl1p34-V8",
    "name": "Bratenahl Place Bistro",
    "street_address": "1 Bratenahl Place",
    "city": "Bratenahl",
    "state": "OH",
    "zip_code": "44108",
    "latitude": 41.55397869999999,
    "longitude": -81.60692159999999,
    "website": "http://www.bratenahlbistro.com/",
    "category": "Restaurant",
    "types": "restaurant, food, point_of_interest, establishment"
  },
  {
    "place_id": "ChIJfYpHKmX8MIgRNGyDaH_quL0",
    "name": "Barrio Tacos Cleveland Heights",
    "street_address": "2466 Fairmount Boulevard",
    "city": "Cleveland Heights",
    "state": "OH",
    "zip_code": "44106",
    "latitude": 41.5006013,
    "longitude": -81.5922083,
    "website": "https://barrio-tacos.com/locations/heights/",
    "category": "Restaurant",
    "types": "restaurant, food, point_of_interest, establishment"
  },
  {
    "place_id": "ChIJMz-6qKr9MIgRAPLBPVvnZ4w",
    "name": "Voodoo Brewery Cleveland",
    "street_address": "2279 Lee Road",
    "city": "Cleveland Heights",
    "state": "OH",
    "zip_code": "44118",
    "latitude": 41.4975995,
    "longitude": -81.565041,
    "website": "https://cleveland.voodoobrewery.com/",
    "category": "Bar & Restaurant",
    "types": "bar, restaurant, food, point_of_interest, establishment"
  },
  {
    "place_id": "ChIJwcVuwUP6MIgRbNuCeiDta68",
    "name": "Marjees Bar & Grill",
    "street_address": "3604 Superior Avenue",
    "city": "Cleveland",
    "state": "OH",
    "zip_code": "44114",
    "latitude": 41.5122609,
    "longitude": -81.6653832,
    "website": "https://marjees-barandgrill.com/",
    "category": "Bar & Restaurant",
    "types": "bar, restaurant, food, point_of_interest, establishment"
  },
  {
    "place_id": "ChIJ4a6eROX9MIgR9ipgt2kLk8w",
    "name": "Meraki Cocktail Cafe",
    "street_address": "2195 Lee Road",
    "city": "Cleveland Heights",
    "state": "OH",
    "zip_code": "44118",
    "latitude": 41.5000386,
    "longitude": -81.56514299999999,
    "website": null,
    "category": "Restaurant",
    "types": "restaurant, food, point_of_interest, establishment"
  },
  {
    "place_id": "ChIJZxWoB2n9MIgR6Q7KZ9ue0FU",
    "name": "The Cornerstone Lounge & Grille",
    "street_address": "1918 Lee Road",
    "city": "Cleveland Heights",
    "state": "OH",
    "zip_code": "44118",
    "latitude": 41.5075386,
    "longitude": -81.5656803,
    "website": "https://thecornerstonecle.com/",
    "category": "Bar & Restaurant",
    "types": "restaurant, night_club, bar, food, point_of_interest, establishment"
  },
  {
    "place_id": "ChIJ36wRyEH8MIgRvwt_1UktX3w",
    "name": "Seafood Shake",
    "street_address": "1852 Coventry Road",
    "city": "Cleveland Heights",
    "state": "OH",
    "zip_code": "44118",
    "latitude": 41.50889249999999,
    "longitude": -81.5802057,
    "website": "http://seafoodshake.com/",
    "category": "Restaurant",
    "types": "restaurant, food, point_of_interest, establishment"
  },
  {
    "place_id": "ChIJSTH--LP7MIgRVyP5Mo06o3w",
    "name": "Tudor Arms Bar and Grill",
    "street_address": "10660 Carnegie Avenue",
    "city": "Cleveland",
    "state": "OH",
    "zip_code": "44106",
    "latitude": 41.5007822,
    "longitude": -81.6130534,
    "website": null,
    "category": "Restaurant",
    "types": "restaurant, food, point_of_interest, establishment"
  },
  {
    "place_id": "ChIJ2eDELob-MIgRAwMCosO-L6A",
    "name": "Columbo Room",
    "street_address": "1988 Noble Road",
    "city": "East Cleveland",
    "state": "OH",
    "zip_code": "44112",
    "latitude": 41.54001210000001,
    "longitude": -81.5629312,
    "website": null,
    "category": "Bar & Restaurant",
    "types": "bar, restaurant, food, point_of_interest, establishment"
  },
  {
    "place_id": "ChIJKx7Whk78MIgRX-PPoztJZc4",
    "name": "BottleHouse Brewery And Meadery",
    "street_address": "2050 Lee Road",
    "city": "Cleveland Heights",
    "state": "OH",
    "zip_code": "44118",
    "latitude": 41.5037266,
    "longitude": -81.56574110000001,
    "website": "http://bottlehouse.co/",
    "category": "Bar & Restaurant",
    "types": "bar, restaurant, food, point_of_interest, establishment"
  },
  {
    "place_id": "ChIJLY3wkNH7MIgRNA8WDAHp4ro",
    "name": "Sunset Kitchen & Lounge",
    "street_address": "11311 Euclid Avenue",
    "city": "Cleveland",
    "state": "OH",
    "zip_code": "44106",
    "latitude": 41.5087236,
    "longitude": -81.6059985,
    "website": "https://sunsetkictchen.com/",
    "category": "Bar & Restaurant",
    "types": "restaurant, night_club, bar, food, point_of_interest, establishment"
  },
  {
    "place_id": "ChIJfXJKjKL7MIgR_wWulSj2QIE",
    "name": "Moce Bar and Grill",
    "street_address": "8650 Euclid Avenue",
    "city": "Cleveland",
    "state": "OH",
    "zip_code": "44106",
    "latitude": 41.5030595,
    "longitude": -81.62655529999999,
    "website": "https://www.hiclevelandclinic.com/dining/moce-cafe",
    "category": "Bar & Restaurant",
    "types": "bar, restaurant, food, point_of_interest, establishment"
  },
  {
    "place_id": "ChIJgzfVdL39MIgRRsbeLLGSz3I",
    "name": "O\u2019Rielly\u2019s Pub & Grill",
    "street_address": "13914 Cedar Road",
    "city": "University Heights",
    "state": "OH",
    "zip_code": "44118",
    "latitude": 41.5006374,
    "longitude": -81.5388483,
    "website": null,
    "category": "Bar & Restaurant",
    "types": "bar, restaurant, food, point_of_interest, establishment"
  },
  {
    "place_id": "ChIJB-p0i1H8MIgRnHqAZVuDkbk",
    "name": "New Heights Grill",
    "street_address": "2206 Lee Road",
    "city": "Cleveland Heights",
    "state": "OH",
    "zip_code": "44118",
    "latitude": 41.4994835,
    "longitude": -81.5655798,
    "website": "http://www.heightsgrill.com/",
    "category": "Restaurant",
    "types": "restaurant, food, point_of_interest, establishment"
  },
  {
    "place_id": "ChIJ2UBeWSfyMIgRflrdqk7PlnU",
    "name": "Pier W",
    "street_address": "12700 Lake Avenue",
    "city": "Lakewood",
    "state": "OH",
    "zip_code": "44107",
    "latitude": 41.49358720000001,
    "longitude": -81.7781498,
    "website": "http://pierw.com/",
    "category": "Bar & Restaurant",
    "types": "bar, restaurant, food, point_of_interest, establishment"
  },
  {
    "place_id": "ChIJ7Z_WsPDxMIgRA5v4cxIbg2E",
    "name": "East End Bistro & Pub",
    "street_address": "11922 Madison Avenue",
    "city": "Lakewood",
    "state": "OH",
    "zip_code": "44107",
    "latitude": 41.477201,
    "longitude": -81.77270490000001,
    "website": "https://www.eastendofbirdtown.com/",
    "category": "Bar & Restaurant",
    "types": "bar, restaurant, food, point_of_interest, establishment"
  },
  {
    "place_id": "ChIJD0m1kqD6MIgRbvMBmaosexE",
    "name": "Prosperity Social Club",
    "street_address": "1109 Starkweather Avenue",
    "city": "Cleveland",
    "state": "OH",
    "zip_code": "44113",
    "latitude": 41.47721449999999,
    "longitude": -81.6898848,
    "website": "http://www.prosperitysocialclub.com/",
    "category": "Bar & Restaurant",
    "types": "restaurant, bar, food, point_of_interest, establishment"
  },
  {
    "place_id": "ChIJMe_rmYj7MIgRnEPgedjfYGM",
    "name": "Tailgate Sports Bar and Grille",
    "street_address": "1938 Euclid Avenue",
    "city": "Cleveland",
    "state": "OH",
    "zip_code": "44115",
    "latitude": 41.5012249,
    "longitude": -81.6767402,
    "website": null,
    "category": "Bar & Restaurant",
    "types": "bar, restaurant, food, point_of_interest, establishment"
  },
  {
    "place_id": "ChIJy241x3z6MIgRkX0PyjCFmpc",
    "name": "Hofbr\u00e4uhaus Cleveland",
    "street_address": "1550 Chester Avenue",
    "city": "Cleveland",
    "state": "OH",
    "zip_code": "44114",
    "latitude": 41.5028928,
    "longitude": -81.6811051,
    "website": "http://hofbrauhauscleveland.com/",
    "category": "Bar & Restaurant",
    "types": "bar, restaurant, food, point_of_interest, establishment"
  },
  {
    "place_id": "ChIJQYhdcIj7MIgR3YPEEscFoow",
    "name": "The Cleveland Tailgate Sports Bar And Bistro",
    "street_address": "1938 Euclid Avenue",
    "city": "Cleveland",
    "state": "OH",
    "zip_code": "44115",
    "latitude": 41.5012249,
    "longitude": -81.6767402,
    "website": null,
    "category": "Restaurant",
    "types": "restaurant, food, point_of_interest, establishment"
  },
  {
    "place_id": "ChIJxRGXCYD6MIgRYkg-RfEpWmw",
    "name": "Pizza (216)",
    "street_address": "401 Euclid Avenue",
    "city": "Cleveland",
    "state": "OH",
    "zip_code": "44114",
    "latitude": 41.49998300000001,
    "longitude": -81.69020599999999,
    "website": "https://www.pizza216menu.com/",
    "category": "Bar & Restaurant",
    "types": "meal_takeaway, bar, restaurant, food, point_of_interest, establishment"
  },
  {
    "place_id": "ChIJw0EXNYf6MIgROKXvAJAo1Yk",
    "name": "The Clevelander Bar & Grill",
    "street_address": "834 Huron Road East",
    "city": "Cleveland",
    "state": "OH",
    "zip_code": "44115",
    "latitude": 41.4985477,
    "longitude": -81.6858046,
    "website": "http://www.clevelanderbar.com/",
    "category": "Bar & Restaurant",
    "types": "bar, store, restaurant, food, point_of_interest, establishment"
  },
  {
    "place_id": "ChIJ33AjORH-MIgRHm120Isbs2g",
    "name": "Legacy 5 Lounge",
    "street_address": "389 South Green Road",
    "city": "Cleveland",
    "state": "OH",
    "zip_code": "44121",
    "latitude": 41.5423006,
    "longitude": -81.5306166,
    "website": "https://www.facebook.com/Anthonys-Place-108166999225781/",
    "category": "Bar & Restaurant",
    "types": "bar, restaurant, food, point_of_interest, establishment"
  },
  {
    "place_id": "ChIJZ6SggxT9MIgRpcD355kqsZs",
    "name": "Craft Collective",
    "street_address": "3449 Tuttle Road",
    "city": "Shaker Heights",
    "state": "OH",
    "zip_code": "44122",
    "latitude": 41.4660161,
    "longitude": -81.53699689999999,
    "website": "http://craft-collective.co/",
    "category": "Bar & Restaurant",
    "types": "bar, restaurant, food, point_of_interest, establishment"
  },
  {
    "place_id": "ChIJP0h0tfv9MIgRCZ7KlqxTd9c",
    "name": "Black Forest",
    "street_address": "4368 Mayfield Road",
    "city": "Cleveland",
    "state": "OH",
    "zip_code": "44121",
    "latitude": 41.5202415,
    "longitude": -81.5227016,
    "website": "https://blackforestse.square.site/",
    "category": "Bar & Restaurant",
    "types": "bar, restaurant, food, point_of_interest, establishment"
  },
  {
    "place_id": "ChIJvdPeiRT9MIgRGnkybrH7h7s",
    "name": "Bar One, HTS Lounge",
    "street_address": "2179 South Green Road",
    "city": "Cleveland",
    "state": "OH",
    "zip_code": "44121",
    "latitude": 41.5006208,
    "longitude": -81.5182409,
    "website": null,
    "category": "Bar & Restaurant",
    "types": "bar, restaurant, food, point_of_interest, establishment"
  },
  {
    "place_id": "ChIJVVUloPn9MIgRVg57nVWlDhc",
    "name": "The 4 Bistro and Wine Bar",
    "street_address": "4450 Mayfield Road",
    "city": "South Euclid",
    "state": "OH",
    "zip_code": "44121",
    "latitude": 41.5198207,
    "longitude": -81.51982629999999,
    "website": null,
    "category": "Bar & Restaurant",
    "types": "bar, restaurant, food, point_of_interest, establishment"
  },
  {
    "place_id": "ChIJEUr2suf9MIgRP4FsKxCNqg0",
    "name": "Engel's Sports Bar & Grille",
    "street_address": "4030 Mayfield Road",
    "city": "South Euclid",
    "state": "OH",
    "zip_code": "44121",
    "latitude": 41.5203245,
    "longitude": -81.535173,
    "website": "http://www.engelsbarandgrille.com/",
    "category": "Bar & Restaurant",
    "types": "bar, restaurant, food, point_of_interest, establishment"
  },
  {
    "place_id": "ChIJrfgTvkP9MIgRnGIQXodFq7Q",
    "name": "Grille 55",
    "street_address": "4441 Mayfield Road",
    "city": "South Euclid",
    "state": "OH",
    "zip_code": "44121",
    "latitude": 41.5204654,
    "longitude": -81.52000249999999,
    "website": null,
    "category": "Bar & Restaurant",
    "types": "restaurant, night_club, bar, food, point_of_interest, establishment"
  },
  {
    "place_id": "ChIJn_ANNGX8MIgR_fWdG3bRGZc",
    "name": "Buffalo Wild Wings",
    "street_address": "12459 Cedar Road",
    "city": "Cleveland Heights",
    "state": "OH",
    "zip_code": "44106",
    "latitude": 41.501329,
    "longitude": -81.5923409,
    "website": "https://www.buffalowildwings.com/locations/us/oh/cleveland-heights/12459-cedar-road/sports-bar-1147?utm_source=google%20my%20business&utm_medium=organic&utm_campaign=website%20link",
    "category": "Bar & Restaurant",
    "types": "meal_takeaway, bar, restaurant, food, point_of_interest, establishment"
  },
  {
    "place_id": "ChIJZWWxqTz9MIgRi3sv0jojZpY",
    "name": "Banter Beer and Wine Shaker Heights",
    "street_address": "3441 Tuttle Road",
    "city": "Shaker Heights",
    "state": "OH",
    "zip_code": "44122",
    "latitude": 41.46608139999999,
    "longitude": -81.53678,
    "website": "http://www.bantercleveland.com/",
    "category": "Restaurant",
    "types": "restaurant, food, point_of_interest, establishment"
  },
  {
    "place_id": "ChIJITbTbkrjMIgRBXiq48HSMd0",
    "name": "Harvard Wine & Grill",
    "street_address": "14201 Harvard Avenue",
    "city": "Cleveland",
    "state": "OH",
    "zip_code": "44128",
    "latitude": 41.449257,
    "longitude": -81.582809,
    "website": null,
    "category": "Bar & Restaurant",
    "types": "bar, restaurant, food, point_of_interest, establishment"
  },
  {
    "place_id": "ChIJLcWDRm3tMIgRjXUdlhKb7lo",
    "name": "In The Drink",
    "street_address": "19367 Lorain Road",
    "city": "Fairview Park",
    "state": "OH",
    "zip_code": "44126",
    "latitude": 41.4516915,
    "longitude": -81.8344152,
    "website": "https://barfoodtoyou.com/in-the-drink",
    "category": "Bar & Restaurant",
    "types": "bar, restaurant, food, point_of_interest, establishment"
  },
  {
    "place_id": "ChIJnWL7U5_tMIgRJIwUbsNc3RM",
    "name": "Public House",
    "street_address": "17219 Lorain Avenue",
    "city": "Cleveland",
    "state": "OH",
    "zip_code": "44111",
    "latitude": 41.4499631,
    "longitude": -81.81732629999999,
    "website": "http://publichousecleveland.com/",
    "category": "Bar & Restaurant",
    "types": "bar, restaurant, food, point_of_interest, establishment"
  },
  {
    "place_id": "ChIJezDer5jtMIgRlLJgEdoB35U",
    "name": "P.J. McIntyre's Irish Pub",
    "street_address": "17119 Lorain Avenue",
    "city": "Cleveland",
    "state": "OH",
    "zip_code": "44111",
    "latitude": 41.449848,
    "longitude": -81.816338,
    "website": "http://pjmcintyres.com/",
    "category": "Bar & Restaurant",
    "types": "bar, restaurant, food, point_of_interest, establishment"
  },
  {
    "place_id": "ChIJqzbyioztMIgR-R_Mrl0hR_8",
    "name": "Warren Road Tavern",
    "street_address": "3356 Warren Road",
    "city": "Cleveland",
    "state": "OH",
    "zip_code": "44111",
    "latitude": 41.4625031,
    "longitude": -81.80294789999999,
    "website": "http://www.warrenroadtavern.com/",
    "category": "Bar & Restaurant",
    "types": "bar, restaurant, point_of_interest, food, establishment"
  },
  {
    "place_id": "ChIJg3NxxFrzMIgRdUqSkQTSWNs",
    "name": "Old River Tap and Social",
    "street_address": "19245 Detroit Road",
    "city": "Rocky River",
    "state": "OH",
    "zip_code": "44116",
    "latitude": 41.4816285,
    "longitude": -81.83549560000002,
    "website": "https://oldrivertapandsocial.com/",
    "category": "Bar & Restaurant",
    "types": "restaurant, bar, food, point_of_interest, establishment"
  },
  {
    "place_id": "ChIJucAb0IjyMIgRrYW2Juj0hcc",
    "name": "West End Tavern",
    "street_address": "18514 Detroit Avenue",
    "city": "Lakewood",
    "state": "OH",
    "zip_code": "44107",
    "latitude": 41.48206100000001,
    "longitude": -81.827253,
    "website": "http://www.westendtav.com/",
    "category": "Bar & Restaurant",
    "types": "restaurant, bar, food, point_of_interest, establishment"
  },
  {
    "place_id": "ChIJjYgqvYztMIgRg7Um5rn73Uo",
    "name": "Third Place",
    "street_address": "3314 Warren Road",
    "city": "Cleveland",
    "state": "OH",
    "zip_code": "44111",
    "latitude": 41.4631852,
    "longitude": -81.80225399999999,
    "website": "http://thethirdplacesportsbar-cleveland.com/",
    "category": "Bar & Restaurant",
    "types": "bar, restaurant, food, point_of_interest, establishment"
  },
  {
    "place_id": "ChIJ1Rc2dbbtMIgRVG5dZpL5xf8",
    "name": "Neighbors Bar and Grill",
    "street_address": "15024 Puritas Avenue",
    "city": "Cleveland",
    "state": "OH",
    "zip_code": "44135",
    "latitude": 41.4348008,
    "longitude": -81.80166129999999,
    "website": null,
    "category": "Bar & Restaurant",
    "types": "bar, restaurant, point_of_interest, food, establishment"
  },
  {
    "place_id": "ChIJB8Rpu5jtMIgR0j7YXtsq-Xw",
    "name": "West Park Station",
    "street_address": "17015 Lorain Avenue",
    "city": "Cleveland",
    "state": "OH",
    "zip_code": "44111",
    "latitude": 41.4500561,
    "longitude": -81.815818,
    "website": "http://westparkstation216.com/",
    "category": "Bar & Restaurant",
    "types": "bar, restaurant, food, point_of_interest, establishment"
  },
  {
    "place_id": "ChIJhxFvuDHtMIgRjYE-EH-Frww",
    "name": "Gunselman's Tavern",
    "street_address": "21490 Lorain Road",
    "city": "Fairview Park",
    "state": "OH",
    "zip_code": "44126",
    "latitude": 41.4437522,
    "longitude": -81.85885239999999,
    "website": "https://www.gunselmans.com/",
    "category": "Restaurant",
    "types": "restaurant, food, point_of_interest, establishment"
  },
  {
    "place_id": "ChIJoWYLvpjtMIgREEbtzvSIVNI",
    "name": "Smedley's Bar & Grill",
    "street_address": "17004 Lorain Avenue",
    "city": "Cleveland",
    "state": "OH",
    "zip_code": "44111",
    "latitude": 41.4505158,
    "longitude": -81.8156231,
    "website": null,
    "category": "Bar & Restaurant",
    "types": "bar, restaurant, food, point_of_interest, establishment"
  },
  {
    "place_id": "ChIJQSQ4wi3tMIgRDx8G-Qk4hiI",
    "name": "The Fairview Tavern",
    "street_address": "21867 Lorain Road",
    "city": "Cleveland",
    "state": "OH",
    "zip_code": "44126",
    "latitude": 41.4420131,
    "longitude": -81.8623619,
    "website": "http://www.thefairviewtavern.com/",
    "category": "Bar & Restaurant",
    "types": "bar, restaurant, food, point_of_interest, establishment"
  },
  {
    "place_id": "ChIJi4T0emftMIgRH3gDUn0WWQk",
    "name": "Swinging Door Lounge",
    "street_address": "20130 Center Ridge Road",
    "city": "Rocky River",
    "state": "OH",
    "zip_code": "44116",
    "latitude": 41.4647021,
    "longitude": -81.8438741,
    "website": "http://www.swingingdoorlounge.com/",
    "category": "Bar & Restaurant",
    "types": "bar, restaurant, food, point_of_interest, establishment"
  },
  {
    "place_id": "ChIJVzoj2dKSMIgRh0Oy4ikFKT8",
    "name": "Art's Pub",
    "street_address": "22290 Lorain Road",
    "city": "Cleveland",
    "state": "OH",
    "zip_code": "44126",
    "latitude": 41.4407569,
    "longitude": -81.86710910000001,
    "website": null,
    "category": "Bar & Restaurant",
    "types": "bar, restaurant, food, point_of_interest, establishment"
  },
  {
    "place_id": "ChIJn33sNo_yMIgRG1DCtD8o-HQ",
    "name": "Around the Corner Saloon & Cafe",
    "street_address": "18616 Detroit Avenue",
    "city": "Lakewood",
    "state": "OH",
    "zip_code": "44107",
    "latitude": 41.48173339999999,
    "longitude": -81.8280111,
    "website": "http://www.atccafe.com/",
    "category": "Bar & Restaurant",
    "types": "bar, restaurant, food, point_of_interest, establishment"
  },
  {
    "place_id": "ChIJPYfLMx-TMIgRVt7JuAWXfN0",
    "name": "The Local Bar North Olmsted",
    "street_address": "24108 Lorain Road",
    "city": "North Olmsted",
    "state": "OH",
    "zip_code": "44070",
    "latitude": 41.43049999999999,
    "longitude": -81.8896194,
    "website": "http://www.facebook.com/thelocalbarnortholmsted",
    "category": "Bar & Restaurant",
    "types": "bar, restaurant, food, point_of_interest, establishment"
  },
  {
    "place_id": "ChIJ22mQAoiNMIgRCTuxXcIMSNY",
    "name": "Ironwood Cafe Westlake",
    "street_address": "688 Dover Center Road",
    "city": "Westlake",
    "state": "OH",
    "zip_code": "44145",
    "latitude": 41.476954,
    "longitude": -81.92131499999999,
    "website": "http://www.ironwoodcafe.com/",
    "category": "Bar & Restaurant",
    "types": "restaurant, bar, food, point_of_interest, establishment"
  },
  {
    "place_id": "ChIJGTRb33GSMIgRtXqi7Hrr_bc",
    "name": "Dover Gardens Tavern",
    "street_address": "27402 Detroit Road",
    "city": "Westlake",
    "state": "OH",
    "zip_code": "44145",
    "latitude": 41.4670102,
    "longitude": -81.9245371,
    "website": "http://www.facebook.com/dovergardenstavern/",
    "category": "Bar & Restaurant",
    "types": "bar, restaurant, food, point_of_interest, establishment"
  },
  {
    "place_id": "ChIJGe2kVQqTMIgR9c9R64OblNs",
    "name": "BJ's Restaurant & Brewhouse",
    "street_address": "25779 Brookpark Road",
    "city": "North Olmsted",
    "state": "OH",
    "zip_code": "44070",
    "latitude": 41.41835450000001,
    "longitude": -81.9073992,
    "website": "https://www.bjsrestaurants.com/locations/oh/north-olmsted?utm_source=google&utm_medium=organic&utm_campaign=google_my_business",
    "category": "Bar & Restaurant",
    "types": "restaurant, bar, point_of_interest, food, establishment"
  },
  {
    "place_id": "ChIJVVWxQEiSMIgRXxTn6PSGaqQ",
    "name": "Hail Mary's",
    "street_address": "27828 Center Ridge Road",
    "city": "Westlake",
    "state": "OH",
    "zip_code": "44145",
    "latitude": 41.4461925,
    "longitude": -81.9302629,
    "website": "https://www.hailmaryswestlake.com/",
    "category": "Bar & Restaurant",
    "types": "bar, restaurant, food, point_of_interest, establishment"
  },
  {
    "place_id": "ChIJA5XP3x-SMIgRT6HHM_ksq0w",
    "name": "Yard House",
    "street_address": "160 Union Street",
    "city": "Westlake",
    "state": "OH",
    "zip_code": "44145",
    "latitude": 41.4612223,
    "longitude": -81.95148549999999,
    "website": "https://www.yardhouse.com/locations/oh/westlake/westlake-crocker-park/8346?cmpid=br:yh_ag:ie_ch:loc_ca:YHGMB_sn:gmb_gt:westlake-oh-8346_pl:locurl_rd:1043",
    "category": "Bar & Restaurant",
    "types": "meal_takeaway, bar, restaurant, food, point_of_interest, establishment"
  },
  {
    "place_id": "ChIJTfTagJSSMIgR6LcPGOa4_vA",
    "name": "Loco Leprechaun Pub",
    "street_address": "24545 Center Ridge Road",
    "city": "Westlake",
    "state": "OH",
    "zip_code": "44145",
    "latitude": 41.4573059,
    "longitude": -81.89322659999999,
    "website": "https://m.facebook.com/locoleprechaun2006",
    "category": "Bar & Restaurant",
    "types": "bar, restaurant, food, point_of_interest, establishment"
  },
  {
    "place_id": "ChIJn04BsH2NMIgR5j3GyoPuXGY",
    "name": "Quinn's Kitchen and Bar",
    "street_address": "25517 Eaton Way",
    "city": "Bay Village",
    "state": "OH",
    "zip_code": "44140",
    "latitude": 41.4774564,
    "longitude": -81.90234,
    "website": "https://www.quinnsbayvillage.com/",
    "category": "Restaurant",
    "types": "restaurant, food, point_of_interest, establishment"
  },
  {
    "place_id": "ChIJt7DUCn2SMIgRO-yc3EwXRQE",
    "name": "AJ's Urban Grill",
    "street_address": "25939 Detroit Road",
    "city": "Westlake",
    "state": "OH",
    "zip_code": "44145",
    "latitude": 41.4685619,
    "longitude": -81.9064844,
    "website": "http://www.ajsurbangrill.com/",
    "category": "Bar & Restaurant",
    "types": "meal_delivery, bar, restaurant, food, point_of_interest, establishment"
  },
  {
    "place_id": "ChIJoZWNbQqTMIgR09xbHPMoETs",
    "name": "City Club Restaurant & Lounge",
    "street_address": "25905 Lorain Road",
    "city": "North Olmsted",
    "state": "OH",
    "zip_code": "44070",
    "latitude": 41.4205554,
    "longitude": -81.9088046,
    "website": "https://www.facebook.com/cityclubcle/",
    "category": "Bar & Restaurant",
    "types": "bar, restaurant, food, point_of_interest, establishment"
  },
  {
    "place_id": "ChIJS0aW9QCTMIgRXEP8ylsxAwU",
    "name": "Back Draft Bar and Grill",
    "street_address": "24775 Lorain Road",
    "city": "North Olmsted",
    "state": "OH",
    "zip_code": "44070",
    "latitude": 41.4251405,
    "longitude": -81.8961309,
    "website": "https://order.online/business/backdraft-bar-and-grill-11288546",
    "category": "Bar & Restaurant",
    "types": "restaurant, bar, food, point_of_interest, establishment"
  },
  {
    "place_id": "ChIJlVEh2byTMIgRDmGoCJrfvlM",
    "name": "Seeing Double Speakeasy Bar",
    "street_address": "26880 Brookpark Extension",
    "city": "North Olmsted",
    "state": "OH",
    "zip_code": "44070",
    "latitude": 41.4199308,
    "longitude": -81.9217719,
    "website": "http://www.seeingdoublecle.com/",
    "category": "Bar & Restaurant",
    "types": "bar, restaurant, food, point_of_interest, establishment"
  },
  {
    "place_id": "ChIJUYn88gKSMIgRl8QVC-iJ_8Q",
    "name": "Sanctuary The Restaurant",
    "street_address": "1100 Crocker Road",
    "city": "Westlake",
    "state": "OH",
    "zip_code": "44145",
    "latitude": 41.4711537,
    "longitude": -81.9520277,
    "website": "http://doubletree3.hilton.com/en/hotels/ohio/doubletree-by-hilton-hotel-cleveland-westlake-CLECRDT/dining/index.html",
    "category": "Bar & Restaurant",
    "types": "bar, restaurant, food, point_of_interest, establishment"
  },
  {
    "place_id": "ChIJ8eySPh-SMIgRL0CQlEhwJzc",
    "name": "Rosewood Grill Westlake",
    "street_address": "2033 Crocker Road",
    "city": "Westlake",
    "state": "OH",
    "zip_code": "44145",
    "latitude": 41.4604347,
    "longitude": -81.9493755,
    "website": "http://www.rosewoodgrill.com/",
    "category": "Restaurant",
    "types": "restaurant, food, point_of_interest, establishment"
  },
  {
    "place_id": "ChIJERSTNhqTMIgRw4IIPru9oMI",
    "name": "Travelers Grille",
    "street_address": "24532 Lorain Road",
    "city": "North Olmsted",
    "state": "OH",
    "zip_code": "44070",
    "latitude": 41.4274178,
    "longitude": -81.894584,
    "website": "https://m.facebook.com/profile.php/?id=100051149266106&name=xhp_nt__fb__action__open_user",
    "category": "Bar & Restaurant",
    "types": "restaurant, bar, food, point_of_interest, establishment"
  },
  {
    "place_id": "ChIJ20sufgqTMIgRuyafieABEl0",
    "name": "Harry Buffalo North Olmsted",
    "street_address": "4824 Great Northern Boulevard",
    "city": "North Olmsted",
    "state": "OH",
    "zip_code": "44070",
    "latitude": 41.4182453,
    "longitude": -81.9024906,
    "website": "https://www.harrybuffalo.com/northolmsted",
    "category": "Bar & Restaurant",
    "types": "bar, restaurant, food, point_of_interest, establishment"
  },
  {
    "place_id": "ChIJ6SSU4neSMIgRoKD9wO78hLo",
    "name": "Moosehead Saloon",
    "street_address": "694 Dover Center Road",
    "city": "Westlake",
    "state": "OH",
    "zip_code": "44145",
    "latitude": 41.4768722,
    "longitude": -81.9212944,
    "website": "https://www.mooseheadsaloon.com/",
    "category": "Bar & Restaurant",
    "types": "bar, restaurant, food, point_of_interest, establishment"
  },
  {
    "place_id": "ChIJN_zHCYqTMIgRq-ngfo6CFKU",
    "name": "Burntwood Tavern",
    "street_address": "5600 Great Northern Boulevard",
    "city": "North Olmsted",
    "state": "OH",
    "zip_code": "44070",
    "latitude": 41.4082717,
    "longitude": -81.90308379999999,
    "website": "http://www.burntwoodtavern.com/northolmsted?utm_medium=yext&utm_source=extnet",
    "category": "Restaurant",
    "types": "restaurant, point_of_interest, food, establishment"
  },
  {
    "place_id": "ChIJD7bl6daSMIgRa6tUz1zlDaE",
    "name": "Bonnie's Bar & Grill",
    "street_address": "22811 Lorain Road",
    "city": "Cleveland",
    "state": "OH",
    "zip_code": "44126",
    "latitude": 41.4375718,
    "longitude": -81.8734577,
    "website": "http://bonniesbarandgrill.com/",
    "category": "Bar & Restaurant",
    "types": "bar, restaurant, point_of_interest, food, establishment"
  },
  {
    "place_id": "ChIJP9KmqgqTMIgR7H7HReky9wI",
    "name": "Applebee's Grill + Bar",
    "street_address": "5010 Great Northern Boulevard",
    "city": "North Olmsted",
    "state": "OH",
    "zip_code": "44070",
    "latitude": 41.4165634,
    "longitude": -81.9097626,
    "website": "https://restaurants.applebees.com/en-us/oh/north-olmsted/5010-great-northern-blvd-86032?utm_source=google&utm_medium=organic&utm_campaign=google_my_business&utm_term=86032&utm_content=website",
    "category": "Bar & Restaurant",
    "types": "restaurant, bar, food, point_of_interest, establishment"
  },
  {
    "place_id": "ChIJwYDVO4SSMIgRpH7TopfnE5Q",
    "name": "Houlihan's",
    "street_address": "25651 Detroit Road",
    "city": "Westlake",
    "state": "OH",
    "zip_code": "44145",
    "latitude": 41.4690826,
    "longitude": -81.90308569999999,
    "website": "https://www.houlihans.com/location/westlake-houlihans/",
    "category": "Bar & Restaurant",
    "types": "bar, restaurant, food, point_of_interest, establishment"
  },
  {
    "place_id": "ChIJEeFUfneTMIgRFAbDHpxR9Us",
    "name": "Salty Mary's Oyster Bar and Tavern",
    "street_address": "25600 Center Ridge Road",
    "city": "Westlake",
    "state": "OH",
    "zip_code": "44145",
    "latitude": 41.4560171,
    "longitude": -81.90322359999999,
    "website": "https://www.saltymarys.com/",
    "category": "Restaurant",
    "types": "restaurant, food, point_of_interest, establishment"
  },
  {
    "place_id": "ChIJz8c1qZOSMIgR5uHZbW2GzTY",
    "name": "Stonehouse Grill",
    "street_address": "24850 Center Ridge Road",
    "city": "Westlake",
    "state": "OH",
    "zip_code": "44145",
    "latitude": 41.4577716,
    "longitude": -81.8957563,
    "website": "http://www.stonehousegrill.com/",
    "category": "Bar & Restaurant",
    "types": "bar, store, restaurant, food, point_of_interest, establishment"
  },
  {
    "place_id": "ChIJxZfPyNaSMIgRxs45oGxNcnk",
    "name": "Reggie's Saloon",
    "street_address": "22830 Lorain Road",
    "city": "Fairview Park",
    "state": "OH",
    "zip_code": "44126",
    "latitude": 41.4380678,
    "longitude": -81.87321850000001,
    "website": null,
    "category": "Bar & Restaurant",
    "types": "bar, restaurant, point_of_interest, food, establishment"
  },
  {
    "place_id": "ChIJMR_l6gSSMIgRYyXHr9LxUiY",
    "name": "Sibling Revelry Brewing",
    "street_address": "29305 Clemens Road",
    "city": "Westlake",
    "state": "OH",
    "zip_code": "44145",
    "latitude": 41.4701134,
    "longitude": -81.946543,
    "website": "https://www.siblingrevelrybrewing.com/",
    "category": "Bar & Restaurant",
    "types": "bar, restaurant, food, point_of_interest, establishment"
  },
  {
    "place_id": "ChIJR2mhxhiTMIgR_TERxFbY6UM",
    "name": "Danny Boy\u2019s Pizza",
    "street_address": "24129 Lorain Road",
    "city": "North Olmsted",
    "state": "OH",
    "zip_code": "44070",
    "latitude": 41.4286635,
    "longitude": -81.889234,
    "website": "https://www.dannyboyspizza.com/locations?openItem=item3",
    "category": "Bar & Restaurant",
    "types": "bar, restaurant, food, point_of_interest, store, establishment"
  },
  {
    "place_id": "ChIJG4B5FxqTMIgRHJ93AL0-zbM",
    "name": "Fat Heads Brewery & Saloon - North Olmsted, OH",
    "street_address": "24581 Lorain Road",
    "city": "North Olmsted",
    "state": "OH",
    "zip_code": "44070",
    "latitude": 41.4264252,
    "longitude": -81.8942005,
    "website": "http://www.fatheads.com/",
    "category": "Bar & Restaurant",
    "types": "bar, restaurant, food, point_of_interest, establishment"
  },
  {
    "place_id": "ChIJhyBkngyTMIgRFzVh5BICWHY",
    "name": "Wild Mango Restaurant and Bar-Crocker Park",
    "street_address": "139 Crocker Park Boulevard",
    "city": "Westlake",
    "state": "OH",
    "zip_code": "44145",
    "latitude": 41.459542,
    "longitude": -81.95065199999999,
    "website": "http://wildmangorestaurant.com/",
    "category": "Bar & Restaurant",
    "types": "bar, restaurant, food, point_of_interest, establishment"
  },
  {
    "place_id": "ChIJEVxAnvSRMIgRIJ7lm8JjKa4",
    "name": "Cabin Club",
    "street_address": "30651 Detroit Road",
    "city": "Westlake",
    "state": "OH",
    "zip_code": "44145",
    "latitude": 41.4614205,
    "longitude": -81.9588157,
    "website": "http://www.thecabinclub.com/",
    "category": "Bar & Restaurant",
    "types": "bar, restaurant, food, point_of_interest, establishment"
  },
  {
    "place_id": "ChIJ9dWnFcwCMYgRQywkqEsDh70",
    "name": "Cooper's Hawk Winery & Restaurant- Orange Village, OH",
    "street_address": "27200 Harvard Road",
    "city": "Orange",
    "state": "OH",
    "zip_code": "44122",
    "latitude": 41.44885980000001,
    "longitude": -81.4873415,
    "website": "https://chwinery.com/locations/ohio/orange-village",
    "category": "Bar & Restaurant",
    "types": "bar, restaurant, food, point_of_interest, establishment"
  },
  {
    "place_id": "ChIJNxeuHlwDMYgRj37SB_u-H3c",
    "name": "Firebirds Wood Fired Grill",
    "street_address": "211 Park Avenue",
    "city": "Beachwood",
    "state": "OH",
    "zip_code": "44122",
    "latitude": 41.45399750000001,
    "longitude": -81.48674489999999,
    "website": "https://firebirdsrestaurants.com/cleveland",
    "category": "Restaurant",
    "types": "restaurant, point_of_interest, food, establishment"
  },
  {
    "place_id": "ChIJl4i0ekgDMYgRba7c9faXBvs",
    "name": "BJ's Restaurant & Brewhouse",
    "street_address": "27100 Harvard Road",
    "city": "Orange",
    "state": "OH",
    "zip_code": "44122",
    "latitude": 41.4488772,
    "longitude": -81.4881867,
    "website": "https://www.bjsrestaurants.com/",
    "category": "Bar & Restaurant",
    "types": "bar, restaurant, food, point_of_interest, establishment"
  },
  {
    "place_id": "ChIJ37w2Jy3jMIgR00kJI0O4m4M",
    "name": "Paragon Social",
    "street_address": "5120 Warrensville Center Road",
    "city": "Maple Heights",
    "state": "OH",
    "zip_code": "44137",
    "latitude": 41.42110539999999,
    "longitude": -81.53763699999999,
    "website": "https://theparagonsocial.com/",
    "category": "Bar & Restaurant",
    "types": "bar, restaurant, food, point_of_interest, establishment"
  },
  {
    "place_id": "ChIJWUqA5KTiMIgRB9OJca2-fA8",
    "name": "Three Kings bar and lounge",
    "street_address": "21899 Emery Road",
    "city": "Warrensville Heights",
    "state": "OH",
    "zip_code": "44128",
    "latitude": 41.4356537,
    "longitude": -81.52513069999999,
    "website": "http://three-kings-bar-lounge.poi.place/",
    "category": "Bar & Restaurant",
    "types": "bar, restaurant, food, point_of_interest, establishment"
  },
  {
    "place_id": "ChIJM8e-yuoCMYgRfV5NF-UDyp0",
    "name": "Winking Lizard Beachwood",
    "street_address": "25800 Central Parkway",
    "city": "Beachwood",
    "state": "OH",
    "zip_code": "44122",
    "latitude": 41.4671978,
    "longitude": -81.4938507,
    "website": "https://www.winkinglizard.com/",
    "category": "Bar & Restaurant",
    "types": "bar, restaurant, food, point_of_interest, establishment"
  },
  {
    "place_id": "ChIJHUyhCugDMYgRJ1vuzvLnmKc",
    "name": "The Last Page",
    "street_address": "100 Park Avenue",
    "city": "Beachwood",
    "state": "OH",
    "zip_code": "44122",
    "latitude": 41.4545599,
    "longitude": -81.4857364,
    "website": "http://www.thelastpagerestaurant.com/",
    "category": "Restaurant",
    "types": "restaurant, food, point_of_interest, establishment"
  },
  {
    "place_id": "ChIJ____hmkCMYgRDLhl8axdaro",
    "name": "Bar Italia Beachwood",
    "street_address": "2101 Richmond Road",
    "city": "Beachwood",
    "state": "OH",
    "zip_code": "44122",
    "latitude": 41.5008136,
    "longitude": -81.4964882,
    "website": "https://baritalia.com/",
    "category": "Restaurant",
    "types": "restaurant, food, point_of_interest, establishment"
  },
  {
    "place_id": "ChIJFflVi_QDMYgRuneugPRTprY",
    "name": "Saucy Brew Works Pinecrest - Brewpub & Coffeehouse",
    "street_address": "400 Park Avenue",
    "city": "Orange",
    "state": "OH",
    "zip_code": "44122",
    "latitude": 41.4512406,
    "longitude": -81.4859937,
    "website": "https://www.saucybrewworks.com/pinecrest/?utm_source=google&utm_medium=GMB&utm_campaign=organic",
    "category": "Bar & Restaurant",
    "types": "bar, restaurant, food, point_of_interest, establishment"
  },
  {
    "place_id": "ChIJt4JMh7UCMYgRpGqcbdIfHB8",
    "name": "River City Grille Warrensville Heights Ohio",
    "street_address": "26300 Harvard Road",
    "city": "Warrensville Heights",
    "state": "OH",
    "zip_code": "44122",
    "latitude": 41.4489244,
    "longitude": -81.4939788,
    "website": "http://www.marriott.com/hotels/hotel-information/restaurant/cleem-cleveland-marriott-east",
    "category": "Restaurant",
    "types": "restaurant, food, point_of_interest, establishment"
  },
  {
    "place_id": "ChIJxavX3WsCMYgR4s1J43Fx1js",
    "name": "Cedar Creek Grille",
    "street_address": "2101 Richmond Road",
    "city": "Beachwood",
    "state": "OH",
    "zip_code": "44122",
    "latitude": 41.5006407,
    "longitude": -81.49679139999999,
    "website": "https://www.cedarcreekgrille.com/?utm_source=gbp&utm_medium=organic",
    "category": "Bar & Restaurant",
    "types": "bar, restaurant, food, point_of_interest, establishment"
  },
  {
    "place_id": "ChIJYSUDwrADMYgRzg9zmBnW5TU",
    "name": "Pinstripes",
    "street_address": "111 Park Avenue",
    "city": "Beachwood",
    "state": "OH",
    "zip_code": "44122",
    "latitude": 41.4545346,
    "longitude": -81.48706849999999,
    "website": "https://pinstripes.com/?utm_source=local&utm_medium=organic&utm_content=gmb",
    "category": "Restaurant",
    "types": "restaurant, bowling_alley, food, point_of_interest, establishment"
  },
  {
    "place_id": "ChIJs9v-cGkdMYgRE1C8g4mybYI",
    "name": "Winking Lizard Bedford Heights",
    "street_address": "25200 Miles Road",
    "city": "Bedford Heights",
    "state": "OH",
    "zip_code": "44146",
    "latitude": 41.4237562,
    "longitude": -81.5007464,
    "website": "https://www.winkinglizard.com/",
    "category": "Bar & Restaurant",
    "types": "bar, restaurant, food, point_of_interest, establishment"
  },
  {
    "place_id": "ChIJUbzRz70CMYgR7caABC4uVtA",
    "name": "Yours Truly Beachwood",
    "street_address": "25300 Chagrin Boulevard",
    "city": "Beachwood",
    "state": "OH",
    "zip_code": "44122",
    "latitude": 41.4642822,
    "longitude": -81.5000262,
    "website": "http://www.ytr.com/",
    "category": "Restaurant",
    "types": "restaurant, food, point_of_interest, establishment"
  },
  {
    "place_id": "ChIJF-hlAKXiMIgRkDRFTT5R1B4",
    "name": "Frederick's Wine and Dine",
    "street_address": "22005 Emery Road",
    "city": "Warrensville Heights",
    "state": "OH",
    "zip_code": "44128",
    "latitude": 41.4358493,
    "longitude": -81.5240275,
    "website": "http://fredericksdine.com/",
    "category": "Bar & Restaurant",
    "types": "bar, restaurant, food, point_of_interest, establishment"
  },
  {
    "place_id": "ChIJQX0B9iEDMYgRjog7dwLWPrg",
    "name": "Park East Grill",
    "street_address": "3775 Park East Drive",
    "city": "Beachwood",
    "state": "OH",
    "zip_code": "44122",
    "latitude": 41.45750870000001,
    "longitude": -81.4925191,
    "website": "https://www.hilton.com/en/hotels/clebhes-embassy-suites-cleveland-beachwood/dining/",
    "category": "Bar & Restaurant",
    "types": "bar, restaurant, food, point_of_interest, establishment"
  },
  {
    "place_id": "ChIJJ-JQ8gIbMYgRnNhI-nl_aBg",
    "name": "Tipsy Bull Tavern",
    "street_address": "17800 Chillicothe Road",
    "city": "Chagrin Falls",
    "state": "OH",
    "zip_code": "44023",
    "latitude": 41.3852271,
    "longitude": -81.3408824,
    "website": "http://tipsybulltavern.com/",
    "category": "Restaurant",
    "types": "restaurant, food, point_of_interest, establishment"
  },
  {
    "place_id": "ChIJhTU6H94bMYgRf3YmehUW7KY",
    "name": "Pub Frato Chagrin Falls",
    "street_address": "25 Pleasant Drive",
    "city": "Chagrin Falls",
    "state": "OH",
    "zip_code": "44022",
    "latitude": 41.4306429,
    "longitude": -81.3909864,
    "website": "https://pubfrato.com/chagrin",
    "category": "Bar & Restaurant",
    "types": "bar, restaurant, food, point_of_interest, establishment"
  },
  {
    "place_id": "ChIJCzl_gF8bMYgRej98kgZO7_c",
    "name": "M Bevy",
    "street_address": "87 West Street",
    "city": "Chagrin Falls",
    "state": "OH",
    "zip_code": "44022",
    "latitude": 41.43171,
    "longitude": -81.39354999999999,
    "website": "https://www.mbevy.com/",
    "category": "Bar & Restaurant",
    "types": "bar, restaurant, food, point_of_interest, establishment"
  },
  {
    "place_id": "ChIJr5hj8UIdMYgR5-kQfr5druU",
    "name": "Mavis Public House",
    "street_address": "6025 Kruse Drive",
    "city": "Solon",
    "state": "OH",
    "zip_code": "44139",
    "latitude": 41.3938755,
    "longitude": -81.4432203,
    "website": "https://www.mavispublichouse.com/",
    "category": "Restaurant",
    "types": "restaurant, food, point_of_interest, establishment"
  },
  {
    "place_id": "ChIJ4zIQWgAbMYgReP69qCx_8VQ",
    "name": "Tavern Six - Chagrin Falls",
    "street_address": "540 East Washington Street",
    "city": "Chagrin Falls",
    "state": "OH",
    "zip_code": "44022",
    "latitude": 41.4252087,
    "longitude": -81.3710042,
    "website": "https://www.tavernsix.com/",
    "category": "Restaurant",
    "types": "restaurant, food, point_of_interest, establishment"
  },
  {
    "place_id": "ChIJp6H6LMIbMYgRCA_vSw-k4Vs",
    "name": "JoJo's Bar",
    "street_address": "87 West Street",
    "city": "Chagrin Falls",
    "state": "OH",
    "zip_code": "44022",
    "latitude": 41.43163500000001,
    "longitude": -81.39337660000001,
    "website": "https://www.jojosbar.com/",
    "category": "Restaurant",
    "types": "restaurant, food, point_of_interest, establishment"
  },
  {
    "place_id": "ChIJzQ-7HG8cMYgRmMRSGi3stx4",
    "name": "Swirl Wine Bar",
    "street_address": "33325 Bainbridge Road",
    "city": "Solon",
    "state": "OH",
    "zip_code": "44139",
    "latitude": 41.3901854,
    "longitude": -81.4423035,
    "website": "http://www.swirlsolon.com/",
    "category": "Bar & Restaurant",
    "types": "bar, restaurant, food, point_of_interest, establishment"
  },
  {
    "place_id": "ChIJPwHX5FobMYgRGGn3h3bPOAE",
    "name": "OddFellows Restaurant",
    "street_address": "16 North Main Street",
    "city": "Chagrin Falls",
    "state": "OH",
    "zip_code": "44022",
    "latitude": 41.430363,
    "longitude": -81.3911111,
    "website": "https://2oddfellows.com/",
    "category": "Restaurant",
    "types": "restaurant, food, point_of_interest, establishment"
  },
  {
    "place_id": "ChIJLaKDHi8bMYgRbAxY5us33JI",
    "name": "Yours Truly Chagrin Falls",
    "street_address": "30 North Main Street",
    "city": "Chagrin Falls",
    "state": "OH",
    "zip_code": "44022",
    "latitude": 41.430647,
    "longitude": -81.39131499999999,
    "website": "http://www.ytr.com/",
    "category": "Bar & Restaurant",
    "types": "bar, restaurant, food, point_of_interest, establishment"
  },
  {
    "place_id": "ChIJ2QL0tNoaMYgRd587NP_A63w",
    "name": "Village Martini & Wine Bar",
    "street_address": "516 East Washington Street",
    "city": "Chagrin Falls",
    "state": "OH",
    "zip_code": "44022",
    "latitude": 41.4260406,
    "longitude": -81.37309259999999,
    "website": "http://www.villagemartini.com/",
    "category": "Bar & Restaurant",
    "types": "bar, restaurant, food, point_of_interest, establishment"
  },
  {
    "place_id": "ChIJT86G6G8cMYgRVzWYahY_H0A",
    "name": "Burntwood Tavern",
    "street_address": "33675 Solon Road",
    "city": "Solon",
    "state": "OH",
    "zip_code": "44139",
    "latitude": 41.3910958,
    "longitude": -81.4398708,
    "website": "http://www.burntwoodtavern.com/solon?utm_medium=yext&utm_source=extnet",
    "category": "Restaurant",
    "types": "restaurant, point_of_interest, food, establishment"
  },
  {
    "place_id": "ChIJJUYrEXUQMYgRo1r-NgP8WWI",
    "name": "Crumb & Spigot Bainbridge",
    "street_address": "16783 Chillicothe Road",
    "city": "Chagrin Falls",
    "state": "OH",
    "zip_code": "44023",
    "latitude": 41.41264719999999,
    "longitude": -81.3373194,
    "website": "http://www.crumbandspigot.com/",
    "category": "Restaurant",
    "types": "restaurant, food, point_of_interest, establishment"
  },
  {
    "place_id": "ChIJ8z88TnQQMYgRi6YjEH1ddzM",
    "name": "Cowboy Food & Drink",
    "street_address": "8586 East Washington Street",
    "city": "Chagrin Falls",
    "state": "OH",
    "zip_code": "44023",
    "latitude": 41.4123063,
    "longitude": -81.33650449999999,
    "website": "https://www.cowboyfoodanddrink.com/",
    "category": "Bar & Restaurant",
    "types": "bar, restaurant, food, point_of_interest, establishment"
  },
  {
    "place_id": "ChIJrXRJ2OMdMYgR1PC4GiePu2I",
    "name": "Yours Truly Solon",
    "street_address": "6141 Kruse Drive",
    "city": "Solon",
    "state": "OH",
    "zip_code": "44139",
    "latitude": 41.3922605,
    "longitude": -81.440066,
    "website": "http://ytr.com/",
    "category": "Bar & Restaurant",
    "types": "bar, restaurant, food, point_of_interest, establishment"
  },
  {
    "place_id": "ChIJe5BWLUQDMYgRjMLRvKSDWW0",
    "name": "ML Tavern",
    "street_address": "34105 Chagrin Boulevard",
    "city": "Moreland Hills",
    "state": "OH",
    "zip_code": "44022",
    "latitude": 41.4551571,
    "longitude": -81.44420559999999,
    "website": "http://www.mltav.com/",
    "category": "Restaurant",
    "types": "restaurant, food, point_of_interest, establishment"
  },
  {
    "place_id": "ChIJm6SIt0UDMYgRR00DgAVZEvc",
    "name": "Cru Uncorked",
    "street_address": "34300 Chagrin Boulevard",
    "city": "Moreland Hills",
    "state": "OH",
    "zip_code": "44022",
    "latitude": 41.4540279,
    "longitude": -81.4428889,
    "website": "http://cruuncorked.com/",
    "category": "Restaurant",
    "types": "restaurant, food, point_of_interest, establishment"
  },
  {
    "place_id": "ChIJs9zJ4i4bMYgRSNy7b89bX9A",
    "name": "The Reserve",
    "street_address": "42 North Main Street",
    "city": "Chagrin Falls",
    "state": "OH",
    "zip_code": "44022",
    "latitude": 41.43095639999999,
    "longitude": -81.3915717,
    "website": "http://www.thereservechagrin.com/",
    "category": "Restaurant",
    "types": "restaurant, food, point_of_interest, establishment"
  },
  {
    "place_id": "ChIJAQAEUi4bMYgRFKZtJVvzjRs",
    "name": "17 River Grille",
    "street_address": "17 River Street",
    "city": "Chagrin Falls",
    "state": "OH",
    "zip_code": "44022",
    "latitude": 41.4312968,
    "longitude": -81.3928437,
    "website": "http://www.17rivergrille.com/",
    "category": "Restaurant",
    "types": "restaurant, food, point_of_interest, establishment"
  },
  {
    "place_id": "ChIJm7NA0jEbMYgR2Vb3DHkTIQ4",
    "name": "M Italian",
    "street_address": "22 West Orange Street",
    "city": "Chagrin Falls",
    "state": "OH",
    "zip_code": "44022",
    "latitude": 41.432375,
    "longitude": -81.39350680000001,
    "website": "http://www.mitalian.com/",
    "category": "Restaurant",
    "types": "restaurant, food, point_of_interest, establishment"
  },
  {
    "place_id": "ChIJLaKDHi8bMYgRN4xFSi5s9ds",
    "name": "Parkside Grille",
    "street_address": "8 Plaza Drive",
    "city": "Chagrin Falls",
    "state": "OH",
    "zip_code": "44022",
    "latitude": 41.43073320000001,
    "longitude": -81.3911914,
    "website": "https://parksidechagrin.com/",
    "category": "Restaurant",
    "types": "restaurant, food, point_of_interest, establishment"
  }
]