[
  {
    "place_id": "ChIJG7PCBX9PE4cRACwcIaz3jwY",
    "name": "The Public House at The Alexander",
    "street_address": "3104 North Nevada Avenue",
    "city": "Colorado Springs",
    "state": "CO",
    "zip_code": "80907",
    "latitude": 38.8769645,
    "longitude": -104.8202362,
    "website": "http://thepublichouseco.com/",
    "category": "Bar & Restaurant",
    "types": "bar, restaurant, food, point_of_interest, establishment"
  },
  {
    "place_id": "ChIJFW7EuYVPE4cRd5x0OuEkDw8",
    "name": "O'Furry's",
    "street_address": "900 East Fillmore Street",
    "city": "Colorado Springs",
    "state": "CO",
    "zip_code": "80907",
    "latitude": 38.87462769999999,
    "longitude": -104.8083996,
    "website": "http://ofurryscs.com/",
    "category": "Bar & Restaurant",
    "types": "bar, restaurant, food, point_of_interest, establishment"
  },
  {
    "place_id": "ChIJ4_GhOT1FE4cRaLuPukv0w6U",
    "name": "Oskar Blues Grill & Brew - Colorado Springs",
    "street_address": "118 North Tejon Street",
    "city": "Colorado Springs",
    "state": "CO",
    "zip_code": "80903",
    "latitude": 38.83607319999999,
    "longitude": -104.8236032,
    "website": "https://www.oskarbluesfooderies.com/",
    "category": "Bar & Restaurant",
    "types": "bar, restaurant, food, point_of_interest, establishment"
  },
  {
    "place_id": "ChIJOUIJLhBFE4cR3wgZ3lhe6GE",
    "name": "Happy Tap",
    "street_address": "1757 South 8th Street",
    "city": "Colorado Springs",
    "state": "CO",
    "zip_code": "80905",
    "latitude": 38.8067426,
    "longitude": -104.8385719,
    "website": "https://happytaptaproom.github.io/",
    "category": "Bar & Restaurant",
    "types": "bar, restaurant, food, point_of_interest, establishment"
  },
  {
    "place_id": "ChIJwZQQiiJFE4cRrB1XzuLWXrM",
    "name": "Jack Quinn's Irish Pub and Restaurant",
    "street_address": "21 South Tejon Street",
    "city": "Colorado Springs",
    "state": "CO",
    "zip_code": "80903",
    "latitude": 38.832991,
    "longitude": -104.823384,
    "website": "https://www.jackquinnspub.com/",
    "category": "Bar & Restaurant",
    "types": "bar, restaurant, food, point_of_interest, establishment"
  },
  {
    "place_id": "ChIJB9FC5LxaE4cRYpYcKINvxAg",
    "name": "Alchemy",
    "street_address": "2625 West Colorado Avenue",
    "city": "Colorado Springs",
    "state": "CO",
    "zip_code": "80904",
    "latitude": 38.84856939999999,
    "longitude": -104.865475,
    "website": "https://www.alchemypub.com/",
    "category": "Bar & Restaurant",
    "types": "bar, restaurant, food, point_of_interest, establishment"
  },
  {
    "place_id": "ChIJPxkyEBlFE4cRlx3vk2uHVUQ",
    "name": "Triple Nickel Tavern",
    "street_address": "103 South Wahsatch Avenue",
    "city": "Colorado Springs",
    "state": "CO",
    "zip_code": "80903",
    "latitude": 38.8318207,
    "longitude": -104.8177794,
    "website": null,
    "category": "Bar & Restaurant",
    "types": "bar, restaurant, food, point_of_interest, establishment"
  },
  {
    "place_id": "ChIJUa2JVL9aE4cRrWHU_MXtzTc",
    "name": "Pub Dog Colorado",
    "street_address": "2207 Bott Avenue",
    "city": "Colorado Springs",
    "state": "CO",
    "zip_code": "80904",
    "latitude": 38.84058269999999,
    "longitude": -104.8631178,
    "website": "https://pubdogcolorado.com/",
    "category": "Bar & Restaurant",
    "types": "restaurant, bar, food, point_of_interest, establishment"
  },
  {
    "place_id": "ChIJ9WtScwlEE4cRgKqMy-OMxYg",
    "name": "Knucklehead Tavern",
    "street_address": "2627 Delta Drive",
    "city": "Colorado Springs",
    "state": "CO",
    "zip_code": "80910",
    "latitude": 38.793662,
    "longitude": -104.7684081,
    "website": "http://knuckleheadtavern.com/",
    "category": "Bar & Restaurant",
    "types": "bar, restaurant, food, point_of_interest, establishment"
  },
  {
    "place_id": "ChIJ_ZfLM5NFE4cR2HmSEfDUkuM",
    "name": "Willies a Neighborhood Bar",
    "street_address": "1865 North Circle Drive",
    "city": "Colorado Springs",
    "state": "CO",
    "zip_code": "80909",
    "latitude": 38.8584961,
    "longitude": -104.773542,
    "website": null,
    "category": "Bar & Restaurant",
    "types": "bar, restaurant, food, point_of_interest, establishment"
  },
  {
    "place_id": "ChIJ-2SjpD1FE4cRVfQxALuwMVs",
    "name": "Trainwreck",
    "street_address": "812 South Sierra Madre Street",
    "city": "Colorado Springs",
    "state": "CO",
    "zip_code": "80903",
    "latitude": 38.82297359999999,
    "longitude": -104.8300804,
    "website": "https://trainwreckco.com/",
    "category": "Bar & Restaurant",
    "types": "restaurant, bar, food, point_of_interest, establishment"
  },
  {
    "place_id": "ChIJ08rUwS9FE4cRf64IfDhVr88",
    "name": "Benny's Restaurant & Lounge",
    "street_address": "517 West Colorado Avenue",
    "city": "Colorado Springs",
    "state": "CO",
    "zip_code": "80905",
    "latitude": 38.832622,
    "longitude": -104.8352481,
    "website": "https://www.bennyscos.com/?utm_source=google&utm_medium=organic&utm_campaign=gbp",
    "category": "Bar & Restaurant",
    "types": "restaurant, night_club, bar, food, point_of_interest, establishment"
  },
  {
    "place_id": "ChIJH3EakT1FE4cROzPf2U-aWl4",
    "name": "Tony's",
    "street_address": "326 North Tejon Street",
    "city": "Colorado Springs",
    "state": "CO",
    "zip_code": "80903",
    "latitude": 38.8392346,
    "longitude": -104.8236194,
    "website": "http://www.tonysdowntownbar.com/",
    "category": "Bar & Restaurant",
    "types": "bar, restaurant, food, point_of_interest, establishment"
  },
  {
    "place_id": "ChIJzerTHplaE4cRSJ1NwNx-wFk",
    "name": "Trails End Taproom and Eatery",
    "street_address": "2925 West Colorado Avenue",
    "city": "Colorado Springs",
    "state": "CO",
    "zip_code": "80904",
    "latitude": 38.8512626,
    "longitude": -104.8701461,
    "website": "http://www.trailsendtaproom.com/",
    "category": "Bar & Restaurant",
    "types": "restaurant, bar, food, point_of_interest, establishment"
  },
  {
    "place_id": "ChIJpWV3hk1bE4cRF3r4eL8ZuVU",
    "name": "Golden Bee",
    "street_address": "1 Lake Avenue",
    "city": "Colorado Springs",
    "state": "CO",
    "zip_code": "80906",
    "latitude": 38.7920573,
    "longitude": -104.8478241,
    "website": "http://www.broadmoor.com/golden-bee/",
    "category": "Bar & Restaurant",
    "types": "bar, restaurant, food, point_of_interest, establishment"
  },
  {
    "place_id": "ChIJfQBgIYFFE4cRm5_u_-xNTXk",
    "name": "PEAK 31 @ Union Station",
    "street_address": "2419 North Union Boulevard",
    "city": "Colorado Springs",
    "state": "CO",
    "zip_code": "80909",
    "latitude": 38.86676900000001,
    "longitude": -104.7927098,
    "website": "http://www.peak31csprings.com/",
    "category": "Bar & Restaurant",
    "types": "bar, night_club, restaurant, food, point_of_interest, establishment"
  },
  {
    "place_id": "ChIJL_rvjCJFE4cRo8EDFpgvlY0",
    "name": "Colorado Craft Social",
    "street_address": "15 South Tejon Street",
    "city": "Colorado Springs",
    "state": "CO",
    "zip_code": "80903",
    "latitude": 38.8332436,
    "longitude": -104.8233756,
    "website": "http://coloradocraftsocial.com/",
    "category": "Bar & Restaurant",
    "types": "restaurant, bar, food, point_of_interest, establishment"
  },
  {
    "place_id": "ChIJURE-7S9FE4cRBHb3-5xliDY",
    "name": "503W",
    "street_address": "503 West Colorado Avenue",
    "city": "Colorado Springs",
    "state": "CO",
    "zip_code": "80905",
    "latitude": 38.832564,
    "longitude": -104.834588,
    "website": "https://www.503w.co/",
    "category": "Bar & Restaurant",
    "types": "bar, restaurant, food, point_of_interest, establishment"
  },
  {
    "place_id": "ChIJWT_vQPpRE4cRsSH99NWpiz8",
    "name": "Lebowski's Taproom",
    "street_address": "3240 Centennial Boulevard",
    "city": "Colorado Springs",
    "state": "CO",
    "zip_code": "80907",
    "latitude": 38.87665800000001,
    "longitude": -104.8473089,
    "website": "http://www.lebowskistaproom.com/",
    "category": "Bar & Restaurant",
    "types": "bar, restaurant, food, point_of_interest, establishment"
  },
  {
    "place_id": "ChIJqXHflWpFE4cRERwsOVXvnB4",
    "name": "Aspen American Bar & Grill",
    "street_address": "2540 Tenderfoot Hill Street",
    "city": "Colorado Springs",
    "state": "CO",
    "zip_code": "80906",
    "latitude": 38.79622299999999,
    "longitude": -104.8129648,
    "website": "https://aspenamericanbargrill.com/",
    "category": "Bar & Restaurant",
    "types": "bar, restaurant, food, point_of_interest, establishment"
  },
  {
    "place_id": "ChIJH9O3kT1FE4cRNhaCddiNHks",
    "name": "Odyssey Gastropub",
    "street_address": "311 North Tejon Street",
    "city": "Colorado Springs",
    "state": "CO",
    "zip_code": "80903",
    "latitude": 38.838719,
    "longitude": -104.8230959,
    "website": "https://www.odysseygastropub.com/",
    "category": "Bar & Restaurant",
    "types": "night_club, bar, restaurant, food, point_of_interest, establishment"
  },
  {
    "place_id": "ChIJLWNcbpdFE4cRgq90L9R72N8",
    "name": "The Crooked Cue",
    "street_address": "112 North Tejon Street",
    "city": "Colorado Springs",
    "state": "CO",
    "zip_code": "80903",
    "latitude": 38.83577299999999,
    "longitude": -104.823658,
    "website": "https://crookedcuelounge.com/",
    "category": "Restaurant",
    "types": "restaurant, point_of_interest, food, establishment"
  },
  {
    "place_id": "ChIJ6YmkX65FE4cR-sqdx7TBgxE",
    "name": "Skybox Lounge",
    "street_address": "2102 East Bijou Street",
    "city": "Colorado Springs",
    "state": "CO",
    "zip_code": "80909",
    "latitude": 38.8358346,
    "longitude": -104.7900843,
    "website": null,
    "category": "Bar & Restaurant",
    "types": "bar, restaurant, food, point_of_interest, establishment"
  },
  {
    "place_id": "ChIJtzdX7rtaE4cRt5uHsEX8FQU",
    "name": "Thunder and Buttons II",
    "street_address": "2415 West Colorado Avenue",
    "city": "Colorado Springs",
    "state": "CO",
    "zip_code": "80904",
    "latitude": 38.846514,
    "longitude": -104.862074,
    "website": "http://www.thunderandbuttons.com/",
    "category": "Bar & Restaurant",
    "types": "night_club, bar, restaurant, food, point_of_interest, establishment"
  },
  {
    "place_id": "ChIJHbYemeNbE4cR7X0ATdgX4Fs",
    "name": "OCC Brewing and Restaurant",
    "street_address": "2316 West Colorado Avenue",
    "city": "Colorado Springs",
    "state": "CO",
    "zip_code": "80904",
    "latitude": 38.8459045,
    "longitude": -104.8602721,
    "website": "https://occbrewing.com/",
    "category": "Bar & Restaurant",
    "types": "restaurant, bar, food, point_of_interest, establishment"
  },
  {
    "place_id": "ChIJ4QHWayBFE4cRMlZGrcx-deU",
    "name": "Streetcar 520",
    "street_address": "520 South Tejon Street",
    "city": "Colorado Springs",
    "state": "CO",
    "zip_code": "80903",
    "latitude": 38.8261311,
    "longitude": -104.8242168,
    "website": "https://streetcar520.com/?utm_source=local&utm_medium=organic&utm_campaign=gmb",
    "category": "Bar & Restaurant",
    "types": "restaurant, bar, food, point_of_interest, establishment"
  },
  {
    "place_id": "ChIJz58_szBFE4cRPvYCRosuzPw",
    "name": "Brakeman's Smashed Burger Bar",
    "street_address": "10 South Sierra Madre Street",
    "city": "Colorado Springs",
    "state": "CO",
    "zip_code": "80903",
    "latitude": 38.8341337,
    "longitude": -104.8288016,
    "website": "https://www.brakemansburgerbar.com/",
    "category": "Restaurant",
    "types": "restaurant, food, point_of_interest, establishment"
  },
  {
    "place_id": "ChIJFc5c2SJFE4cRsiqJ3K3urM0",
    "name": "Phantom Canyon Brewing Company",
    "street_address": "2 East Pikes Peak Avenue",
    "city": "Colorado Springs",
    "state": "CO",
    "zip_code": "80903",
    "latitude": 38.8342281,
    "longitude": -104.8249417,
    "website": "https://phantomcanyon.com/",
    "category": "Bar & Restaurant",
    "types": "bar, restaurant, food, point_of_interest, establishment"
  },
  {
    "place_id": "ChIJSaET3nlFE4cR-DrA9q3JaYI",
    "name": "Patty Jewett Bar & Grill",
    "street_address": "900 East Espanola Street",
    "city": "Colorado Springs",
    "state": "CO",
    "zip_code": "80907",
    "latitude": 38.8589505,
    "longitude": -104.8031896,
    "website": "https://pjbarandgrill.com/",
    "category": "Bar & Restaurant",
    "types": "bar, restaurant, food, point_of_interest, establishment"
  },
  {
    "place_id": "ChIJB7g_j8NEE4cRZ0VLRFhrukE",
    "name": "Principal's Office",
    "street_address": "1604 South Cascade Avenue",
    "city": "Colorado Springs",
    "state": "CO",
    "zip_code": "80905",
    "latitude": 38.81102569999999,
    "longitude": -104.8275009,
    "website": "https://principalsoffice.co/",
    "category": "Bar & Restaurant",
    "types": "bar, cafe, store, restaurant, food, point_of_interest, establishment"
  },
  {
    "place_id": "ChIJX7xtYp9QE4cRQSz9LWnVMms",
    "name": "The Keg Lounge",
    "street_address": "730 Manitou Avenue",
    "city": "Manitou Springs",
    "state": "CO",
    "zip_code": "80829",
    "latitude": 38.8574943,
    "longitude": -104.9155471,
    "website": "http://kegmanitou.com/",
    "category": "Bar & Restaurant",
    "types": "meal_takeaway, bar, restaurant, food, point_of_interest, establishment"
  },
  {
    "place_id": "ChIJu3ZF1qFQE4cRFT1bzqypj4M",
    "name": "Manitou Brewing Company",
    "street_address": "725 Manitou Avenue",
    "city": "Manitou Springs",
    "state": "CO",
    "zip_code": "80829",
    "latitude": 38.8571443,
    "longitude": -104.9156684,
    "website": "http://www.manitoubrewing.com/",
    "category": "Bar & Restaurant",
    "types": "bar, restaurant, food, point_of_interest, establishment"
  },
  {
    "place_id": "ChIJBUaIjrtaE4cRdOC-JdjuARM",
    "name": "Mother Muffs",
    "street_address": "2432 West Colorado Avenue",
    "city": "Colorado Springs",
    "state": "CO",
    "zip_code": "80904",
    "latitude": 38.8472832,
    "longitude": -104.8623152,
    "website": "http://www.mothermuffs.com/",
    "category": "Bar & Restaurant",
    "types": "meal_takeaway, bar, restaurant, food, point_of_interest, establishment"
  },
  {
    "place_id": "ChIJoZ12msdaE4cRQiao0Tsqboc",
    "name": "Colorado Mountain Brewery",
    "street_address": "600 South 21st Street",
    "city": "Colorado Springs",
    "state": "CO",
    "zip_code": "80904",
    "latitude": 38.84021739999999,
    "longitude": -104.8594514,
    "website": "https://cmbrew.com/?y_source=1_MjgwMTM2OTItNzE1LWxvY2F0aW9uLndlYnNpdGU%3D",
    "category": "Bar & Restaurant",
    "types": "bar, restaurant, food, point_of_interest, establishment"
  },
  {
    "place_id": "ChIJo0KumqFQE4cRl_VGJyLoKFA",
    "name": "Townhouse Sports Grill",
    "street_address": "907 Manitou Avenue",
    "city": "Manitou Springs",
    "state": "CO",
    "zip_code": "80829",
    "latitude": 38.85817499999999,
    "longitude": -104.917855,
    "website": "http://www.townhousesportsgrill.com/index.html",
    "category": "Bar & Restaurant",
    "types": "bar, restaurant, food, point_of_interest, establishment"
  },
  {
    "place_id": "ChIJI0_bFJ9EE4cRqiywNvwXvsY",
    "name": "The Public House",
    "street_address": "445 East Cheyenne Mountain Boulevard",
    "city": "Colorado Springs",
    "state": "CO",
    "zip_code": "80906",
    "latitude": 38.7884044,
    "longitude": -104.820617,
    "website": "http://thepublichouseco.com/",
    "category": "Bar & Restaurant",
    "types": "bar, restaurant, food, point_of_interest, establishment"
  },
  {
    "place_id": "ChIJ72Uc9qFEE4cRYd0fLBjNuj4",
    "name": "Hatch Cover",
    "street_address": "252 East Cheyenne Mountain Boulevard",
    "city": "Colorado Springs",
    "state": "CO",
    "zip_code": "80906",
    "latitude": 38.7899818,
    "longitude": -104.8234024,
    "website": "http://hatchcover.biz/",
    "category": "Bar & Restaurant",
    "types": "bar, restaurant, food, point_of_interest, establishment"
  },
  {
    "place_id": "ChIJOzjSJDRRE4cRf6ajSDraoM0",
    "name": "Red Mountain Bar and Grill",
    "street_address": "304 Ca\u00f1on Avenue",
    "city": "Manitou Springs",
    "state": "CO",
    "zip_code": "80829",
    "latitude": 38.8597009,
    "longitude": -104.9172944,
    "website": "https://www.thecliffhouse.com/dining/red-mountain-bar-grill",
    "category": "Bar & Restaurant",
    "types": "bar, restaurant, food, point_of_interest, establishment"
  },
  {
    "place_id": "ChIJxcdfLy5FE4cRxvDgZ59-MJE",
    "name": "Cerberus Brewing Company",
    "street_address": "702 West Colorado Avenue",
    "city": "Colorado Springs",
    "state": "CO",
    "zip_code": "80905",
    "latitude": 38.8331257,
    "longitude": -104.8374333,
    "website": "http://www.cerberusbrewingco.com/",
    "category": "Bar & Restaurant",
    "types": "restaurant, bar, food, point_of_interest, establishment"
  },
  {
    "place_id": "ChIJ-RVkd29GE4cRIY41I8US7hc",
    "name": "O'Leary's Pub",
    "street_address": "4856 Galley Road",
    "city": "Colorado Springs",
    "state": "CO",
    "zip_code": "80915",
    "latitude": 38.84754179999999,
    "longitude": -104.737503,
    "website": "http://olearyspubco.com/",
    "category": "Bar & Restaurant",
    "types": "bar, restaurant, food, point_of_interest, establishment"
  },
  {
    "place_id": "ChIJ9exTkVlHE4cRQwas_w10x1E",
    "name": "Back on the Boulevard",
    "street_address": "2855 North Murray Boulevard",
    "city": "Colorado Springs",
    "state": "CO",
    "zip_code": "80917",
    "latitude": 38.87314930000001,
    "longitude": -104.7474049,
    "website": "http://www.backontheboulevard.com/",
    "category": "Bar & Restaurant",
    "types": "bar, restaurant, food, point_of_interest, establishment"
  },
  {
    "place_id": "ChIJHX37JPFOE4cR6o7tCtUXcNo",
    "name": "Dublin House Sports Bar and Grill",
    "street_address": "1850 Dominion Way",
    "city": "Colorado Springs",
    "state": "CO",
    "zip_code": "80918",
    "latitude": 38.9242259,
    "longitude": -104.7920003,
    "website": "https://m.facebook.com/profile.php?id=100028942136947",
    "category": "Bar & Restaurant",
    "types": "bar, restaurant, food, point_of_interest, establishment"
  },
  {
    "place_id": "ChIJc4eePyBOE4cRFS5hqmXvjU8",
    "name": "Wyatt's Pub & Grill",
    "street_address": "806 Village Center Drive",
    "city": "Colorado Springs",
    "state": "CO",
    "zip_code": "80919",
    "latitude": 38.9227358,
    "longitude": -104.8440452,
    "website": "http://wyattspub.com/wyatts.html",
    "category": "Bar & Restaurant",
    "types": "bar, restaurant, food, point_of_interest, establishment"
  },
  {
    "place_id": "ChIJ42tp4t1PE4cRvXu_54VA1PU",
    "name": "Rail Yard Gaming + Gastropub",
    "street_address": "3030 North Nevada Avenue",
    "city": "Colorado Springs",
    "state": "CO",
    "zip_code": "80907",
    "latitude": 38.875978,
    "longitude": -104.8214616,
    "website": "https://railyardgamingpub.com/",
    "category": "Restaurant",
    "types": "restaurant, food, point_of_interest, establishment"
  },
  {
    "place_id": "ChIJOerL9MJOE4cRlzl1Nli0j4U",
    "name": "Overtime Sports Bar & Grill",
    "street_address": "2809 Dublin Boulevard",
    "city": "Colorado Springs",
    "state": "CO",
    "zip_code": "80918",
    "latitude": 38.924752,
    "longitude": -104.7743271,
    "website": "http://www.otsports.bar/",
    "category": "Bar & Restaurant",
    "types": "bar, restaurant, food, point_of_interest, establishment"
  },
  {
    "place_id": "ChIJERyeQr1OE4cR0X2BtHKejnI",
    "name": "Good Company Bar",
    "street_address": "7625 North Union Boulevard",
    "city": "Colorado Springs",
    "state": "CO",
    "zip_code": "80920",
    "latitude": 38.94349209999999,
    "longitude": -104.7739573,
    "website": "http://www.goodcompanybar.com/",
    "category": "Bar & Restaurant",
    "types": "bar, restaurant, food, point_of_interest, establishment"
  },
  {
    "place_id": "ChIJcxxCjstRE4cRV5UE9trlJQY",
    "name": "3.14 Pi Bar",
    "street_address": "5152 Centennial Boulevard",
    "city": "Colorado Springs",
    "state": "CO",
    "zip_code": "80919",
    "latitude": 38.904931,
    "longitude": -104.8640194,
    "website": "http://www.314pibar.com/",
    "category": "Bar & Restaurant",
    "types": "restaurant, bar, food, point_of_interest, establishment"
  },
  {
    "place_id": "ChIJT3HolihDE4cRvYlV5BFTgvI",
    "name": "Devil or Angel Bar & Grill",
    "street_address": "4130 South U.S. Highway 85 87",
    "city": "Colorado Springs",
    "state": "CO",
    "zip_code": "80911",
    "latitude": 38.772426,
    "longitude": -104.7660837,
    "website": null,
    "category": "Bar & Restaurant",
    "types": "bar, restaurant, food, point_of_interest, establishment"
  },
  {
    "place_id": "ChIJE74V2GdBE4cR6oJTyALTjHM",
    "name": "Detour Lounge",
    "street_address": "4080 Clear View Frontage Road",
    "city": "Colorado Springs",
    "state": "CO",
    "zip_code": "80911",
    "latitude": 38.77273169999999,
    "longitude": -104.739479,
    "website": "http://www.detourlounge.com/",
    "category": "Bar & Restaurant",
    "types": "night_club, bar, restaurant, food, point_of_interest, establishment"
  },
  {
    "place_id": "ChIJO20JkqZFE4cRRjNJ7jkSjPw",
    "name": "Finish Line Lounge",
    "street_address": "1812 East Monument Street",
    "city": "Colorado Springs",
    "state": "CO",
    "zip_code": "80909",
    "latitude": 38.8425812,
    "longitude": -104.7936943,
    "website": "https://m.facebook.com/Finish-Line-Lounge-664830496916373/#!/Finish-Line-Lounge-664830496916373/",
    "category": "Bar & Restaurant",
    "types": "night_club, bar, restaurant, food, point_of_interest, establishment"
  },
  {
    "place_id": "ChIJM7CJEStEE4cRgGnmTWgeGzk",
    "name": "Woody's Bar & Grill",
    "street_address": "3881 East Pikes Peak Avenue",
    "city": "Colorado Springs",
    "state": "CO",
    "zip_code": "80909",
    "latitude": 38.83149149999999,
    "longitude": -104.7557422,
    "website": "http://woodys-bar-grill-colorado-springs.keeq.io/",
    "category": "Bar & Restaurant",
    "types": "bar, restaurant, food, point_of_interest, establishment"
  },
  {
    "place_id": "ChIJc1-Bwy9HE4cRztDXDILKt6Q",
    "name": "Colorado Pizza & Sports Grill",
    "street_address": "260 Glasgow Avenue",
    "city": "Colorado Springs",
    "state": "CO",
    "zip_code": "80914",
    "latitude": 38.8235138,
    "longitude": -104.6980374,
    "website": "https://21fss.com/colorado-pizza-sports-grill/",
    "category": "Restaurant",
    "types": "restaurant, food, point_of_interest, establishment"
  },
  {
    "place_id": "ChIJYcm0jNRAE4cRWKCEG0meKeA",
    "name": "Bristol Tap Room",
    "street_address": "7770 Milton E Proby Parkway",
    "city": "Colorado Springs",
    "state": "CO",
    "zip_code": "80916",
    "latitude": 38.79761430000001,
    "longitude": -104.7009626,
    "website": null,
    "category": "Bar & Restaurant",
    "types": "bar, restaurant, food, point_of_interest, establishment"
  },
  {
    "place_id": "ChIJbScP7c5FE4cRl9NMkKdsxN8",
    "name": "Club Tilt & Grill Featuring Patty's Soul Food Kitchen",
    "street_address": "3744 Astrozon Boulevard",
    "city": "Colorado Springs",
    "state": "CO",
    "zip_code": "80910",
    "latitude": 38.7955856,
    "longitude": -104.7602081,
    "website": "http://www.clubtiltandgrill.com/",
    "category": "Bar & Restaurant",
    "types": "bar, restaurant, food, point_of_interest, establishment"
  },
  {
    "place_id": "ChIJ2xjykH5OE4cRvb8AYX-wzhg",
    "name": "Guthrie's Sports Bar & Grill",
    "street_address": "1410 Kelly Johnson Boulevard",
    "city": "Colorado Springs",
    "state": "CO",
    "zip_code": "80920",
    "latitude": 38.94564310000001,
    "longitude": -104.8029383,
    "website": "https://guthriessportsbar.com/",
    "category": "Bar & Restaurant",
    "types": "bar, restaurant, food, point_of_interest, establishment"
  },
  {
    "place_id": "ChIJI3LwDKpNE4cRYKiFlh4722M",
    "name": "Atmosphere Gastropub",
    "street_address": "1327 Interquest Parkway",
    "city": "Colorado Springs",
    "state": "CO",
    "zip_code": "80921",
    "latitude": 38.990114,
    "longitude": -104.8018905,
    "website": "https://www.atmospheregastropub.com/",
    "category": "Restaurant",
    "types": "restaurant, food, point_of_interest, establishment"
  },
  {
    "place_id": "ChIJtYme-wtLE4cRUA95BAUbhqk",
    "name": "Abby's Irish Pub",
    "street_address": "9697 Prominent Point",
    "city": "Colorado Springs",
    "state": "CO",
    "zip_code": "80924",
    "latitude": 38.9721183,
    "longitude": -104.7434059,
    "website": "https://www.abbysirishpub.com/",
    "category": "Restaurant",
    "types": "restaurant, food, point_of_interest, establishment"
  },
  {
    "place_id": "ChIJbcXv5jtME4cRGU_OBlWjSl4",
    "name": "Back East Bar & Grill",
    "street_address": "9475 Briar Village Point",
    "city": "Colorado Springs",
    "state": "CO",
    "zip_code": "80920",
    "latitude": 38.9677981,
    "longitude": -104.782301,
    "website": "https://www.backeastbarandgrill.com/",
    "category": "Bar & Restaurant",
    "types": "bar, restaurant, food, point_of_interest, establishment"
  },
  {
    "place_id": "ChIJaQAQXuVIE4cRddTJc_69e7w",
    "name": "Single Barrel Bar And Grill",
    "street_address": "5885 Stetson Hills Boulevard",
    "city": "Colorado Springs",
    "state": "CO",
    "zip_code": "80923",
    "latitude": 38.9098944,
    "longitude": -104.7186516,
    "website": "https://singlebarrelpowers.com/",
    "category": "Bar & Restaurant",
    "types": "restaurant, bar, food, point_of_interest, establishment"
  },
  {
    "place_id": "ChIJnbzVvHNPE4cRtVsec_sk8y8",
    "name": "ViewHouse",
    "street_address": "7114 Campus Drive",
    "city": "Colorado Springs",
    "state": "CO",
    "zip_code": "80920",
    "latitude": 38.9334285,
    "longitude": -104.8096652,
    "website": "https://www.viewhouse.com/",
    "category": "Bar & Restaurant",
    "types": "bar, restaurant, point_of_interest, food, establishment"
  },
  {
    "place_id": "ChIJ5wx4rTNME4cRTeFLJ_UvR6o",
    "name": "Bad Daddy's Burger Bar",
    "street_address": "1765 Briargate Parkway",
    "city": "Colorado Springs",
    "state": "CO",
    "zip_code": "80920",
    "latitude": 38.96405070000001,
    "longitude": -104.7938929,
    "website": "https://www.baddaddysburgerbar.com/locations/bad-daddys-burger-bar-8",
    "category": "Bar & Restaurant",
    "types": "bar, restaurant, food, point_of_interest, establishment"
  },
  {
    "place_id": "ChIJC1Hv1mdNE4cRqVHaFXkyscg",
    "name": "Parry's Pizzeria & Taphouse",
    "street_address": "1268 Interquest Parkway",
    "city": "Colorado Springs",
    "state": "CO",
    "zip_code": "80921",
    "latitude": 38.9914315,
    "longitude": -104.8050843,
    "website": "https://parryspizza.com/locations/colorado-springs-interquest/",
    "category": "Bar & Restaurant",
    "types": "meal_takeaway, meal_delivery, bar, restaurant, food, point_of_interest, establishment"
  },
  {
    "place_id": "ChIJGf67bwhNE4cRceCyXKeVzio",
    "name": "Colorado Mountain Brewery",
    "street_address": "1110 Interquest Parkway",
    "city": "Colorado Springs",
    "state": "CO",
    "zip_code": "80921",
    "latitude": 38.9934479,
    "longitude": -104.8117366,
    "website": "https://cmbrew.com/?y_source=1_MjgwMTU2NjYtNzE1LWxvY2F0aW9uLndlYnNpdGU%3D",
    "category": "Bar & Restaurant",
    "types": "bar, restaurant, food, point_of_interest, establishment"
  },
  {
    "place_id": "ChIJ8VnkRX1OE4cRZ5fYRYRHPeQ",
    "name": "Applebee's Grill + Bar",
    "street_address": "7625 Goddard Street",
    "city": "Colorado Springs",
    "state": "CO",
    "zip_code": "80920",
    "latitude": 38.94125100000001,
    "longitude": -104.7999107,
    "website": "https://restaurants.applebees.com/en-us/co/colorado-springs/7625-goddard-street-84047?utm_source=google&utm_medium=organic&utm_campaign=google_my_business&utm_term=84047&utm_content=website",
    "category": "Bar & Restaurant",
    "types": "restaurant, bar, food, point_of_interest, establishment"
  },
  {
    "place_id": "ChIJ1RnaCTVPE4cRqNhuRhEIpkg",
    "name": "Lazy Dog Restaurant & Bar",
    "street_address": "7605 North Academy Boulevard",
    "city": "Colorado Springs",
    "state": "CO",
    "zip_code": "80920",
    "latitude": 38.94159719999999,
    "longitude": -104.7987551,
    "website": "https://www.lazydogrestaurants.com/locations/colorado-springs-co",
    "category": "Bar & Restaurant",
    "types": "bar, restaurant, food, point_of_interest, establishment"
  },
  {
    "place_id": "ChIJ6R3GyolOE4cRsdt4hS2LMC4",
    "name": "Buffalo Wild Wings",
    "street_address": "7425 North Academy Boulevard",
    "city": "Colorado Springs",
    "state": "CO",
    "zip_code": "80920",
    "latitude": 38.93802469999999,
    "longitude": -104.7970841,
    "website": "https://www.buffalowildwings.com/locations/us/co/colorado-springs/7425-n-academy-blvd/sports-bar-91?utm_source=google%20my%20business&utm_medium=organic&utm_campaign=website%20link",
    "category": "Bar & Restaurant",
    "types": "meal_takeaway, bar, restaurant, food, point_of_interest, establishment"
  },
  {
    "place_id": "ChIJNwPQNxZOE4cRIveJ7ctBOX4",
    "name": "Cleats Bar & Grill",
    "street_address": "6624 Delmonico Drive",
    "city": "Colorado Springs",
    "state": "CO",
    "zip_code": "80919",
    "latitude": 38.927094,
    "longitude": -104.8314591,
    "website": null,
    "category": "Bar & Restaurant",
    "types": "bar, restaurant, food, point_of_interest, establishment"
  },
  {
    "place_id": "ChIJP9TB_N5JE4cRNu6sgFKBwWE",
    "name": "Barnes Bar & Grill",
    "street_address": "4829 Barnes Road",
    "city": "Colorado Springs",
    "state": "CO",
    "zip_code": "80917",
    "latitude": 38.89623259999999,
    "longitude": -104.7375183,
    "website": null,
    "category": "Restaurant",
    "types": "restaurant, food, point_of_interest, establishment"
  },
  {
    "place_id": "ChIJjfXimfFHE4cR-puy6qMa8rE",
    "name": "Buzzed Crow Bistro",
    "street_address": "5853 Palmer Park Boulevard",
    "city": "Colorado Springs",
    "state": "CO",
    "zip_code": "80915",
    "latitude": 38.8548384,
    "longitude": -104.7182231,
    "website": "http://www.buzzedcrowbistro.com/",
    "category": "Bar & Restaurant",
    "types": "restaurant, bar, point_of_interest, food, establishment"
  },
  {
    "place_id": "ChIJA_GhPJ5PE4cRsbxS7dIEOtc",
    "name": "Colorado Sports Fanatic Bar & Grill",
    "street_address": "4348 Montebello Drive",
    "city": "Colorado Springs",
    "state": "CO",
    "zip_code": "80918",
    "latitude": 38.8950541,
    "longitude": -104.7577158,
    "website": null,
    "category": "Bar & Restaurant",
    "types": "bar, restaurant, food, point_of_interest, establishment"
  },
  {
    "place_id": "ChIJbTqoriVGE4cRpOjqBwdgs9Q",
    "name": "Bubba's 33",
    "street_address": "5807 Constitution Avenue",
    "city": "Colorado Springs",
    "state": "CO",
    "zip_code": "80915",
    "latitude": 38.8710144,
    "longitude": -104.7189134,
    "website": "https://www.bubbas33.com/locations/colorado/colorado-springs?utm_source=listing&utm_medium=search",
    "category": "Bar & Restaurant",
    "types": "bar, restaurant, food, point_of_interest, establishment"
  },
  {
    "place_id": "ChIJA-04PJ1IE4cRhfaknQSq5zs",
    "name": "Rock Bottom Restaurant & Brewery",
    "street_address": "3316 Cinema Point",
    "city": "Colorado Springs",
    "state": "CO",
    "zip_code": "80922",
    "latitude": 38.88116369999999,
    "longitude": -104.7182219,
    "website": "https://www.rockbottom.com/",
    "category": "Bar & Restaurant",
    "types": "bar, restaurant, food, point_of_interest, establishment"
  },
  {
    "place_id": "ChIJ4zVi6ttFE4cRH6o1PNa7Q1w",
    "name": "Applebee's Grill + Bar",
    "street_address": "3708 East Galley",
    "city": "Colorado Springs",
    "state": "CO",
    "zip_code": "80909",
    "latitude": 38.8475476,
    "longitude": -104.7591714,
    "website": "https://restaurants.applebees.com/en-us/co/colorado-springs/3708-east-galley-84053?utm_source=google&utm_medium=organic&utm_campaign=google_my_business&utm_term=84053&utm_content=website",
    "category": "Bar & Restaurant",
    "types": "restaurant, bar, food, point_of_interest, establishment"
  },
  {
    "place_id": "ChIJyePRy4JIE4cR_e8SX3d1Wqw",
    "name": "The Wobbly Olive",
    "street_address": "3317 Cinema Point",
    "city": "Colorado Springs",
    "state": "CO",
    "zip_code": "80922",
    "latitude": 38.8811972,
    "longitude": -104.7167263,
    "website": "http://www.wobblyolive.com/",
    "category": "Bar & Restaurant",
    "types": "bar, restaurant, food, point_of_interest, establishment"
  },
  {
    "place_id": "ChIJBWo9pQ5rE4cR-KQjoRPJGPc",
    "name": "Rookies Taphouse and Eatery",
    "street_address": "8017 Fountain Mesa Road",
    "city": "Fountain",
    "state": "CO",
    "zip_code": "80817",
    "latitude": 38.7141015,
    "longitude": -104.7001787,
    "website": "https://www.eatatrookies.com/",
    "category": "Bar & Restaurant",
    "types": "bar, restaurant, food, point_of_interest, establishment"
  },
  {
    "place_id": "ChIJE1920fdqE4cRDLCIVNmDlyc",
    "name": "C'MON INN",
    "street_address": "711 Dale Street",
    "city": "Fountain",
    "state": "CO",
    "zip_code": "80817",
    "latitude": 38.6886775,
    "longitude": -104.7053512,
    "website": "https://www.facebook.com/CMONN-INN-369428746866/",
    "category": "Bar & Restaurant",
    "types": "night_club, bar, restaurant, food, point_of_interest, establishment"
  },
  {
    "place_id": "ChIJJ9WjCoJqE4cRinQlyiyfgLM",
    "name": "Szechuan Panda",
    "street_address": "6928 Mesa Ridge Parkway",
    "city": "Fountain",
    "state": "CO",
    "zip_code": "80817",
    "latitude": 38.7193569,
    "longitude": -104.6989765,
    "website": "http://www.szechuanpandaco.com/",
    "category": "Restaurant",
    "types": "restaurant, meal_delivery, food, point_of_interest, establishment"
  },
  {
    "place_id": "ChIJCXgTWH5EE4cRp-gth1X_mjU",
    "name": "Buffalo Wild Wings",
    "street_address": "2905 Geyser Drive",
    "city": "Colorado Springs",
    "state": "CO",
    "zip_code": "80906",
    "latitude": 38.7908024,
    "longitude": -104.7963148,
    "website": "https://www.buffalowildwings.com/locations/us/co/colorado-springs/2905-geyser-dr/sports-bar-247?utm_source=google%20my%20business&utm_medium=organic&utm_campaign=website%20link",
    "category": "Bar & Restaurant",
    "types": "meal_takeaway, bar, restaurant, food, point_of_interest, establishment"
  },
  {
    "place_id": "ChIJP6R0ojetbIcR3OMSpqqYv6I",
    "name": "Colorado Pinball Pub",
    "street_address": "303 East Highway 105",
    "city": "Monument",
    "state": "CO",
    "zip_code": "80132",
    "latitude": 39.0937326,
    "longitude": -104.8648941,
    "website": "https://www.coloradopinballpub.com/",
    "category": "Bar & Restaurant",
    "types": "bar, restaurant, food, point_of_interest, establishment"
  },
  {
    "place_id": "ChIJwwU-YvGtbIcRVzT-9WC4uX8",
    "name": "Back East Bar & Grill",
    "street_address": "1455 Cipriani Loop",
    "city": "Monument",
    "state": "CO",
    "zip_code": "80132",
    "latitude": 39.0917009,
    "longitude": -104.8527378,
    "website": "https://www.backeastbarandgrill.com/",
    "category": "Bar & Restaurant",
    "types": "bar, restaurant, food, point_of_interest, establishment"
  },
  {
    "place_id": "ChIJu46vfequbIcRP0R3PEWTTnc",
    "name": "O\u2019Malley\u2019s",
    "street_address": "104 Colorado 105",
    "city": "Palmer Lake",
    "state": "CO",
    "zip_code": "80133",
    "latitude": 39.1223088,
    "longitude": -104.9151851,
    "website": "http://omalleyswings.com/",
    "category": "Restaurant",
    "types": "restaurant, food, point_of_interest, establishment"
  },
  {
    "place_id": "ChIJc1qBFgatbIcR_cDClz5Bihw",
    "name": "Palmer Lake Pub",
    "street_address": "876 Colorado 105",
    "city": "Palmer Lake",
    "state": "CO",
    "zip_code": "80133",
    "latitude": 39.09832939999999,
    "longitude": -104.8768899,
    "website": "http://www.palmerlakepub.net/",
    "category": "Bar & Restaurant",
    "types": "bar, restaurant, point_of_interest, food, establishment"
  },
  {
    "place_id": "ChIJ9Rqf4bOvbIcRc_P_gt8KF-w",
    "name": "105 Social House",
    "street_address": "11 Primrose Street",
    "city": "Palmer Lake",
    "state": "CO",
    "zip_code": "80133",
    "latitude": 39.1232026,
    "longitude": -104.9143837,
    "website": "https://105socialhouse.com/",
    "category": "Bar & Restaurant",
    "types": "bar, restaurant, food, point_of_interest, establishment"
  },
  {
    "place_id": "ChIJBX8CoMOtbIcRMZRKcfCfmcw",
    "name": "The Bistro on 2nd",
    "street_address": "65 2nd Street",
    "city": "Monument",
    "state": "CO",
    "zip_code": "80132",
    "latitude": 39.0917334,
    "longitude": -104.8731968,
    "website": "https://www.thebistro2nd.com/",
    "category": "Restaurant",
    "types": "restaurant, food, point_of_interest, establishment"
  },
  {
    "place_id": "ChIJa8foxZytbIcRfme7NEPr3Bc",
    "name": "Cloud Wine",
    "street_address": "213 Washington Street",
    "city": "Monument",
    "state": "CO",
    "zip_code": "80132",
    "latitude": 39.09186950000001,
    "longitude": -104.8728014,
    "website": "https://thebistrocloudwine.com/",
    "category": "Bar & Restaurant",
    "types": "restaurant, bar, food, point_of_interest, establishment"
  },
  {
    "place_id": "ChIJKXezpO-tbIcRS-iX5foCXYk",
    "name": "Pikes Peak Brewing Company",
    "street_address": "1756 Lake Woodmoor Drive",
    "city": "Monument",
    "state": "CO",
    "zip_code": "80132",
    "latitude": 39.095396,
    "longitude": -104.8601964,
    "website": "http://www.pikespeakbrewing.com/",
    "category": "Bar & Restaurant",
    "types": "bar, restaurant, food, point_of_interest, establishment"
  }
]