[
  {
    "place_id": "ChIJHXE3BDWPOIgR4iK8Z54zB3g",
    "name": "The Walrus",
    "street_address": "143 East Main Street",
    "city": "Columbus",
    "state": "OH",
    "zip_code": "43215",
    "latitude": 39.95636089999999,
    "longitude": -82.99544759999999,
    "website": "http://www.thewalruscolumbus.com/",
    "category": "Bar & Restaurant",
    "types": "bar, restaurant, food, point_of_interest, establishment"
  },
  {
    "place_id": "ChIJJcJJWDCPOIgRbgMAP_V_Y6c",
    "name": "The Keep",
    "street_address": "50 West Broad Street",
    "city": "Columbus",
    "state": "OH",
    "zip_code": "43215",
    "latitude": 39.96257019999999,
    "longitude": -83.0023235,
    "website": "http://www.thekeepcolumbus.com/",
    "category": "Restaurant",
    "types": "restaurant, food, point_of_interest, establishment"
  },
  {
    "place_id": "ChIJKwAD-riOOIgRca8ZNY_mJkk",
    "name": "Ethyl & Tank",
    "street_address": "19 East 13th Avenue",
    "city": "Columbus",
    "state": "OH",
    "zip_code": "43201",
    "latitude": 39.9976666,
    "longitude": -83.00695910000002,
    "website": "http://www.ethylandtank.com/",
    "category": "Bar & Restaurant",
    "types": "bar, restaurant, food, point_of_interest, establishment"
  },
  {
    "place_id": "ChIJjwIdAbSOOIgRJrWV2TNIOQE",
    "name": "Fourth Street Taproom & Kitchen",
    "street_address": "1810 North 4th Street",
    "city": "Columbus",
    "state": "OH",
    "zip_code": "43201",
    "latitude": 40.0003447,
    "longitude": -82.9983883,
    "website": "http://www.fourthstreetcolumbus.com/",
    "category": "Bar & Restaurant",
    "types": "bar, restaurant, food, point_of_interest, establishment"
  },
  {
    "place_id": "ChIJ4x6RVu-IOIgRItJysTd_H2k",
    "name": "The Olde Towne Tavern",
    "street_address": "889 Oak Street",
    "city": "Columbus",
    "state": "OH",
    "zip_code": "43205",
    "latitude": 39.9628502,
    "longitude": -82.9765182,
    "website": "http://www.theoldetownetavern.com/",
    "category": "Bar & Restaurant",
    "types": "bar, restaurant, food, point_of_interest, establishment"
  },
  {
    "place_id": "ChIJuW9SgZeOOIgRoHaThZ-bzhI",
    "name": "Varsity Club Restaurant & Bar",
    "street_address": "278 West Lane Avenue",
    "city": "Columbus",
    "state": "OH",
    "zip_code": "43201",
    "latitude": 40.0065186,
    "longitude": -83.01697329999999,
    "website": "http://theoriginalvarsityclub.com/",
    "category": "Bar & Restaurant",
    "types": "restaurant, bar, food, point_of_interest, establishment"
  },
  {
    "place_id": "ChIJUfSXbVKPOIgRVVsRNY2ZW88",
    "name": "Double Take Bar & Grill",
    "street_address": "912 South High Street",
    "city": "Columbus",
    "state": "OH",
    "zip_code": "43206",
    "latitude": 39.9435856,
    "longitude": -82.9966693,
    "website": "https://doubletakebg.com/",
    "category": "Bar & Restaurant",
    "types": "restaurant, bar, point_of_interest, food, establishment"
  },
  {
    "place_id": "ChIJV1GKfNeOOIgR4-ZZbcipC8g",
    "name": "Short North Pint House",
    "street_address": "780 North High Street",
    "city": "Columbus",
    "state": "OH",
    "zip_code": "43215",
    "latitude": 39.9783523,
    "longitude": -83.0035158,
    "website": "https://shortnorthpinthouse.com/",
    "category": "Bar & Restaurant",
    "types": "bar, restaurant, food, point_of_interest, establishment"
  },
  {
    "place_id": "ChIJTZx0RsWIOIgROPERsGCPPmU",
    "name": "The Olde Oak",
    "street_address": "62 Parsons Avenue",
    "city": "Columbus",
    "state": "OH",
    "zip_code": "43215",
    "latitude": 39.9630114,
    "longitude": -82.9815412,
    "website": null,
    "category": "Bar & Restaurant",
    "types": "bar, restaurant, food, point_of_interest, establishment"
  },
  {
    "place_id": "ChIJ05bse2OFOIgR7WNK1xa9iAk",
    "name": "Sports & Spirits",
    "street_address": "2042 Eakin Road",
    "city": "Columbus",
    "state": "OH",
    "zip_code": "43223",
    "latitude": 39.93254769999999,
    "longitude": -83.04920770000001,
    "website": "https://www.zmenu.com/sports-and-spirits-columbus-online-menu/",
    "category": "Bar & Restaurant",
    "types": "bar, restaurant, food, point_of_interest, establishment"
  },
  {
    "place_id": "ChIJe9vFrqSPOIgRmtussK5guec",
    "name": "Parlay Sporting Club + Kitchen",
    "street_address": "570 North High Street",
    "city": "Columbus",
    "state": "OH",
    "zip_code": "43215",
    "latitude": 39.97403910000001,
    "longitude": -83.0025368,
    "website": "https://parlaycolumbus.com/",
    "category": "Bar & Restaurant",
    "types": "bar, restaurant, food, point_of_interest, establishment"
  },
  {
    "place_id": "ChIJrU1W8LGIOIgReb1Y3L8r2oc",
    "name": "Hey Hey Bar & Grill",
    "street_address": "361 East Whittier Street",
    "city": "Columbus",
    "state": "OH",
    "zip_code": "43206",
    "latitude": 39.9441707,
    "longitude": -82.9872534,
    "website": "https://heyheybaroh.com/",
    "category": "Bar & Restaurant",
    "types": "bar, restaurant, food, point_of_interest, establishment"
  },
  {
    "place_id": "ChIJYWgVslqOOIgRxe7K20qKtv4",
    "name": "Press Pub On 5th - Grandview",
    "street_address": "1505 West 5th Avenue",
    "city": "Columbus",
    "state": "OH",
    "zip_code": "43212",
    "latitude": 39.988787,
    "longitude": -83.04660179999999,
    "website": "https://www.presscolumbus.com/",
    "category": "Bar & Restaurant",
    "types": "bar, restaurant, food, point_of_interest, establishment"
  },
  {
    "place_id": "ChIJydzggdaOOIgRXbFr3zyTFL4",
    "name": "City Tavern",
    "street_address": "697 North 4th Street",
    "city": "Columbus",
    "state": "OH",
    "zip_code": "43215",
    "latitude": 39.9772818,
    "longitude": -82.9982619,
    "website": "http://www.citytaverncolumbus.com/",
    "category": "Bar & Restaurant",
    "types": "bar, restaurant, food, point_of_interest, establishment"
  },
  {
    "place_id": "ChIJkeiQrPqOOIgRy7wbM6o9jMQ",
    "name": "Cap City Fine Diner and Bar",
    "street_address": "1299 Olentangy River Road",
    "city": "Columbus",
    "state": "OH",
    "zip_code": "43212",
    "latitude": 39.986456,
    "longitude": -83.0249977,
    "website": "https://capcityfinediner.com/locations-menus/grandview/",
    "category": "Bar & Restaurant",
    "types": "bar, restaurant, food, point_of_interest, establishment"
  },
  {
    "place_id": "ChIJdy9EOFKPOIgRK3hTzYtKZV0",
    "name": "Gresso's",
    "street_address": "961 South High Street",
    "city": "Columbus",
    "state": "OH",
    "zip_code": "43206",
    "latitude": 39.942398,
    "longitude": -82.99715599999999,
    "website": "http://www.gressosbar.com/",
    "category": "Bar & Restaurant",
    "types": "bar, restaurant, food, point_of_interest, establishment"
  },
  {
    "place_id": "ChIJI5uU4auIOIgRN4eRLCj-DQI",
    "name": "The Red Brick Tap & Grill",
    "street_address": "292 East Gates Street",
    "city": "Columbus",
    "state": "OH",
    "zip_code": "43206",
    "latitude": 39.9375686,
    "longitude": -82.9877777,
    "website": "http://www.theredbricktapandgrill.net/",
    "category": "Bar & Restaurant",
    "types": "meal_takeaway, bar, restaurant, food, point_of_interest, establishment"
  },
  {
    "place_id": "ChIJs9zlkayIOIgR-vFEVL1QM6s",
    "name": "The Thurman Cafe",
    "street_address": "183 Thurman Avenue",
    "city": "Columbus",
    "state": "OH",
    "zip_code": "43206",
    "latitude": 39.939464,
    "longitude": -82.991086,
    "website": "https://thethurmancafe.com/",
    "category": "Bar & Restaurant",
    "types": "bar, restaurant, food, point_of_interest, establishment"
  },
  {
    "place_id": "ChIJq8bs_dmOOIgR7VNxHho1QWk",
    "name": "Arch City Tavern",
    "street_address": "862 North High Street",
    "city": "Columbus",
    "state": "OH",
    "zip_code": "43215",
    "latitude": 39.98001979999999,
    "longitude": -83.0038172,
    "website": "http://www.archcitytavern.com/",
    "category": "Bar & Restaurant",
    "types": "bar, restaurant, food, point_of_interest, establishment"
  },
  {
    "place_id": "ChIJ___rpT-POIgRhHMB5s7bav8",
    "name": "BrewDog Franklinton",
    "street_address": "463 West Town Street",
    "city": "Columbus",
    "state": "OH",
    "zip_code": "43215",
    "latitude": 39.95720230000001,
    "longitude": -83.0123703,
    "website": "https://www.brewdog.com/usa/brewdog-franklinton",
    "category": "Bar & Restaurant",
    "types": "bar, restaurant, food, point_of_interest, establishment"
  },
  {
    "place_id": "ChIJf45nSTaPOIgRDic2RhfhrvQ",
    "name": "Understory",
    "street_address": "2571 Neil Avenue",
    "city": "Columbus",
    "state": "OH",
    "zip_code": "43202",
    "latitude": 40.0144258,
    "longitude": -83.0141735,
    "website": "http://www.understorycbus.com/",
    "category": "Bar & Restaurant",
    "types": "restaurant, bar, food, point_of_interest, establishment"
  },
  {
    "place_id": "ChIJgxsrDkaOOIgRo6I_AFVsnUg",
    "name": "Red Door Tavern",
    "street_address": "1736 West 5th Avenue",
    "city": "Columbus",
    "state": "OH",
    "zip_code": "43212",
    "latitude": 39.989325,
    "longitude": -83.0529827,
    "website": "http://www.reddoortavern614.com/",
    "category": "Bar & Restaurant",
    "types": "bar, restaurant, food, point_of_interest, establishment"
  },
  {
    "place_id": "ChIJyxgPDgCNOIgR3oIIoQFgDz8",
    "name": "Stone Bar and Kitchen",
    "street_address": "1045 Bethel Road",
    "city": "Columbus",
    "state": "OH",
    "zip_code": "43220",
    "latitude": 40.0625915,
    "longitude": -83.0474857,
    "website": "https://stonebarandkitchen.com/",
    "category": "Bar & Restaurant",
    "types": "restaurant, bar, food, point_of_interest, establishment"
  },
  {
    "place_id": "ChIJEYm2JaWPOIgRPlZjn43AyCk",
    "name": "The O on Lane",
    "street_address": "352 West Lane Avenue",
    "city": "Columbus",
    "state": "OH",
    "zip_code": "43201",
    "latitude": 40.00679290000001,
    "longitude": -83.0188285,
    "website": "http://www.theoonlane.com/",
    "category": "Bar & Restaurant",
    "types": "restaurant, bar, food, point_of_interest, establishment"
  },
  {
    "place_id": "ChIJ0by99ZCNOIgRKuwhLcCtiXE",
    "name": "Brew-Stirs Beechwold Tavern",
    "street_address": "4955 Arbor Village Drive",
    "city": "Columbus",
    "state": "OH",
    "zip_code": "43214",
    "latitude": 40.0631814,
    "longitude": -83.0178857,
    "website": null,
    "category": "Bar & Restaurant",
    "types": "bar, restaurant, food, point_of_interest, establishment"
  },
  {
    "place_id": "ChIJmxD-N76NOIgRcUot-AWr0lc",
    "name": "Kelley's Pub & Patio",
    "street_address": "1940 West Henderson Road",
    "city": "Columbus",
    "state": "OH",
    "zip_code": "43220",
    "latitude": 40.0564476,
    "longitude": -83.0710924,
    "website": null,
    "category": "Bar & Restaurant",
    "types": "bar, restaurant, food, point_of_interest, establishment"
  },
  {
    "place_id": "ChIJG04CpW2OOIgRF87k22URTsU",
    "name": "Rusty Bucket Restaurant and Tavern",
    "street_address": "1635 West Lane Avenue",
    "city": "Upper Arlington",
    "state": "OH",
    "zip_code": "43221",
    "latitude": 40.0068326,
    "longitude": -83.0543033,
    "website": "https://www.myrustybucket.com/upper-arlington",
    "category": "Bar & Restaurant",
    "types": "bar, restaurant, food, point_of_interest, establishment"
  },
  {
    "place_id": "ChIJkbTbpuGPOIgRTPoI5AL_dvc",
    "name": "Brassica in Upper Arlington",
    "street_address": "1442 West Lane Avenue",
    "city": "Upper Arlington",
    "state": "OH",
    "zip_code": "43221",
    "latitude": 40.00745709999999,
    "longitude": -83.0486821,
    "website": "http://brassicas.com/",
    "category": "Restaurant",
    "types": "restaurant, food, point_of_interest, establishment"
  },
  {
    "place_id": "ChIJeU7AaeqMOIgRgbdp4PJgvGI",
    "name": "Over The Counter",
    "street_address": "5596 North High Street",
    "city": "Worthington",
    "state": "OH",
    "zip_code": "43085",
    "latitude": 40.07698,
    "longitude": -83.018209,
    "website": "http://overthecounterofworthington.com/",
    "category": "Restaurant",
    "types": "restaurant, food, point_of_interest, establishment"
  },
  {
    "place_id": "ChIJMdn9Uw-OOIgR1ZPg8ZRAD54",
    "name": "The Old Bag of Nails Pub - Upper Arlington",
    "street_address": "3220 Tremont Road",
    "city": "Upper Arlington",
    "state": "OH",
    "zip_code": "43221",
    "latitude": 40.0225089,
    "longitude": -83.05959709999999,
    "website": "http://www.oldbagofnails.com/",
    "category": "Bar & Restaurant",
    "types": "restaurant, bar, food, point_of_interest, establishment"
  },
  {
    "place_id": "ChIJ2VjxfkOMOIgRRJRgb0gPVLo",
    "name": "Rusty Bucket Restaurant and Tavern",
    "street_address": "4109 North High Street",
    "city": "Columbus",
    "state": "OH",
    "zip_code": "43214",
    "latitude": 40.04537,
    "longitude": -83.0199622,
    "website": "https://myrustybucket.com/clintonville",
    "category": "Bar & Restaurant",
    "types": "bar, restaurant, food, point_of_interest, establishment"
  },
  {
    "place_id": "ChIJMwaf2G2OOIgR-ijeoH7V-qY",
    "name": "Hudson 29 Kitchen + Drink",
    "street_address": "1600 West Lane Avenue",
    "city": "Upper Arlington",
    "state": "OH",
    "zip_code": "43221",
    "latitude": 40.0074803,
    "longitude": -83.0529816,
    "website": "https://hudson29.com/Locations-Menus/Upper-Arlington/",
    "category": "Bar & Restaurant",
    "types": "bar, restaurant, food, point_of_interest, establishment"
  },
  {
    "place_id": "ChIJ7_55OcaMOIgRd0xBrJzNBrc",
    "name": "The Old Bag of Nails Pub - Old Worthington",
    "street_address": "663 High Street",
    "city": "Worthington",
    "state": "OH",
    "zip_code": "43085",
    "latitude": 40.08741139999999,
    "longitude": -83.0183649,
    "website": "http://www.oldbagofnails.com/",
    "category": "Bar & Restaurant",
    "types": "restaurant, bar, food, point_of_interest, establishment"
  },
  {
    "place_id": "ChIJc0uf6gGNOIgRCjdiaF4JilY",
    "name": "Gallos Tap Room Bethel Rd.",
    "street_address": "5019 Olentangy River Road",
    "city": "Columbus",
    "state": "OH",
    "zip_code": "43214",
    "latitude": 40.0611953,
    "longitude": -83.03978529999999,
    "website": "http://gallostaproom.com/",
    "category": "Bar & Restaurant",
    "types": "bar, restaurant, food, point_of_interest, establishment"
  },
  {
    "place_id": "ChIJC4O--vOMOIgRDr45K4mzeqQ",
    "name": "Eldorado's Bar Food & Spirits",
    "street_address": "4968 North High Street",
    "city": "Columbus",
    "state": "OH",
    "zip_code": "43214",
    "latitude": 40.0634998,
    "longitude": -83.0189367,
    "website": "https://eldoradosbar.com/",
    "category": "Bar & Restaurant",
    "types": "bar, restaurant, food, point_of_interest, establishment"
  },
  {
    "place_id": "ChIJVbQgkCOOOIgRGAqkGyOP9Rg",
    "name": "Pointe Tavern",
    "street_address": "1991 Riverside Drive",
    "city": "Upper Arlington",
    "state": "OH",
    "zip_code": "43221",
    "latitude": 39.9951808,
    "longitude": -83.07221969999999,
    "website": null,
    "category": "Bar & Restaurant",
    "types": "bar, restaurant, food, point_of_interest, establishment"
  },
  {
    "place_id": "ChIJTaAb1sSROIgRv3j2yyXyNFE",
    "name": "Johnnie's Tavern",
    "street_address": "3503 Trabue Road",
    "city": "Columbus",
    "state": "OH",
    "zip_code": "43204",
    "latitude": 39.9932439,
    "longitude": -83.09020780000002,
    "website": "https://johnniestavern614.com/",
    "category": "Bar & Restaurant",
    "types": "bar, restaurant, food, point_of_interest, establishment"
  },
  {
    "place_id": "ChIJgX4koiWPOIgRv9JQyHHfJSw",
    "name": "R Bar Arena",
    "street_address": "415 North Front Street",
    "city": "Columbus",
    "state": "OH",
    "zip_code": "43215",
    "latitude": 39.97066,
    "longitude": -83.004553,
    "website": "http://www.rbararena.com/",
    "category": "Bar & Restaurant",
    "types": "bar, restaurant, point_of_interest, food, establishment"
  },
  {
    "place_id": "ChIJe1k7mNKIOIgRx_wXwFEbaz8",
    "name": "Matt and Tony's Kitchen x Tavern",
    "street_address": "340 East Gay Street",
    "city": "Columbus",
    "state": "OH",
    "zip_code": "43215",
    "latitude": 39.96491619999999,
    "longitude": -82.9918592,
    "website": "http://www.mattandtonyskitchenandtavern.com/",
    "category": "Bar & Restaurant",
    "types": "bar, restaurant, food, point_of_interest, establishment"
  },
  {
    "place_id": "ChIJPyxRcjGPOIgRxoC7N5qEFQY",
    "name": "Little West Tavern",
    "street_address": "77 Belle Street",
    "city": "Columbus",
    "state": "OH",
    "zip_code": "43215",
    "latitude": 39.9594682,
    "longitude": -83.009104,
    "website": "https://thejuntohotel.com/restaurants-bars/little-west-tavern?utm_source=google-gbp&utm_medium=organic&utm_campaign=gbp",
    "category": "Bar & Restaurant",
    "types": "restaurant, bar, food, point_of_interest, establishment"
  },
  {
    "place_id": "ChIJO5clh9eOOIgR4XB1bfcD6sg",
    "name": "Press Grill",
    "street_address": "741 North High Street",
    "city": "Columbus",
    "state": "OH",
    "zip_code": "43215",
    "latitude": 39.977535,
    "longitude": -83.00384609999999,
    "website": "http://www.presscolumbus.com/",
    "category": "Restaurant",
    "types": "restaurant, food, point_of_interest, establishment"
  },
  {
    "place_id": "ChIJYcvvywOPOIgROL_EDbtdy74",
    "name": "HydeOut Kitchen & Bar",
    "street_address": "201 South High Street",
    "city": "Columbus",
    "state": "OH",
    "zip_code": "43215",
    "latitude": 39.9579125,
    "longitude": -83.0000846,
    "website": "https://www.toasttab.com/hydeout-kitchen-bar-201-s-high-street",
    "category": "Bar & Restaurant",
    "types": "bar, restaurant, point_of_interest, food, establishment"
  },
  {
    "place_id": "ChIJGYC-KS-POIgR8C8ckxHptPc",
    "name": "Big Bar On 2",
    "street_address": "350 North High Street",
    "city": "Columbus",
    "state": "OH",
    "zip_code": "43215",
    "latitude": 39.96957279999999,
    "longitude": -83.0012352,
    "website": "http://columbusregency.hyatt.com/en/hotel/dining/ColumbusOhioRestaurant-BigBarOn2.html",
    "category": "Bar & Restaurant",
    "types": "bar, restaurant, food, point_of_interest, establishment"
  },
  {
    "place_id": "ChIJJ1NpBjaPOIgRx82fvewaSys",
    "name": "Dempsey's Food & Spirits",
    "street_address": "346 South High Street",
    "city": "Columbus",
    "state": "OH",
    "zip_code": "43215",
    "latitude": 39.9550422,
    "longitude": -82.9989121,
    "website": "http://www.dempseysdowntown.com/",
    "category": "Bar & Restaurant",
    "types": "bar, restaurant, food, point_of_interest, establishment"
  },
  {
    "place_id": "ChIJI9UPtVeOOIgRDdb4-Ohhia4",
    "name": "Woodlands Tavern",
    "street_address": "1200 West 3rd Avenue",
    "city": "Columbus",
    "state": "OH",
    "zip_code": "43212",
    "latitude": 39.9850533,
    "longitude": -83.0376471,
    "website": "http://woodlandstavern.com/",
    "category": "Bar & Restaurant",
    "types": "bar, restaurant, food, point_of_interest, establishment"
  },
  {
    "place_id": "ChIJRwHh9Z2POIgRkl_4al4kpNk",
    "name": "Spanky's Tavern",
    "street_address": "1386 Sullivant Avenue",
    "city": "Columbus",
    "state": "OH",
    "zip_code": "43223",
    "latitude": 39.95064929999999,
    "longitude": -83.0361525,
    "website": null,
    "category": "Bar & Restaurant",
    "types": "bar, restaurant, food, point_of_interest, establishment"
  },
  {
    "place_id": "ChIJqQMa642POIgReJ1o6Ae0hsQ",
    "name": "Local Cantina Upper Arlington",
    "street_address": "1670 West Lane Avenue",
    "city": "Columbus",
    "state": "OH",
    "zip_code": "43221",
    "latitude": 40.00751979999999,
    "longitude": -83.05491459999999,
    "website": "http://www.localcantina.com/",
    "category": "Bar & Restaurant",
    "types": "bar, restaurant, food, point_of_interest, establishment"
  },
  {
    "place_id": "ChIJMaFQUlCOOIgRIcegounnY_s",
    "name": "14 Twenty Bar & Pizza",
    "street_address": "1420 Presidential Drive",
    "city": "Columbus",
    "state": "OH",
    "zip_code": "43212",
    "latitude": 39.997332,
    "longitude": -83.04478499999999,
    "website": "https://www.14twenty.com/",
    "category": "Bar & Restaurant",
    "types": "bar, meal_delivery, meal_takeaway, restaurant, food, point_of_interest, establishment"
  },
  {
    "place_id": "ChIJK9T1NRiIOIgRE0pM3FPAxy8",
    "name": "T T Murph's",
    "street_address": "2996 East Livingston Avenue",
    "city": "Columbus",
    "state": "OH",
    "zip_code": "43209",
    "latitude": 39.9471683,
    "longitude": -82.9165758,
    "website": null,
    "category": "Bar & Restaurant",
    "types": "bar, restaurant, food, point_of_interest, establishment"
  },
  {
    "place_id": "ChIJNUaxdFuIOIgRHmu8RRObXOA",
    "name": "Rusty Bucket Restaurant and Tavern",
    "street_address": "2158 East Main Street",
    "city": "Columbus",
    "state": "OH",
    "zip_code": "43209",
    "latitude": 39.9574574,
    "longitude": -82.94166249999999,
    "website": "https://www.myrustybucket.com/bexley",
    "category": "Bar & Restaurant",
    "types": "bar, restaurant, food, point_of_interest, establishment"
  },
  {
    "place_id": "ChIJfcz0ilWIOIgR1M0zDhVLODs",
    "name": "The Old Bag of Nails Pub - Bexley",
    "street_address": "18 North Nelson Road",
    "city": "Columbus",
    "state": "OH",
    "zip_code": "43219",
    "latitude": 39.9684528,
    "longitude": -82.9502,
    "website": "http://www.oldbagofnails.com/",
    "category": "Bar & Restaurant",
    "types": "restaurant, bar, food, point_of_interest, establishment"
  },
  {
    "place_id": "ChIJx_jzCriFOIgRYIJzXcmI0yQ",
    "name": "Eight and Sand Tavern & Refuge",
    "street_address": "76 East Innis Avenue",
    "city": "Columbus",
    "state": "OH",
    "zip_code": "43207",
    "latitude": 39.92646099999999,
    "longitude": -82.9933853,
    "website": "https://www.eightandsandtavern.com/",
    "category": "Bar & Restaurant",
    "types": "bar, restaurant, food, point_of_interest, establishment"
  },
  {
    "place_id": "ChIJpR6warmJOIgRanp5t0Ff7ug",
    "name": "Lisska Bar & Grill",
    "street_address": "2665 East 5th Avenue",
    "city": "Columbus",
    "state": "OH",
    "zip_code": "43219",
    "latitude": 39.9850273,
    "longitude": -82.9326553,
    "website": null,
    "category": "Bar & Restaurant",
    "types": "bar, restaurant, point_of_interest, food, establishment"
  },
  {
    "place_id": "ChIJBx-jz-iPOIgR24XZlkvieKE",
    "name": "The Woodbury",
    "street_address": "215 East Town Street",
    "city": "Columbus",
    "state": "OH",
    "zip_code": "43215",
    "latitude": 39.9592543,
    "longitude": -82.9940448,
    "website": "http://www.woodburycbus.com/",
    "category": "Restaurant",
    "types": "restaurant, food, point_of_interest, establishment"
  },
  {
    "place_id": "ChIJYUjzmAOIOIgRVeuDQk1hbYI",
    "name": "Retro Lounge Columbus",
    "street_address": "1714 Zettler Road",
    "city": "Columbus",
    "state": "OH",
    "zip_code": "43227",
    "latitude": 39.9359019,
    "longitude": -82.9112801,
    "website": "https://docs.google.com/forms/d/e/1FAIpQLSexN50x-_O_q-FiF4IjmLj-iWFWE-R8N8u8rAMX2ee9sWwdcg/viewform",
    "category": "Bar & Restaurant",
    "types": "night_club, bar, restaurant, food, point_of_interest, establishment"
  },
  {
    "place_id": "ChIJv_ypFzKPOIgRl7BFVAo1M2Y",
    "name": "Latitude 41",
    "street_address": "50 North 3rd Street",
    "city": "Columbus",
    "state": "OH",
    "zip_code": "43215",
    "latitude": 39.9636589,
    "longitude": -82.9976468,
    "website": "https://www.marriott.com/en-us/hotels/cmhbr-renaissance-columbus-downtown-hotel/dining/?scid=feed67b0-9a2f-4de1-8df6-114544116108",
    "category": "Restaurant",
    "types": "restaurant, food, point_of_interest, establishment"
  },
  {
    "place_id": "ChIJN94drOGPOIgRbheKdyhmklQ",
    "name": "Trolley Pub Columbus",
    "street_address": "152 North Young Street",
    "city": "Columbus",
    "state": "OH",
    "zip_code": "43219",
    "latitude": 39.9660813,
    "longitude": -82.99612119999999,
    "website": "http://trolleypub.com/columbus",
    "category": "Bar & Restaurant",
    "types": "tourist_attraction, bar, travel_agency, restaurant, food, point_of_interest, establishment"
  },
  {
    "place_id": "ChIJuxcvHoXyOIgRfgMsphWR9Gw",
    "name": "The Filling Station Bar & Grill",
    "street_address": "8765 Smoky Row Road",
    "city": "Powell",
    "state": "OH",
    "zip_code": "43065",
    "latitude": 40.1355127,
    "longitude": -83.07192789999999,
    "website": "http://www.yourfillingstation.com/",
    "category": "Bar & Restaurant",
    "types": "bar, restaurant, food, point_of_interest, establishment"
  },
  {
    "place_id": "ChIJZ7bN7nmQOIgRHDi8ZhlIlH8",
    "name": "Shakers Public House",
    "street_address": "480 East Wilson Bridge Road",
    "city": "Worthington",
    "state": "OH",
    "zip_code": "43085",
    "latitude": 40.1095313,
    "longitude": -82.9993176,
    "website": "http://www.shakerspublichouse.com/",
    "category": "Bar & Restaurant",
    "types": "restaurant, bar, food, point_of_interest, establishment"
  },
  {
    "place_id": "ChIJT7GMYXPzOIgRvjJo7XgtrRE",
    "name": "Brew-Stirs on 23",
    "street_address": "128 Dillmont Drive",
    "city": "Columbus",
    "state": "OH",
    "zip_code": "43235",
    "latitude": 40.13414909999999,
    "longitude": -83.0131269,
    "website": null,
    "category": "Bar & Restaurant",
    "types": "bar, night_club, restaurant, food, point_of_interest, establishment"
  },
  {
    "place_id": "ChIJFfI5SuyMOIgRU4m591WBuNE",
    "name": "Paddy Mac's Pub",
    "street_address": "5316 North High Street",
    "city": "Columbus",
    "state": "OH",
    "zip_code": "43214",
    "latitude": 40.0707227,
    "longitude": -83.01855839999999,
    "website": null,
    "category": "Bar & Restaurant",
    "types": "bar, restaurant, food, point_of_interest, establishment"
  },
  {
    "place_id": "ChIJce3zG4D0OIgR2q5KEvuYV8w",
    "name": "Knockout Pub & Grill",
    "street_address": "8453 Sancus Boulevard",
    "city": "Columbus",
    "state": "OH",
    "zip_code": "43240",
    "latitude": 40.1367476,
    "longitude": -82.99309769999999,
    "website": null,
    "category": "Bar & Restaurant",
    "types": "bar, restaurant, food, point_of_interest, establishment"
  },
  {
    "place_id": "ChIJz4CFVDWNOIgRBI_kYlsRmzM",
    "name": "Double Eagle Spirits & Sports",
    "street_address": "2245 West Dublin-Granville Road",
    "city": "Worthington",
    "state": "OH",
    "zip_code": "43085",
    "latitude": 40.08971739999999,
    "longitude": -83.0506759,
    "website": null,
    "category": "Bar & Restaurant",
    "types": "bar, restaurant, food, point_of_interest, establishment"
  },
  {
    "place_id": "ChIJ1T-HO0DzOIgRDLXzOrPC-dw",
    "name": "Pastimes Pub & Grill Crosswoods",
    "street_address": "121 East Campus View Boulevard",
    "city": "Columbus",
    "state": "OH",
    "zip_code": "43235",
    "latitude": 40.11780689999999,
    "longitude": -83.0129929,
    "website": "http://www.pastimespubandgrill.com/",
    "category": "Bar & Restaurant",
    "types": "bar, restaurant, food, point_of_interest, establishment"
  },
  {
    "place_id": "ChIJM_HrxnSNOIgRvAAzEGmMCsw",
    "name": "Coaches Bar & Grill",
    "street_address": "1480 Bethel Road",
    "city": "Columbus",
    "state": "OH",
    "zip_code": "43220",
    "latitude": 40.065141,
    "longitude": -83.0581713,
    "website": "http://coachesbarandgrill.com/",
    "category": "Bar & Restaurant",
    "types": "bar, restaurant, food, point_of_interest, establishment"
  },
  {
    "place_id": "ChIJ9dAE5OHyOIgRqXy3VvodVFM",
    "name": "Rusty Bucket Restaurant and Tavern",
    "street_address": "7800 Olentangy River Rd",
    "city": "Columbus",
    "state": "OH",
    "zip_code": "43235",
    "latitude": 40.1246064,
    "longitude": -83.03537999999999,
    "website": "https://www.myrustybucket.com/worthington",
    "category": "Bar & Restaurant",
    "types": "bar, restaurant, food, point_of_interest, establishment"
  },
  {
    "place_id": "ChIJT0QBbrzyOIgRqL7lV8xnPIk",
    "name": "Chubby's Sports Bar & Grill",
    "street_address": "1846 Hard Road",
    "city": "Columbus",
    "state": "OH",
    "zip_code": "43235",
    "latitude": 40.1178378,
    "longitude": -83.0652805,
    "website": "https://www.sportsbarcolumbusoh.com/",
    "category": "Bar & Restaurant",
    "types": "bar, restaurant, food, point_of_interest, establishment"
  },
  {
    "place_id": "ChIJBzv9g9GSOIgR5DbzEx48RDc",
    "name": "The Dublin Village Tavern",
    "street_address": "27 South High Street",
    "city": "Dublin",
    "state": "OH",
    "zip_code": "43017",
    "latitude": 40.09890559999999,
    "longitude": -83.1138806,
    "website": "http://www.thedublinvillagetavern.com/",
    "category": "Bar & Restaurant",
    "types": "bar, restaurant, food, point_of_interest, establishment"
  },
  {
    "place_id": "ChIJI_qioEvtOIgRvd9Z_68s00c",
    "name": "Revelry Tavern",
    "street_address": "6711 Dublin Center Drive",
    "city": "Dublin",
    "state": "OH",
    "zip_code": "43017",
    "latitude": 40.1059188,
    "longitude": -83.09678629999999,
    "website": "https://www.revelrytaverndublin.com/",
    "category": "Bar & Restaurant",
    "types": "bar, restaurant, food, point_of_interest, establishment"
  },
  {
    "place_id": "ChIJz_45pwyTOIgRqRaFprR2zi4",
    "name": "Urban Meyer's Pint House",
    "street_address": "6632 Longshore Street",
    "city": "Dublin",
    "state": "OH",
    "zip_code": "43017",
    "latitude": 40.10258839999999,
    "longitude": -83.10946799999999,
    "website": "https://urbanspinthouse.com/?utm_source=google",
    "category": "Bar & Restaurant",
    "types": "bar, restaurant, food, point_of_interest, establishment"
  },
  {
    "place_id": "ChIJfZ9xMhyTOIgRlsYkz5pg7co",
    "name": "Tipper's Local Watering Hole",
    "street_address": "3534 West Dublin-Granville Road",
    "city": "Columbus",
    "state": "OH",
    "zip_code": "43235",
    "latitude": 40.0935346,
    "longitude": -83.0837195,
    "website": "https://tipperslocal.com/",
    "category": "Bar & Restaurant",
    "types": "bar, restaurant, food, point_of_interest, establishment"
  },
  {
    "place_id": "ChIJqzhfb_2SOIgRSPK7Suz5HTM",
    "name": "Rail Craft Kitchen & Bar - Dublin",
    "street_address": "5839 Frantz Road",
    "city": "Dublin",
    "state": "OH",
    "zip_code": "43016",
    "latitude": 40.0731766,
    "longitude": -83.12201300000001,
    "website": "http://www.railcraftkitchen.com/",
    "category": "Bar & Restaurant",
    "types": "bar, restaurant, point_of_interest, food, establishment"
  },
  {
    "place_id": "ChIJx3YERkztOIgRA1DRPO6JZvM",
    "name": "Tino's Bar & Grille",
    "street_address": "6645 Dublin Center Drive",
    "city": "Dublin",
    "state": "OH",
    "zip_code": "43017",
    "latitude": 40.1043607,
    "longitude": -83.0956367,
    "website": null,
    "category": "Bar & Restaurant",
    "types": "bar, restaurant, food, point_of_interest, establishment"
  },
  {
    "place_id": "ChIJoaFRNFKTOIgRJsX_W_cAvvE",
    "name": "Rusty Bucket Restaurant and Tavern",
    "street_address": "6726 Perimeter Loop Road",
    "city": "Dublin",
    "state": "OH",
    "zip_code": "43017",
    "latitude": 40.1034838,
    "longitude": -83.1562441,
    "website": "https://www.myrustybucket.com/dublin",
    "category": "Bar & Restaurant",
    "types": "bar, restaurant, food, point_of_interest, establishment"
  },
  {
    "place_id": "ChIJq3rqqwiTOIgRzdkX7IvBlGI",
    "name": "Fado Pub & Kitchen",
    "street_address": "6652 Riverside Drive",
    "city": "Dublin",
    "state": "OH",
    "zip_code": "43017",
    "latitude": 40.1032795,
    "longitude": -83.11003,
    "website": "https://www.fadopubandkitchen.com/",
    "category": "Bar & Restaurant",
    "types": "bar, restaurant, food, point_of_interest, establishment"
  },
  {
    "place_id": "ChIJ--q7e3uUOIgRAdoSLwcTnJA",
    "name": "The Goat Dublin",
    "street_address": "5730 Silver Falls Street",
    "city": "Dublin",
    "state": "OH",
    "zip_code": "43016",
    "latitude": 40.0620135,
    "longitude": -83.17339989999999,
    "website": "https://www.lcgoat.com/locations/dublin/",
    "category": "Bar & Restaurant",
    "types": "restaurant, bar, food, point_of_interest, establishment"
  },
  {
    "place_id": "ChIJfVISlAKTOIgR7rg7PxUyNuY",
    "name": "Yogi's Bar & Grill",
    "street_address": "5857 Karric Square Drive",
    "city": "Dublin",
    "state": "OH",
    "zip_code": "43016",
    "latitude": 40.0727764,
    "longitude": -83.12327719999999,
    "website": "http://www.yogisdublin.com/",
    "category": "Bar & Restaurant",
    "types": "bar, restaurant, food, point_of_interest, establishment"
  },
  {
    "place_id": "ChIJsXtgC1STOIgR8yN8WQhig14",
    "name": "Matt the Miller's Tavern",
    "street_address": "6725 Avery-Muirfield Drive",
    "city": "Dublin",
    "state": "OH",
    "zip_code": "43016",
    "latitude": 40.1060565,
    "longitude": -83.1609646,
    "website": "https://mtmtavern.com/locations-menus/dublin/",
    "category": "Bar & Restaurant",
    "types": "restaurant, bar, food, point_of_interest, establishment"
  },
  {
    "place_id": "ChIJcQno9jztOIgRwkN7HD7vxEA",
    "name": "Yogi's Bar & Grill",
    "street_address": "3880 Hard Road",
    "city": "Dublin",
    "state": "OH",
    "zip_code": "43016",
    "latitude": 40.11971279999999,
    "longitude": -83.0929946,
    "website": "http://www.yogisdublin.com/",
    "category": "Bar & Restaurant",
    "types": "bar, restaurant, food, point_of_interest, establishment"
  },
  {
    "place_id": "ChIJlydhac2SOIgRDirrXZoTPgg",
    "name": "Cap City Fine Diner and Bar",
    "street_address": "6644 Riverside Drive",
    "city": "Dublin",
    "state": "OH",
    "zip_code": "43017",
    "latitude": 40.1029373,
    "longitude": -83.1098134,
    "website": "https://capcityfinediner.com/locations-menus/dublin/",
    "category": "Bar & Restaurant",
    "types": "bar, restaurant, food, point_of_interest, establishment"
  },
  {
    "place_id": "ChIJo4OuVUPtOIgRlb8zn6sBs4Y",
    "name": "101 Craft Kitchen",
    "street_address": "7509 Sawmill Road",
    "city": "Dublin",
    "state": "OH",
    "zip_code": "43016",
    "latitude": 40.11965000000001,
    "longitude": -83.09220300000001,
    "website": "http://www.101craftkitchen.com/",
    "category": "Bar & Restaurant",
    "types": "bar, restaurant, food, point_of_interest, establishment"
  },
  {
    "place_id": "ChIJQadCMI_tOIgRoHgO28nE_qk",
    "name": "1801 Tavern",
    "street_address": "9721 Sawmill Road",
    "city": "Powell",
    "state": "OH",
    "zip_code": "43065",
    "latitude": 40.1568777,
    "longitude": -83.0879483,
    "website": "https://1801tavern.com/",
    "category": "Bar & Restaurant",
    "types": "bar, restaurant, point_of_interest, food, establishment"
  },
  {
    "place_id": "ChIJvWsMeOTtOIgRkOmdRs7Y-80",
    "name": "Third Base Pint House-Powell",
    "street_address": "9215 Dublin Road",
    "city": "Powell",
    "state": "OH",
    "zip_code": "43065",
    "latitude": 40.156393,
    "longitude": -83.1338643,
    "website": "https://order.online/business/third-base-pinthouse-398010",
    "category": "Restaurant",
    "types": "restaurant, food, point_of_interest, establishment"
  },
  {
    "place_id": "ChIJ9yo3sZDtOIgRJkFIS748z_4",
    "name": "Joe's Pub & Grill",
    "street_address": "9890 Brewster Lane",
    "city": "Powell",
    "state": "OH",
    "zip_code": "43065",
    "latitude": 40.1549358,
    "longitude": -83.09472769999999,
    "website": "http://www.joespubandgrill.com/",
    "category": "Bar & Restaurant",
    "types": "bar, restaurant, food, point_of_interest, establishment"
  },
  {
    "place_id": "ChIJ7yNNm3byOIgRr4x37DI1FFc",
    "name": "Prohibition Gastro Lounge",
    "street_address": "21 West Olentangy Street",
    "city": "Powell",
    "state": "OH",
    "zip_code": "43065",
    "latitude": 40.1579043,
    "longitude": -83.0756904,
    "website": "http://www.prohibitiongastrolounge.com/",
    "category": "Bar & Restaurant",
    "types": "bar, restaurant, food, point_of_interest, establishment"
  },
  {
    "place_id": "ChIJ8cUJIQDtOIgROHRjllKthDs",
    "name": "Shawnee Station Taproom & Kitchen",
    "street_address": "6058 Glick Road",
    "city": "Shawnee Hills",
    "state": "OH",
    "zip_code": "43065",
    "latitude": 40.1542042,
    "longitude": -83.1301982,
    "website": "https://shawneestationtaproom.com/",
    "category": "Bar & Restaurant",
    "types": "bar, restaurant, food, point_of_interest, establishment"
  },
  {
    "place_id": "ChIJ4xDho5ztOIgRbTTcPEdXehk",
    "name": "The Lazy Chameleon",
    "street_address": "4028 Presidential Parkway",
    "city": "Powell",
    "state": "OH",
    "zip_code": "43065",
    "latitude": 40.1492483,
    "longitude": -83.09154559999999,
    "website": "http://www.lazychameleon.com/",
    "category": "Restaurant",
    "types": "restaurant, food, point_of_interest, establishment"
  },
  {
    "place_id": "ChIJWUd2LvvzOIgRvfYQzAveGyw",
    "name": "Powell Bar & Grill",
    "street_address": "26 Grace Drive",
    "city": "Powell",
    "state": "OH",
    "zip_code": "43065",
    "latitude": 40.1635123,
    "longitude": -83.074105,
    "website": "https://www.powellbarandgrill.com/",
    "category": "Bar & Restaurant",
    "types": "bar, restaurant, food, point_of_interest, establishment"
  },
  {
    "place_id": "ChIJ4wYcq0fsOIgRehaueWj1XaI",
    "name": "Local Roots",
    "street_address": "15 East Olentangy Street",
    "city": "Powell",
    "state": "OH",
    "zip_code": "43065",
    "latitude": 40.15787799999999,
    "longitude": -83.074694,
    "website": "http://localrootspowell.com/",
    "category": "Bar & Restaurant",
    "types": "restaurant, bar, food, point_of_interest, establishment"
  },
  {
    "place_id": "ChIJqdyU_in1OIgRPP9d8vGhf2Y",
    "name": "Crazee Mule Pub & Grill",
    "street_address": "6188 Cleveland Avenue",
    "city": "Columbus",
    "state": "OH",
    "zip_code": "43231",
    "latitude": 40.099494,
    "longitude": -82.94791,
    "website": "http://crazeemule.net/",
    "category": "Bar & Restaurant",
    "types": "bar, restaurant, food, point_of_interest, establishment"
  },
  {
    "place_id": "ChIJd5yUcSH1OIgRCw7NvPqb-W4",
    "name": "The Draft Room",
    "street_address": "570 West Schrock Road",
    "city": "Westerville",
    "state": "OH",
    "zip_code": "43081",
    "latitude": 40.1115192,
    "longitude": -82.94572219999999,
    "website": "https://draftroomcbus.squarespace.com/",
    "category": "Bar & Restaurant",
    "types": "bar, restaurant, food, point_of_interest, establishment"
  },
  {
    "place_id": "ChIJb7JFm2j0OIgRUBMPw5oD7YU",
    "name": "Atlas Tavern",
    "street_address": "8944 Lyra Drive",
    "city": "Columbus",
    "state": "OH",
    "zip_code": "43240",
    "latitude": 40.1474723,
    "longitude": -82.97447199999999,
    "website": "https://www.atlastavern.com/",
    "category": "Bar & Restaurant",
    "types": "bar, restaurant, food, point_of_interest, establishment"
  },
  {
    "place_id": "ChIJQWoel5P1OIgRcXFYSD6rDgY",
    "name": "Wendell's Pub",
    "street_address": "925 North State Street",
    "city": "Westerville",
    "state": "OH",
    "zip_code": "43082",
    "latitude": 40.15044399999999,
    "longitude": -82.92243189999999,
    "website": "http://www.wendells.net/",
    "category": "Bar & Restaurant",
    "types": "bar, restaurant, food, point_of_interest, establishment"
  },
  {
    "place_id": "ChIJlWFjpA31OIgRShF_XoR25yI",
    "name": "Jimmy V's Grill & Pub",
    "street_address": "1 South State Street",
    "city": "Westerville",
    "state": "OH",
    "zip_code": "43081",
    "latitude": 40.1256536,
    "longitude": -82.93177949999999,
    "website": "http://www.jimmyvswesterville.com/",
    "category": "Bar & Restaurant",
    "types": "bar, restaurant, food, point_of_interest, establishment"
  },
  {
    "place_id": "ChIJncLI1o6LOIgRlWfaQ0Lyhlg",
    "name": "The 6 Bar & Grill",
    "street_address": "5640 Kathy Run Lane",
    "city": "Columbus",
    "state": "OH",
    "zip_code": "43229",
    "latitude": 40.08597249999999,
    "longitude": -82.9533127,
    "website": null,
    "category": "Bar & Restaurant",
    "types": "bar, restaurant, food, point_of_interest, establishment"
  },
  {
    "place_id": "ChIJ6Tota3r0OIgRzvm05NEBJ9U",
    "name": "Keystone Pub & Patio",
    "street_address": "1081 Gemini Place",
    "city": "Columbus",
    "state": "OH",
    "zip_code": "43240",
    "latitude": 40.1468659,
    "longitude": -82.9857579,
    "website": "https://www.polarisbarandgrill.com/",
    "category": "Bar & Restaurant",
    "types": "bar, restaurant, food, point_of_interest, establishment"
  },
  {
    "place_id": "ChIJzyp1qgpfOIgRCcDCJuiHBXs",
    "name": "Time & Change - Neighborhood Gathering Place",
    "street_address": "1186 County Line Road",
    "city": "Westerville",
    "state": "OH",
    "zip_code": "43081",
    "latitude": 40.1323849,
    "longitude": -82.88726419999999,
    "website": "http://www.tandcwesterville.com/",
    "category": "Bar & Restaurant",
    "types": "restaurant, bar, point_of_interest, food, establishment"
  },
  {
    "place_id": "ChIJc3sNooiLOIgRuNRkIpEf-Fs",
    "name": "HEADQUARTERS BAR featuring HOCK Kitchen Experience",
    "street_address": "2477 East Dublin Granville Road",
    "city": "Columbus",
    "state": "OH",
    "zip_code": "43229",
    "latitude": 40.0837867,
    "longitude": -82.9525293,
    "website": null,
    "category": "Bar & Restaurant",
    "types": "bar, restaurant, food, point_of_interest, establishment"
  },
  {
    "place_id": "ChIJ0aV6rYH0OIgRGezrBmTYPbo",
    "name": "O\u2019Bryans on Sancus",
    "street_address": "8270 Sancus Boulevard",
    "city": "Westerville",
    "state": "OH",
    "zip_code": "43081",
    "latitude": 40.1348694,
    "longitude": -82.9910587,
    "website": "http://obryansonsancus.com/",
    "category": "Bar & Restaurant",
    "types": "bar, store, restaurant, food, point_of_interest, establishment"
  },
  {
    "place_id": "ChIJnSxdUwz1OIgRmaPhaZbjYeM",
    "name": "The Old Bag of Nails Pub - Westerville",
    "street_address": "24 North State Street",
    "city": "Westerville",
    "state": "OH",
    "zip_code": "43081",
    "latitude": 40.1265815,
    "longitude": -82.9315814,
    "website": "http://www.oldbagofnails.com/",
    "category": "Bar & Restaurant",
    "types": "bar, restaurant, food, point_of_interest, establishment"
  },
  {
    "place_id": "ChIJraW02ID0OIgRhmGR4Btj-RE",
    "name": "Fenders",
    "street_address": "8333 Market Exchange Drive",
    "city": "Westerville",
    "state": "OH",
    "zip_code": "43081",
    "latitude": 40.1350976,
    "longitude": -82.9891967,
    "website": "http://www.fenderscolumbus.com/",
    "category": "Bar & Restaurant",
    "types": "bar, restaurant, food, point_of_interest, establishment"
  },
  {
    "place_id": "ChIJ42rVTwz1OIgRwrzNc5GCdbE",
    "name": "Uptown Deli and Brew",
    "street_address": "41 North State Street",
    "city": "Westerville",
    "state": "OH",
    "zip_code": "43081",
    "latitude": 40.1269587,
    "longitude": -82.9323014,
    "website": "http://www.uptowndeliandbrew.com/",
    "category": "Bar & Restaurant",
    "types": "bar, store, restaurant, food, point_of_interest, establishment"
  },
  {
    "place_id": "ChIJR921uLH1OIgRmn89aoGAcjc",
    "name": "Rusty Bucket Restaurant and Tavern",
    "street_address": "400 Polaris Parkway",
    "city": "Westerville",
    "state": "OH",
    "zip_code": "43082",
    "latitude": 40.146292,
    "longitude": -82.94297170000002,
    "website": "https://www.myrustybucket.com/westerville",
    "category": "Bar & Restaurant",
    "types": "bar, restaurant, food, point_of_interest, establishment"
  },
  {
    "place_id": "ChIJvTXpnK31OIgRReEC24av2vA",
    "name": "Bru Burger Bar Westerville",
    "street_address": "691 North Cleveland Avenue",
    "city": "Westerville",
    "state": "OH",
    "zip_code": "43082",
    "latitude": 40.1443443,
    "longitude": -82.9471588,
    "website": "https://www.bruburgerbar.com/location/bru-burger-bar-westerville-oh/?utm_source=listing&utm_medium=google&utm_campaign=website",
    "category": "Bar & Restaurant",
    "types": "bar, restaurant, food, point_of_interest, establishment"
  },
  {
    "place_id": "ChIJpf-QdTj1OIgRfg1VP7240LY",
    "name": "North High Brewing - Westerville",
    "street_address": "250 South State Street",
    "city": "Westerville",
    "state": "OH",
    "zip_code": "43081",
    "latitude": 40.1194142,
    "longitude": -82.928123,
    "website": "http://www.northhighbrewing.com/",
    "category": "Restaurant",
    "types": "restaurant, food, point_of_interest, establishment"
  },
  {
    "place_id": "ChIJW63Tb2P0OIgRxsVQuu_lUco",
    "name": "BJ's Restaurant & Brewhouse",
    "street_address": "1414 Polaris Parkway",
    "city": "Columbus",
    "state": "OH",
    "zip_code": "43240",
    "latitude": 40.1423495,
    "longitude": -82.9794387,
    "website": "https://www.bjsrestaurants.com/locations/oh/polaris?utm_source=google&utm_medium=organic&utm_campaign=google_my_business",
    "category": "Bar & Restaurant",
    "types": "restaurant, bar, food, point_of_interest, establishment"
  },
  {
    "place_id": "ChIJZSyKFg9gOIgRDUc0vX7LkjE",
    "name": "Harry Buffalo Westerville",
    "street_address": "6150 South Sunbury Road",
    "city": "Westerville",
    "state": "OH",
    "zip_code": "43081",
    "latitude": 40.0845682,
    "longitude": -82.8946129,
    "website": "https://www.harrybuffalo.com/westerville",
    "category": "Bar & Restaurant",
    "types": "bar, restaurant, food, point_of_interest, establishment"
  },
  {
    "place_id": "ChIJ2UswCX2KOIgRs3r6DRT51KQ",
    "name": "Flip Side Easton",
    "street_address": "3945 Easton Station",
    "city": "Columbus",
    "state": "OH",
    "zip_code": "43219",
    "latitude": 40.0497113,
    "longitude": -82.9164251,
    "website": "http://www.flipsideburger.com/",
    "category": "Bar & Restaurant",
    "types": "bar, restaurant, food, point_of_interest, establishment"
  },
  {
    "place_id": "ChIJkeR8s32KOIgR4vGh5vn6EEo",
    "name": "Fado Irish Pub",
    "street_address": "4022 Townsfair Way",
    "city": "Columbus",
    "state": "OH",
    "zip_code": "43219",
    "latitude": 40.04907830000001,
    "longitude": -82.9142928,
    "website": "https://www.fadoirishpub.com/",
    "category": "Bar & Restaurant",
    "types": "bar, restaurant, food, point_of_interest, establishment"
  },
  {
    "place_id": "ChIJr5pozPVgOIgRJu39HH_1h1o",
    "name": "Hamilton's Pub",
    "street_address": "4866 Thompson Road",
    "city": "Columbus",
    "state": "OH",
    "zip_code": "43230",
    "latitude": 40.06546099999999,
    "longitude": -82.861739,
    "website": "https://thehamiltonspub.com/",
    "category": "Bar & Restaurant",
    "types": "bar, restaurant, food, point_of_interest, establishment"
  },
  {
    "place_id": "ChIJCaxRk5FhOIgRKi57ac8R1LQ",
    "name": "Signatures Mill Stone Tavern",
    "street_address": "94 Mill Street",
    "city": "Gahanna",
    "state": "OH",
    "zip_code": "43230",
    "latitude": 40.0200402,
    "longitude": -82.8793767,
    "website": "https://www.facebook.com/SignaturesTavern/",
    "category": "Bar & Restaurant",
    "types": "bar, restaurant, food, point_of_interest, establishment"
  },
  {
    "place_id": "ChIJO4VTQ2lhOIgRTPH-UFL60VU",
    "name": "Third Base Pint House -Gahanna",
    "street_address": "230 Granville Street",
    "city": "Gahanna",
    "state": "OH",
    "zip_code": "43230",
    "latitude": 40.018984,
    "longitude": -82.8732728,
    "website": null,
    "category": "Bar & Restaurant",
    "types": "bar, restaurant, food, point_of_interest, establishment"
  },
  {
    "place_id": "ChIJ2z3ehoeKOIgR2YstUuK9Nxw",
    "name": "Rusty Bucket Restaurant and Tavern",
    "street_address": "4062 Gramercy Street",
    "city": "Columbus",
    "state": "OH",
    "zip_code": "43219",
    "latitude": 40.05183659999999,
    "longitude": -82.9142944,
    "website": "http://myrustybucket.com/easton",
    "category": "Bar & Restaurant",
    "types": "bar, restaurant, point_of_interest, food, establishment"
  },
  {
    "place_id": "ChIJnwC7UpxhOIgRQdyxPoyqfvw",
    "name": "Gatsby's",
    "street_address": "151 North Hamilton Road",
    "city": "Gahanna",
    "state": "OH",
    "zip_code": "43230",
    "latitude": 40.02095239999999,
    "longitude": -82.8666168,
    "website": "http://www.gatsbys1977.com/",
    "category": "Bar & Restaurant",
    "types": "bar, restaurant, food, point_of_interest, establishment"
  },
  {
    "place_id": "ChIJO8LhH32KOIgRKg6-QcAoJKY",
    "name": "World of Beer",
    "street_address": "3934 Townsfair Way",
    "city": "Columbus",
    "state": "OH",
    "zip_code": "43219",
    "latitude": 40.049233,
    "longitude": -82.917103,
    "website": "http://worldofbeer.com/Locations/Easton",
    "category": "Bar & Restaurant",
    "types": "bar, restaurant, food, point_of_interest, establishment"
  },
  {
    "place_id": "ChIJOfDj3lNhOIgR88bHbjobPJE",
    "name": "Forbidden Root Restaurant & Brewery - Columbus",
    "street_address": "4080 Worth Avenue",
    "city": "Columbus",
    "state": "OH",
    "zip_code": "43219",
    "latitude": 40.0544326,
    "longitude": -82.91293019999999,
    "website": "http://www.forbiddenroot.com/",
    "category": "Bar & Restaurant",
    "types": "restaurant, bar, food, point_of_interest, establishment"
  },
  {
    "place_id": "ChIJK-zF2JxhOIgR0w1vvaza_Xs",
    "name": "Rusty Bucket Restaurant and Tavern",
    "street_address": "73 North Hamilton Road",
    "city": "Gahanna",
    "state": "OH",
    "zip_code": "43230",
    "latitude": 40.01904379999999,
    "longitude": -82.86685589999999,
    "website": "https://www.myrustybucket.com/gahanna",
    "category": "Bar & Restaurant",
    "types": "bar, restaurant, food, point_of_interest, establishment"
  },
  {
    "place_id": "ChIJr7TuMD1iOIgRXEbUw__-rB4",
    "name": "HMS Host American Craft Tavern",
    "street_address": "4600 International Gateway",
    "city": "Columbus",
    "state": "OH",
    "zip_code": "43219",
    "latitude": 39.9993215,
    "longitude": -82.8861508,
    "website": null,
    "category": "Bar & Restaurant",
    "types": "restaurant, bar, food, point_of_interest, establishment"
  },
  {
    "place_id": "ChIJJ4a2IO9gOIgRIfn7MbHvtrE",
    "name": "The Goat Gahanna",
    "street_address": "6400 Preserve Crossing Boulevard",
    "city": "Columbus",
    "state": "OH",
    "zip_code": "43230",
    "latitude": 40.060816,
    "longitude": -82.8486403,
    "website": "https://www.lcgoat.com/gahanna",
    "category": "Bar & Restaurant",
    "types": "restaurant, bar, food, point_of_interest, establishment"
  },
  {
    "place_id": "ChIJxY9rX-dgOIgR262ZC8o6idc",
    "name": "The Barn at Rocky Fork Creek",
    "street_address": "1370 East Johnstown Road",
    "city": "Gahanna",
    "state": "OH",
    "zip_code": "43230",
    "latitude": 40.05341039999999,
    "longitude": -82.8427428,
    "website": "https://thebarncolumbus.com/",
    "category": "Restaurant",
    "types": "restaurant, point_of_interest, food, establishment"
  },
  {
    "place_id": "ChIJT88f5VVgOIgRlM-N0cF4SK4",
    "name": "101 Craft Kitchen",
    "street_address": "397 Stoneridge Lane",
    "city": "Gahanna",
    "state": "OH",
    "zip_code": "43230",
    "latitude": 40.0517334,
    "longitude": -82.864504,
    "website": "http://www.101craftkitchen.com/",
    "category": "Bar & Restaurant",
    "types": "bar, restaurant, point_of_interest, food, establishment"
  },
  {
    "place_id": "ChIJtV5yz6SLOIgRBixFSmPlOaI",
    "name": "PBR Cowboy Bar + Smokehouse",
    "street_address": "3950 Gramercy Street",
    "city": "Columbus",
    "state": "OH",
    "zip_code": "43219",
    "latitude": 40.0519705,
    "longitude": -82.9162496,
    "website": "https://pbrcowboybar.com/columbus/",
    "category": "Bar & Restaurant",
    "types": "bar, restaurant, food, point_of_interest, establishment"
  },
  {
    "place_id": "ChIJ9zSXkoGKOIgRFmZss37yITg",
    "name": "BJ's Restaurant & Brewhouse",
    "street_address": "4020 Stelzer Road",
    "city": "Columbus",
    "state": "OH",
    "zip_code": "43219",
    "latitude": 40.05594139999999,
    "longitude": -82.9097481,
    "website": "https://www.bjsrestaurants.com/locations/oh/easton-town-center",
    "category": "Bar & Restaurant",
    "types": "restaurant, bar, food, point_of_interest, establishment"
  },
  {
    "place_id": "ChIJnzjf4dBkOIgRTPJQwgqDqgI",
    "name": "The Corner: A Bar & Grill",
    "street_address": "1751 Hill Road North",
    "city": "Pickerington",
    "state": "OH",
    "zip_code": "43147",
    "latitude": 39.9278856,
    "longitude": -82.7896965,
    "website": "https://www.thecornerbarandgrill.net/",
    "category": "Bar & Restaurant",
    "types": "bar, restaurant, food, point_of_interest, establishment"
  },
  {
    "place_id": "ChIJf3Z12BFjOIgRYQdgrNoDdRE",
    "name": "The Point on Main Street",
    "street_address": "1192 Noe Bixby Road",
    "city": "Columbus",
    "state": "OH",
    "zip_code": "43213",
    "latitude": 39.95575819999999,
    "longitude": -82.84975980000002,
    "website": "http://thepointonmain.com/",
    "category": "Bar & Restaurant",
    "types": "night_club, bar, restaurant, point_of_interest, food, store, establishment"
  },
  {
    "place_id": "ChIJWXwpnMVlOIgRVph1mXzTlbY",
    "name": "The Duggie Sports Bar",
    "street_address": "14952 East Broad Street",
    "city": "Reynoldsburg",
    "state": "OH",
    "zip_code": "43068",
    "latitude": 39.9885702,
    "longitude": -82.766211,
    "website": "http://www.theduggie.com/",
    "category": "Bar & Restaurant",
    "types": "night_club, bar, restaurant, food, point_of_interest, establishment"
  },
  {
    "place_id": "ChIJbYA5_oxkOIgRyuobARUCpPU",
    "name": "Prost Beer & Wine Caf\u00e9",
    "street_address": "7354 East Main Street",
    "city": "Reynoldsburg",
    "state": "OH",
    "zip_code": "43068",
    "latitude": 39.9555156,
    "longitude": -82.8016696,
    "website": "http://prostcafe.com/",
    "category": "Bar & Restaurant",
    "types": "bar, restaurant, point_of_interest, food, establishment"
  },
  {
    "place_id": "ChIJbcgxjYRkOIgRzgf9DatTD8Y",
    "name": "Jilly's Saloon",
    "street_address": "6842 East Main Street",
    "city": "Reynoldsburg",
    "state": "OH",
    "zip_code": "43068",
    "latitude": 39.9555291,
    "longitude": -82.8142189,
    "website": null,
    "category": "Bar & Restaurant",
    "types": "bar, restaurant, food, point_of_interest, establishment"
  },
  {
    "place_id": "ChIJ4yemZLZmOIgRiS8S7XHLFvA",
    "name": "SC Bar & Kitchen",
    "street_address": "1921 Ohio 256",
    "city": "Reynoldsburg",
    "state": "OH",
    "zip_code": "43068",
    "latitude": 39.9443321,
    "longitude": -82.7960586,
    "website": "http://www.scbarandkitchen.com/",
    "category": "Bar & Restaurant",
    "types": "bar, restaurant, food, point_of_interest, establishment"
  },
  {
    "place_id": "ChIJY74q0dNkOIgRhDE0Agvj77k",
    "name": "LongHorn Steakhouse",
    "street_address": "1740 Hill Road North",
    "city": "Pickerington",
    "state": "OH",
    "zip_code": "43147",
    "latitude": 39.92560799999999,
    "longitude": -82.785229,
    "website": "https://www.longhornsteakhouse.com/locations/oh/pickerington/pickerington-picktown/5121?cmpid=br:lh_ag:ie_ch:loc_ca:LHGMB_sn:gmb_gt:pickerington-oh-5121_pl:locurl_rd:1084",
    "category": "Bar & Restaurant",
    "types": "meal_takeaway, bar, restaurant, food, point_of_interest, establishment"
  },
  {
    "place_id": "ChIJ1bbV2xxjOIgR2OE6FV0p-Eo",
    "name": "Flavor 91 Bistro",
    "street_address": "5186 East Main Street",
    "city": "Whitehall",
    "state": "OH",
    "zip_code": "43213",
    "latitude": 39.9553445,
    "longitude": -82.86104689999999,
    "website": "https://flavor91.com/",
    "category": "Bar & Restaurant",
    "types": "restaurant, bar, food, point_of_interest, establishment"
  },
  {
    "place_id": "ChIJ8xkuS7xlOIgRqD_JSs2gZxU",
    "name": "Winking Lizard Reynoldsburg",
    "street_address": "7995 East Broad Street",
    "city": "Reynoldsburg",
    "state": "OH",
    "zip_code": "43068",
    "latitude": 39.9842812,
    "longitude": -82.789407,
    "website": "https://www.winkinglizard.com/",
    "category": "Restaurant",
    "types": "restaurant, food, point_of_interest, establishment"
  },
  {
    "place_id": "ChIJy5V5HyNjOIgRH-kbQeybAFc",
    "name": "Cajun Boil Bar",
    "street_address": "2760 Brice Road",
    "city": "Reynoldsburg",
    "state": "OH",
    "zip_code": "43068",
    "latitude": 39.9250877,
    "longitude": -82.830444,
    "website": "https://www.cajunboilbar.com/",
    "category": "Restaurant",
    "types": "restaurant, food, point_of_interest, establishment"
  },
  {
    "place_id": "ChIJu32umuhlOIgRAF6x60BMXK4",
    "name": "Jimmy V's Grill & Pub Pataskala",
    "street_address": "14211 East Broad Street",
    "city": "Reynoldsburg",
    "state": "OH",
    "zip_code": "43068",
    "latitude": 39.989905,
    "longitude": -82.752899,
    "website": "https://jimmyvsgrandview.com/",
    "category": "Bar & Restaurant",
    "types": "bar, restaurant, food, point_of_interest, establishment"
  },
  {
    "place_id": "ChIJd8YOkXRkOIgRmJZQWz7erKI",
    "name": "Milano's Italian Restaurant",
    "street_address": "6916 East Broad Street",
    "city": "Columbus",
    "state": "OH",
    "zip_code": "43213",
    "latitude": 39.9841012,
    "longitude": -82.817803,
    "website": "http://milanosoh.com/",
    "category": "Bar & Restaurant",
    "types": "bar, restaurant, food, point_of_interest, store, establishment"
  },
  {
    "place_id": "ChIJLYXasCl7OIgRqpYNi5jZUXU",
    "name": "Squeek's Bar and Grill",
    "street_address": "1160 Hill Road North",
    "city": "Pickerington",
    "state": "OH",
    "zip_code": "43147",
    "latitude": 39.9115627,
    "longitude": -82.7784458,
    "website": "https://squeeksbarandgrill.com/",
    "category": "Bar & Restaurant",
    "types": "bar, restaurant, food, point_of_interest, establishment"
  },
  {
    "place_id": "ChIJRdfFyWmbOIgR0PRjkwb5xMw",
    "name": "Grove City Inn",
    "street_address": "4260 Harrisburg Pike",
    "city": "Grove City",
    "state": "OH",
    "zip_code": "43123",
    "latitude": 39.8715827,
    "longitude": -83.1020484,
    "website": null,
    "category": "Bar & Restaurant",
    "types": "bar, restaurant, food, point_of_interest, establishment"
  },
  {
    "place_id": "ChIJwTcEGL-bOIgR7XGJzKQjNG0",
    "name": "Broadway Plates and Pints",
    "street_address": "4008 Broadway",
    "city": "Grove City",
    "state": "OH",
    "zip_code": "43123",
    "latitude": 39.8824026,
    "longitude": -83.0930683,
    "website": "https://platesandpints.com/",
    "category": "Restaurant",
    "types": "restaurant, food, point_of_interest, establishment"
  },
  {
    "place_id": "ChIJNULNbDmbOIgRsPYZWtysNFw",
    "name": "Plank's On Broadway",
    "street_address": "4022 Broadway",
    "city": "Grove City",
    "state": "OH",
    "zip_code": "43123",
    "latitude": 39.88212139999999,
    "longitude": -83.0931867,
    "website": null,
    "category": "Bar & Restaurant",
    "types": "bar, restaurant, food, point_of_interest, establishment"
  },
  {
    "place_id": "ChIJLTOGUy6bOIgR3Sym1Xi_sXM",
    "name": "Blu-Willy\u2019s",
    "street_address": "3985 Broadway",
    "city": "Grove City",
    "state": "OH",
    "zip_code": "43123",
    "latitude": 39.8829802,
    "longitude": -83.0933244,
    "website": "https://www.toasttab.com/blu-willy-s/v3",
    "category": "Bar & Restaurant",
    "types": "restaurant, bar, food, point_of_interest, establishment"
  },
  {
    "place_id": "ChIJRXdElS6bOIgRVN9cWv0lGL8",
    "name": "Memories Food & Spirits",
    "street_address": "3539 Broadway",
    "city": "Grove City",
    "state": "OH",
    "zip_code": "43123",
    "latitude": 39.8917821,
    "longitude": -83.0857951,
    "website": "http://www.memoriesfoodandspirits.com/",
    "category": "Bar & Restaurant",
    "types": "bar, restaurant, food, point_of_interest, establishment"
  },
  {
    "place_id": "ChIJ8xmFdfKEOIgR4kE6E0YOkJM",
    "name": "Roosters",
    "street_address": "1650 Stringtown Road",
    "city": "Grove City",
    "state": "OH",
    "zip_code": "43123",
    "latitude": 39.8791494,
    "longitude": -83.046961,
    "website": "http://www.roosterswings.com/",
    "category": "Restaurant",
    "types": "restaurant, food, point_of_interest, establishment"
  },
  {
    "place_id": "ChIJieUncfSEOIgRqiHtgsg7yf8",
    "name": "LongHorn Steakhouse",
    "street_address": "1742 Stringtown Road",
    "city": "Grove City",
    "state": "OH",
    "zip_code": "43123",
    "latitude": 39.879221,
    "longitude": -83.041826,
    "website": "https://www.longhornsteakhouse.com/locations/oh/grove-city/grove-city/5238?cmpid=br:lh_ag:ie_ch:loc_ca:LHGMB_sn:gmb_gt:grove-city-oh-5238_pl:locurl_rd:1190",
    "category": "Bar & Restaurant",
    "types": "bar, meal_takeaway, restaurant, food, point_of_interest, establishment"
  },
  {
    "place_id": "ChIJwVL-muyFOIgRXU4CmrAyIYw",
    "name": "Tacos and Beer",
    "street_address": "2348 Stringtown Road",
    "city": "Grove City",
    "state": "OH",
    "zip_code": "43123",
    "latitude": 39.8808623,
    "longitude": -83.0652696,
    "website": "http://ordertacosandbeer.com/",
    "category": "Restaurant",
    "types": "restaurant, food, point_of_interest, establishment"
  },
  {
    "place_id": "ChIJl3mImxGbOIgRa5WjILL_hEw",
    "name": "Local Cantina Grove City",
    "street_address": "3937 Broadway",
    "city": "Grove City",
    "state": "OH",
    "zip_code": "43123",
    "latitude": 39.8838233,
    "longitude": -83.0924398,
    "website": "http://localcantina.com/",
    "category": "Bar & Restaurant",
    "types": "bar, restaurant, food, point_of_interest, establishment"
  },
  {
    "place_id": "ChIJt469ZwCTOIgRfsIxVPme3WM",
    "name": "Mill Run Ale House",
    "street_address": "3641 Fishinger Boulevard",
    "city": "Hilliard",
    "state": "OH",
    "zip_code": "43026",
    "latitude": 40.02892979999999,
    "longitude": -83.1190297,
    "website": "http://millrunalehouse.com/",
    "category": "Restaurant",
    "types": "restaurant, food, point_of_interest, establishment"
  },
  {
    "place_id": "ChIJr_uGifmTOIgRauKtPwbgUqM",
    "name": "Otie's Tavern & Grill",
    "street_address": "5344 Center Street",
    "city": "Hilliard",
    "state": "OH",
    "zip_code": "43026",
    "latitude": 40.0341148,
    "longitude": -83.1596579,
    "website": null,
    "category": "Bar & Restaurant",
    "types": "bar, restaurant, food, point_of_interest, establishment"
  },
  {
    "place_id": "ChIJP9B4bc-TOIgRbf-J4Op6-M4",
    "name": "The Goat Hilliard",
    "street_address": "4265 Brooklands Drive",
    "city": "Hilliard",
    "state": "OH",
    "zip_code": "43026",
    "latitude": 40.0370671,
    "longitude": -83.1318534,
    "website": "https://www.lcgoat.com/locations/hilliard/",
    "category": "Bar & Restaurant",
    "types": "restaurant, bar, food, point_of_interest, establishment"
  },
  {
    "place_id": "ChIJDdgkwM-TOIgRTAh181r2fKM",
    "name": "Rusty Bucket Restaurant and Tavern",
    "street_address": "3901 Britton Parkway",
    "city": "Hilliard",
    "state": "OH",
    "zip_code": "43026",
    "latitude": 40.03281639999999,
    "longitude": -83.13191049999999,
    "website": "https://www.myrustybucket.com/hilliard",
    "category": "Bar & Restaurant",
    "types": "bar, restaurant, food, point_of_interest, establishment"
  },
  {
    "place_id": "ChIJmVNdtWqROIgRrNmGBNeVKrI",
    "name": "Beer Barrel Pizza & Grill",
    "street_address": "2500 Roberts Court",
    "city": "Hilliard",
    "state": "OH",
    "zip_code": "43026",
    "latitude": 40.00396129999999,
    "longitude": -83.1420985,
    "website": "http://beerbarrel.com/",
    "category": "Bar & Restaurant",
    "types": "bar, restaurant, food, point_of_interest, establishment"
  },
  {
    "place_id": "ChIJIUWDHwWROIgRYJgEfB4VaEc",
    "name": "Black Swan Bar & Grill",
    "street_address": "5414 Roberts Road",
    "city": "Hilliard",
    "state": "OH",
    "zip_code": "43026",
    "latitude": 40.0045485,
    "longitude": -83.15263,
    "website": "http://blackswan.bar/",
    "category": "Bar & Restaurant",
    "types": "bar, restaurant, food, point_of_interest, establishment"
  },
  {
    "place_id": "ChIJZ9yE8TiROIgRfhdw18PWGKQ",
    "name": "Lucky's Grille & Sports Pub",
    "street_address": "5387 Roberts Road",
    "city": "Hilliard",
    "state": "OH",
    "zip_code": "43026",
    "latitude": 40.0028245,
    "longitude": -83.1509851,
    "website": "http://www.luckysgrille.com/",
    "category": "Bar & Restaurant",
    "types": "bar, restaurant, food, point_of_interest, establishment"
  },
  {
    "place_id": "ChIJ94qHpjeROIgRudGhpMJBZ88",
    "name": "Submarine House",
    "street_address": "2459 Hilliard Rome Road",
    "city": "Hilliard",
    "state": "OH",
    "zip_code": "43026",
    "latitude": 40.001123,
    "longitude": -83.1560208,
    "website": "https://submarinehouse.com/",
    "category": "Bar & Restaurant",
    "types": "bar, restaurant, food, point_of_interest, establishment"
  },
  {
    "place_id": "ChIJ-09SEPqTOIgRoLN3Lf83hRg",
    "name": "The Old Bag of Nails Pub - Hilliard",
    "street_address": "4065 Main Street",
    "city": "Hilliard",
    "state": "OH",
    "zip_code": "43026",
    "latitude": 40.03493889999999,
    "longitude": -83.1588194,
    "website": "http://www.oldbagofnails.com/",
    "category": "Bar & Restaurant",
    "types": "restaurant, bar, food, point_of_interest, establishment"
  },
  {
    "place_id": "ChIJI_XkZWSROIgRxYR8Nz8-iDk",
    "name": "Nasty's Sports Bar & Restaurant",
    "street_address": "4561 Scioto Darby Road",
    "city": "Hilliard",
    "state": "OH",
    "zip_code": "43026",
    "latitude": 40.0180828,
    "longitude": -83.13737259999999,
    "website": "https://www.nastyssportsbar.com/",
    "category": "Bar & Restaurant",
    "types": "restaurant, bar, food, point_of_interest, establishment"
  },
  {
    "place_id": "ChIJ6zreTDKSOIgRzEUmEmrc1AE",
    "name": "Grandad's Pizza & Pub",
    "street_address": "4093 Trueman Boulevard",
    "city": "Hilliard",
    "state": "OH",
    "zip_code": "43026",
    "latitude": 40.0353706,
    "longitude": -83.11936109999999,
    "website": "https://www.grandadspizza.com/hilliard/",
    "category": "Bar & Restaurant",
    "types": "bar, store, restaurant, food, point_of_interest, establishment"
  },
  {
    "place_id": "ChIJH1z3Y-XlOIgRRG_blKOn3Rc",
    "name": "Good Times Pub",
    "street_address": "837 North Houk Road",
    "city": "Delaware",
    "state": "OH",
    "zip_code": "43015",
    "latitude": 40.3132059,
    "longitude": -83.1121808,
    "website": null,
    "category": "Bar & Restaurant",
    "types": "bar, restaurant, food, point_of_interest, establishment"
  },
  {
    "place_id": "ChIJ9RPIZW_7OIgReDMdjnlXlGo",
    "name": "Old Dog Alehouse & Brewery",
    "street_address": "13 West William Street",
    "city": "Delaware",
    "state": "OH",
    "zip_code": "43015",
    "latitude": 40.29862370000001,
    "longitude": -83.0684778,
    "website": "http://olddogalehouse.com/",
    "category": "Bar & Restaurant",
    "types": "restaurant, bar, food, point_of_interest, establishment"
  },
  {
    "place_id": "ChIJM8J0d9r6OIgRKBgpT8w3Jeg",
    "name": "The Backstretch",
    "street_address": "14 South Sandusky Street",
    "city": "Delaware",
    "state": "OH",
    "zip_code": "43015",
    "latitude": 40.298326,
    "longitude": -83.068073,
    "website": "http://www.thebackstretchbar.com/",
    "category": "Bar & Restaurant",
    "types": "restaurant, bar, food, point_of_interest, establishment"
  },
  {
    "place_id": "ChIJFVw1BNr6OIgREucGdgd-U3Y",
    "name": "Restoration Brew Worx",
    "street_address": "25 North Sandusky Street",
    "city": "Delaware",
    "state": "OH",
    "zip_code": "43015",
    "latitude": 40.29960249999999,
    "longitude": -83.0679397,
    "website": "http://www.restorationbrewworx.com/",
    "category": "Bar & Restaurant",
    "types": "bar, restaurant, food, point_of_interest, establishment"
  },
  {
    "place_id": "ChIJ5eScB9jkOIgRMLt9H4bW9Ww",
    "name": "Scoreboard Pub & Grill",
    "street_address": "6 Troy Road",
    "city": "Delaware",
    "state": "OH",
    "zip_code": "43015",
    "latitude": 40.3067356,
    "longitude": -83.0891654,
    "website": "http://scoreboardpubngrill.com/",
    "category": "Bar & Restaurant",
    "types": "bar, restaurant, food, point_of_interest, establishment"
  },
  {
    "place_id": "ChIJgeInetr6OIgRQpP9eQ66odg",
    "name": "Opa Grill & Tavern",
    "street_address": "22 South Sandusky Street",
    "city": "Delaware",
    "state": "OH",
    "zip_code": "43015",
    "latitude": 40.29807569999999,
    "longitude": -83.0682166,
    "website": "https://opagrilltavern.shop/",
    "category": "Restaurant",
    "types": "restaurant, food, point_of_interest, establishment"
  },
  {
    "place_id": "ChIJB6NWJP37OIgRD61iVf6LqnM",
    "name": "Ohana Island Grill & Bar",
    "street_address": "14 West William Street",
    "city": "Delaware",
    "state": "OH",
    "zip_code": "43015",
    "latitude": 40.29902539999999,
    "longitude": -83.0684553,
    "website": "http://www.ohanaislandgrilldelaware.com/",
    "category": "Bar & Restaurant",
    "types": "bar, restaurant, food, point_of_interest, establishment"
  },
  {
    "place_id": "ChIJTRA4I0H7OIgRoUierBOqHSE",
    "name": "Smash Shack Burgers, Dogs and Wings",
    "street_address": "81 Lake Street",
    "city": "Delaware",
    "state": "OH",
    "zip_code": "43015",
    "latitude": 40.30090000000001,
    "longitude": -83.05910449999999,
    "website": "http://smashshackburgers.com/",
    "category": "Restaurant",
    "types": "meal_takeaway, restaurant, food, point_of_interest, establishment"
  },
  {
    "place_id": "ChIJP87fktn6OIgRNcgje_xGDs4",
    "name": "The Old Bag of Nails Pub - Delaware",
    "street_address": "66 North Sandusky Street",
    "city": "Delaware",
    "state": "OH",
    "zip_code": "43015",
    "latitude": 40.30092899999999,
    "longitude": -83.067332,
    "website": "http://www.oldbagofnails.com/",
    "category": "Bar & Restaurant",
    "types": "restaurant, bar, food, point_of_interest, establishment"
  },
  {
    "place_id": "ChIJy6DqC9r6OIgRSM_ckNnkoHM",
    "name": "Son of Thurman",
    "street_address": "5 North Sandusky Street",
    "city": "Delaware",
    "state": "OH",
    "zip_code": "43015",
    "latitude": 40.2991301,
    "longitude": -83.0680802,
    "website": "http://sonofthurman.com/",
    "category": "Restaurant",
    "types": "restaurant, food, point_of_interest, establishment"
  },
  {
    "place_id": "ChIJMcKKH-PkOIgRQ_PdZ0ABmk0",
    "name": "Buffalo Wild Wings",
    "street_address": "475 North Houk Road",
    "city": "Delaware",
    "state": "OH",
    "zip_code": "43015",
    "latitude": 40.31047460000001,
    "longitude": -83.1099807,
    "website": "https://www.buffalowildwings.com/locations/us/oh/delaware/475-n-houk-rd/sports-bar-56?utm_source=google%20my%20business&utm_medium=organic&utm_campaign=website%20link",
    "category": "Bar & Restaurant",
    "types": "meal_takeaway, bar, restaurant, food, point_of_interest, establishment"
  },
  {
    "place_id": "ChIJQaWoHxLwOIgRrmbWE6T5UAU",
    "name": "Gabby's Italian Restaurant",
    "street_address": "3120 Olentangy River Rd",
    "city": "Delaware",
    "state": "OH",
    "zip_code": "43015",
    "latitude": 40.2528991,
    "longitude": -83.06306169999999,
    "website": "https://www.gabbysitalian.com/",
    "category": "Bar & Restaurant",
    "types": "meal_takeaway, bar, restaurant, food, point_of_interest, establishment"
  },
  {
    "place_id": "ChIJvVUI4NfkOIgRCzB-mdfB_eA",
    "name": "Shorty's",
    "street_address": "554 West Central Avenue",
    "city": "Delaware",
    "state": "OH",
    "zip_code": "43015",
    "latitude": 40.30645669999999,
    "longitude": -83.0885934,
    "website": "https://www.shortyspizzaohio.com/delaware-oh",
    "category": "Restaurant",
    "types": "restaurant, food, point_of_interest, establishment"
  },
  {
    "place_id": "ChIJX7auEdr6OIgR2N4hqSsrhWE",
    "name": "Hamburger Inn Diner",
    "street_address": "16 North Sandusky Street",
    "city": "Delaware",
    "state": "OH",
    "zip_code": "43015",
    "latitude": 40.29927800000001,
    "longitude": -83.067448,
    "website": "http://hamburgerinndiner.com/",
    "category": "Restaurant",
    "types": "restaurant, food, point_of_interest, establishment"
  },
  {
    "place_id": "ChIJDf3SVNf6OIgRGZv7WwPyaJg",
    "name": "Bun's Restaurant and Bar",
    "street_address": "14 West Winter Street",
    "city": "Delaware",
    "state": "OH",
    "zip_code": "43015",
    "latitude": 40.3003752,
    "longitude": -83.06848289999999,
    "website": "http://www.bunsrestaurantandbar.com/",
    "category": "Restaurant",
    "types": "restaurant, food, point_of_interest, establishment"
  },
  {
    "place_id": "ChIJq6peEdr6OIgRecjBzZJGiPc",
    "name": "Typhoon Asian Fusion Bistro",
    "street_address": "10 North Sandusky Street",
    "city": "Delaware",
    "state": "OH",
    "zip_code": "43015",
    "latitude": 40.2991782,
    "longitude": -83.0674312,
    "website": "https://www.ohtyphoon.com/",
    "category": "Bar & Restaurant",
    "types": "bar, restaurant, food, point_of_interest, establishment"
  },
  {
    "place_id": "ChIJ_-TKEyn7OIgRlZiYdtkzrME",
    "name": "Rosebud's",
    "street_address": "15 East Winter Street",
    "city": "Delaware",
    "state": "OH",
    "zip_code": "43015",
    "latitude": 40.30034109999999,
    "longitude": -83.0670006,
    "website": "https://www.missrosebuds.com/",
    "category": "Bar & Restaurant",
    "types": "bar, restaurant, food, point_of_interest, establishment"
  },
  {
    "place_id": "ChIJZcIYiNn6OIgR33Pizrs9bmw",
    "name": "1808 American Bistro",
    "street_address": "29 East Winter Street",
    "city": "Delaware",
    "state": "OH",
    "zip_code": "43015",
    "latitude": 40.300304,
    "longitude": -83.0664293,
    "website": "http://1808americanbistro.com/",
    "category": "Bar & Restaurant",
    "types": "bar, restaurant, food, point_of_interest, establishment"
  },
  {
    "place_id": "ChIJMSmZVyl7OIgRtJCrA0EUWBw",
    "name": "Roosters",
    "street_address": "1500 Stonecreek Drive",
    "city": "Pickerington",
    "state": "OH",
    "zip_code": "43147",
    "latitude": 39.915093,
    "longitude": -82.7832013,
    "website": "http://www.roosterswings.com/",
    "category": "Restaurant",
    "types": "restaurant, food, point_of_interest, establishment"
  },
  {
    "place_id": "ChIJD9ObnCt6OIgRKWPfVX1_4Lg",
    "name": "The Ugly Mug Bar & Grill",
    "street_address": "9645 Basil Western Road",
    "city": "Canal Winchester",
    "state": "OH",
    "zip_code": "43110",
    "latitude": 39.84286749999999,
    "longitude": -82.77490949999999,
    "website": "http://www.theuglymugbarandgrill.com/",
    "category": "Bar & Restaurant",
    "types": "bar, restaurant, food, point_of_interest, establishment"
  },
  {
    "place_id": "ChIJ4-1T46J7OIgRjc4xza0bmzw",
    "name": "Homestead Taproom & Kitchen",
    "street_address": "10 South High Street",
    "city": "Canal Winchester",
    "state": "OH",
    "zip_code": "43110",
    "latitude": 39.8424255,
    "longitude": -82.8059641,
    "website": "https://homesteadtaproomkitchen.com/",
    "category": "Bar & Restaurant",
    "types": "restaurant, bar, food, point_of_interest, establishment"
  },
  {
    "place_id": "ChIJfczomN56OIgRdnLcS7VkSSA",
    "name": "The Old Bag of Nails Pub - Pickerington",
    "street_address": "797 Hill Road North",
    "city": "Pickerington",
    "state": "OH",
    "zip_code": "43147",
    "latitude": 39.90297,
    "longitude": -82.77242969999999,
    "website": "https://www.oldbagofnails.com/locations/pickerington-oh",
    "category": "Bar & Restaurant",
    "types": "restaurant, bar, food, point_of_interest, establishment"
  },
  {
    "place_id": "ChIJQ2292Kd6OIgRzPaSAhvbwdc",
    "name": "Cardo's Pizza & Tavern",
    "street_address": "7897 Refugee Road",
    "city": "Pickerington",
    "state": "OH",
    "zip_code": "43147",
    "latitude": 39.9061794,
    "longitude": -82.7365006,
    "website": "http://www.cardospizzaandtavern.com/",
    "category": "Bar & Restaurant",
    "types": "restaurant, bar, food, point_of_interest, establishment"
  },
  {
    "place_id": "ChIJ4XqdQMJ7OIgRqe0AjI8NDLE",
    "name": "Hangry City Grille and Spirits",
    "street_address": "1252 Hill Road North",
    "city": "Pickerington",
    "state": "OH",
    "zip_code": "43147",
    "latitude": 39.9135919,
    "longitude": -82.7786754,
    "website": "http://hangrycity.net/",
    "category": "Restaurant",
    "types": "restaurant, food, point_of_interest, establishment"
  },
  {
    "place_id": "ChIJV7wwzuN7OIgRv7BKvX3IxMs",
    "name": "Roman's Pizza Pub",
    "street_address": "17 North High Street",
    "city": "Canal Winchester",
    "state": "OH",
    "zip_code": "43110",
    "latitude": 39.8433183,
    "longitude": -82.80547779999999,
    "website": "https://romanspizzapub.com/",
    "category": "Bar & Restaurant",
    "types": "bar, restaurant, food, point_of_interest, establishment"
  },
  {
    "place_id": "ChIJEW8b4Jt7OIgR4zn_ZgUR57o",
    "name": "MacKenzie River Pizza, Grill & Pub",
    "street_address": "1281 Hill Road North",
    "city": "Pickerington",
    "state": "OH",
    "zip_code": "43147",
    "latitude": 39.9153054,
    "longitude": -82.78092989999999,
    "website": "https://locations.mackenzieriverpizza.com/locations/oh/pickerington/1281-hill-road-north/",
    "category": "Restaurant",
    "types": "restaurant, food, point_of_interest, establishment"
  },
  {
    "place_id": "ChIJ7XtfnN56OIgRCX3JLDNGivw",
    "name": "Thai Paradise",
    "street_address": "1268 Hill Road North",
    "city": "Pickerington",
    "state": "OH",
    "zip_code": "43147",
    "latitude": 39.9141667,
    "longitude": -82.7788889,
    "website": "https://thaiparadise.shop/",
    "category": "Restaurant",
    "types": "restaurant, food, point_of_interest, establishment"
  },
  {
    "place_id": "ChIJ99VXWmx7OIgRwYYXGou8PqA",
    "name": "Local Cantina Canal Winchester",
    "street_address": "20 West Waterloo Street",
    "city": "Canal Winchester",
    "state": "OH",
    "zip_code": "43110",
    "latitude": 39.843406,
    "longitude": -82.80637469999999,
    "website": "http://www.localcantina.com/",
    "category": "Restaurant",
    "types": "restaurant, food, point_of_interest, establishment"
  },
  {
    "place_id": "ChIJR5OcO-J7OIgRhFTSJf0Co7I",
    "name": "Shade",
    "street_address": "19 South High Street",
    "city": "Canal Winchester",
    "state": "OH",
    "zip_code": "43110",
    "latitude": 39.842074,
    "longitude": -82.805362,
    "website": "https://www.shaderestaurants.com/",
    "category": "Bar & Restaurant",
    "types": "meal_takeaway, bar, restaurant, food, point_of_interest, establishment"
  },
  {
    "place_id": "ChIJQ9IBN9xlOIgRNGNfUeYXABQ",
    "name": "Jay's Crab Boil & Oyster Bar",
    "street_address": "10705 Blacklick-Eastern Road Northwest",
    "city": "Pickerington",
    "state": "OH",
    "zip_code": "43147",
    "latitude": 39.9281882,
    "longitude": -82.7869078,
    "website": "http://jayscrabboil.com/",
    "category": "Restaurant",
    "types": "restaurant, food, point_of_interest, establishment"
  },
  {
    "place_id": "ChIJFybyFfiKR4gR4zWgYjacAmo",
    "name": "Ale House 1890",
    "street_address": "149 West Main Street",
    "city": "Lancaster",
    "state": "OH",
    "zip_code": "43130",
    "latitude": 39.7140343,
    "longitude": -82.603809,
    "website": "http://alehouse1890.com/",
    "category": "Bar & Restaurant",
    "types": "restaurant, bar, food, point_of_interest, establishment"
  },
  {
    "place_id": "ChIJGxMwvMKKR4gRJih0DhlF6Bg",
    "name": "Cherry Street Pub",
    "street_address": "202 North Cherry Street",
    "city": "Lancaster",
    "state": "OH",
    "zip_code": "43130",
    "latitude": 39.7146614,
    "longitude": -82.58258649999999,
    "website": "http://cherrystreetpub.com/",
    "category": "Bar & Restaurant",
    "types": "bar, restaurant, food, point_of_interest, establishment"
  },
  {
    "place_id": "ChIJ4TWFCFCKR4gRJU6N1uhihIk",
    "name": "Old Bill Bailey's",
    "street_address": "200 Harrison Avenue",
    "city": "Lancaster",
    "state": "OH",
    "zip_code": "43130",
    "latitude": 39.715495,
    "longitude": -82.6154129,
    "website": "https://www.facebook.com/oldbillbaileys/",
    "category": "Bar & Restaurant",
    "types": "bar, restaurant, food, point_of_interest, establishment"
  },
  {
    "place_id": "ChIJ7zsaQfOKR4gR7KE85Itg-uw",
    "name": "Fairview Inn",
    "street_address": "176 East Fair Avenue",
    "city": "Lancaster",
    "state": "OH",
    "zip_code": "43130",
    "latitude": 39.723715,
    "longitude": -82.598534,
    "website": "https://www.facebook.com/Fairview-Inn-Bar-1488195281401320",
    "category": "Bar & Restaurant",
    "types": "bar, restaurant, food, point_of_interest, establishment"
  },
  {
    "place_id": "ChIJ5aQ9EviKR4gRs5El2RQs6N8",
    "name": "O'Huids Gaelic Pub",
    "street_address": "167 West Main Street",
    "city": "Lancaster",
    "state": "OH",
    "zip_code": "43130",
    "latitude": 39.7139275,
    "longitude": -82.6044453,
    "website": "https://www.facebook.com/OHuids-Gaelic-Pub-1501128779964179/",
    "category": "Bar & Restaurant",
    "types": "bar, restaurant, food, point_of_interest, establishment"
  },
  {
    "place_id": "ChIJ0bvMwuiKR4gRBamLu9E_JOw",
    "name": "Madison's Bar & Grill",
    "street_address": "226 Madison Avenue",
    "city": "Lancaster",
    "state": "OH",
    "zip_code": "43130",
    "latitude": 39.71579479999999,
    "longitude": -82.5876236,
    "website": "https://www.facebook.com/pages/Madisons-Bar-Grill/117548131604836",
    "category": "Bar & Restaurant",
    "types": "bar, restaurant, food, point_of_interest, establishment"
  },
  {
    "place_id": "ChIJZYZ3iuaLR4gRreHVcKl4X54",
    "name": "JB's Downtown Grill",
    "street_address": "111 North Columbus Street",
    "city": "Lancaster",
    "state": "OH",
    "zip_code": "43130",
    "latitude": 39.7142539,
    "longitude": -82.604738,
    "website": "http://jbsdowntowngrill.com/",
    "category": "Restaurant",
    "types": "restaurant, point_of_interest, food, establishment"
  },
  {
    "place_id": "ChIJv-ZTjuWKR4gReFTBbFigN64",
    "name": "Main Event",
    "street_address": "601 East Main Street",
    "city": "Lancaster",
    "state": "OH",
    "zip_code": "43130",
    "latitude": 39.7136012,
    "longitude": -82.59080999999999,
    "website": "https://www.maineventlancaster.com/",
    "category": "Bar & Restaurant",
    "types": "restaurant, bar, food, point_of_interest, establishment"
  },
  {
    "place_id": "ChIJzeRo0GaKR4gRJl_N8UxuejA",
    "name": "Buffalo Wild Wings",
    "street_address": "1283 North Memorial Drive",
    "city": "Lancaster",
    "state": "OH",
    "zip_code": "43130",
    "latitude": 39.7288765,
    "longitude": -82.61166279999999,
    "website": "https://www.buffalowildwings.com/locations/us/oh/lancaster/1283-north-memorial-drive/sports-bar-284?utm_source=google%20my%20business&utm_medium=organic&utm_campaign=website%20link",
    "category": "Bar & Restaurant",
    "types": "meal_takeaway, bar, restaurant, point_of_interest, food, establishment"
  },
  {
    "place_id": "ChIJVQOttmCKR4gRtovttYk_SAQ",
    "name": "The Mediterranean",
    "street_address": "1147 North Memorial Drive",
    "city": "Lancaster",
    "state": "OH",
    "zip_code": "43130",
    "latitude": 39.726946,
    "longitude": -82.61082600000002,
    "website": "https://medion33.com/",
    "category": "Bar & Restaurant",
    "types": "bar, restaurant, food, point_of_interest, establishment"
  },
  {
    "place_id": "ChIJ_yrtDwSKR4gRAsciZJYbWuE",
    "name": "Max & Erma's",
    "street_address": "2703 North Memorial Drive",
    "city": "Lancaster",
    "state": "OH",
    "zip_code": "43130",
    "latitude": 39.74225499999999,
    "longitude": -82.64229499999999,
    "website": "http://www.maxandermas.com/",
    "category": "Bar & Restaurant",
    "types": "bar, restaurant, food, point_of_interest, establishment"
  },
  {
    "place_id": "ChIJRTG0GF6KR4gRShxbSoleP2w",
    "name": "Roosters",
    "street_address": "1009 North Memorial Drive",
    "city": "Lancaster",
    "state": "OH",
    "zip_code": "43130",
    "latitude": 39.7251205,
    "longitude": -82.60916139999999,
    "website": "http://www.roosterswings.com/",
    "category": "Bar & Restaurant",
    "types": "bar, restaurant, food, point_of_interest, establishment"
  },
  {
    "place_id": "ChIJb3KRJhOKR4gRcZpREYnI3xA",
    "name": "Applebee's Grill + Bar",
    "street_address": "1615 River Valley Circle North",
    "city": "Lancaster",
    "state": "OH",
    "zip_code": "43130",
    "latitude": 39.73429849999999,
    "longitude": -82.62762099999999,
    "website": "https://restaurants.applebees.com/en-us/oh/lancaster/1615-rivervalley-circle-north-90036?utm_source=google&utm_medium=organic&utm_campaign=google_my_business&utm_term=90036&utm_content=website",
    "category": "Bar & Restaurant",
    "types": "restaurant, bar, food, point_of_interest, establishment"
  },
  {
    "place_id": "ChIJX0b7ua6KR4gR-Xa8Piug7HQ",
    "name": "Cristy's Pizza Lancaster East",
    "street_address": "1436 Tiki Lane",
    "city": "Lancaster",
    "state": "OH",
    "zip_code": "43130",
    "latitude": 39.73726,
    "longitude": -82.568547,
    "website": "https://cristyspizza.com/lancaster-ohio-tiki-lane/",
    "category": "Restaurant",
    "types": "meal_delivery, meal_takeaway, restaurant, food, point_of_interest, establishment"
  },
  {
    "place_id": "ChIJ05fmQ-WKR4gR44IOkrDXPAQ",
    "name": "El Parian Steaks & Tequila - Lancaster",
    "street_address": "123 North Broad Street",
    "city": "Lancaster",
    "state": "OH",
    "zip_code": "43130",
    "latitude": 39.714573,
    "longitude": -82.60220439999999,
    "website": "https://elpariansteakstequilalancasteroh.com/",
    "category": "Restaurant",
    "types": "restaurant, food, point_of_interest, establishment"
  },
  {
    "place_id": "ChIJgUF_ysKKR4gRyLvHl6vjRfM",
    "name": "Pink Cricket Restaurant",
    "street_address": "929 East Main Street",
    "city": "Lancaster",
    "state": "OH",
    "zip_code": "43130",
    "latitude": 39.71365599999999,
    "longitude": -82.582116,
    "website": "https://www.pinkcricketlancaster.com/",
    "category": "Restaurant",
    "types": "restaurant, food, point_of_interest, establishment"
  },
  {
    "place_id": "ChIJG9z3Im2KR4gRl3NHe9MOPBc",
    "name": "Olive Garden Italian Restaurant",
    "street_address": "2093 Schorr Way Drive",
    "city": "Lancaster",
    "state": "OH",
    "zip_code": "43130",
    "latitude": 39.734702,
    "longitude": -82.62554899999999,
    "website": "https://www.olivegarden.com/locations/oh/lancaster/lancaster-river-valley-mall/1509?cmpid=br:og_ag:ie_ch:loc_ca:OGGMB_sn:gmb_gt:lancaster-oh-1509_pl:locurl_rd:1382",
    "category": "Bar & Restaurant",
    "types": "meal_takeaway, bar, restaurant, food, point_of_interest, establishment"
  },
  {
    "place_id": "ChIJVVVlD9kXOIgRNbYxizinmLo",
    "name": "The Newark Hub",
    "street_address": "370 West Church Street",
    "city": "Newark",
    "state": "OH",
    "zip_code": "43055",
    "latitude": 40.0576091,
    "longitude": -82.4179269,
    "website": "http://www.facebook.com/Thenewarkhub/",
    "category": "Bar & Restaurant",
    "types": "bar, restaurant, food, point_of_interest, establishment"
  },
  {
    "place_id": "ChIJK9tJwzQXOIgRCON9wpsv1Yc",
    "name": "Homefires Grill",
    "street_address": "380 Seroco Avenue",
    "city": "Newark",
    "state": "OH",
    "zip_code": "43055",
    "latitude": 40.0487328,
    "longitude": -82.4134598,
    "website": "https://homefiresgrill.com/",
    "category": "Restaurant",
    "types": "restaurant, food, point_of_interest, establishment"
  },
  {
    "place_id": "ChIJe3qcS-IXOIgRRoGa5tmJoNI",
    "name": "Draft House",
    "street_address": "15 West Main Street",
    "city": "Newark",
    "state": "OH",
    "zip_code": "43055",
    "latitude": 40.05726059999999,
    "longitude": -82.40315530000001,
    "website": null,
    "category": "Bar & Restaurant",
    "types": "bar, restaurant, food, point_of_interest, establishment"
  },
  {
    "place_id": "ChIJC8VLKwo9OIgRR0zOlJ9p_gc",
    "name": "Red Oak Pub and Restaurant",
    "street_address": "250 Goose Pond Road",
    "city": "Newark",
    "state": "OH",
    "zip_code": "43055",
    "latitude": 40.087278,
    "longitude": -82.4290764,
    "website": "https://www.redoakpub.com/",
    "category": "Bar & Restaurant",
    "types": "bar, restaurant, point_of_interest, food, establishment"
  },
  {
    "place_id": "ChIJOcJOSOIXOIgRFpV_q0mss1A",
    "name": "Elliot's Wood Fired Kitchen & Tap",
    "street_address": "16 West Main Street",
    "city": "Newark",
    "state": "OH",
    "zip_code": "43055",
    "latitude": 40.0577514,
    "longitude": -82.4033844,
    "website": "https://www.elliotspizzarestaurantnewark.com/",
    "category": "Bar & Restaurant",
    "types": "bar, restaurant, food, point_of_interest, establishment"
  },
  {
    "place_id": "ChIJYWj2hawiOIgRZP_8rfae02U",
    "name": "Bummie's On Main",
    "street_address": "400 West Main Street",
    "city": "Newark",
    "state": "OH",
    "zip_code": "43055",
    "latitude": 40.0542932,
    "longitude": -82.41807519999999,
    "website": "http://bummiesonmain.com/",
    "category": "Bar & Restaurant",
    "types": "restaurant, meal_takeaway, bar, food, point_of_interest, establishment"
  },
  {
    "place_id": "ChIJha51VosXOIgR7TCrTTpOdr8",
    "name": "Shipp Brothers Brewing Restaurant & Taproom",
    "street_address": "23 West Church Street",
    "city": "Newark",
    "state": "OH",
    "zip_code": "43055",
    "latitude": 40.0586584,
    "longitude": -82.404196,
    "website": "https://www.shippbrothersbrewing.com/",
    "category": "Bar & Restaurant",
    "types": "bar, restaurant, food, point_of_interest, establishment"
  },
  {
    "place_id": "ChIJKf3fcwY9OIgRV-rMvwQRKLc",
    "name": "The Old Bag of Nails Pub - Newark",
    "street_address": "1671 North 21st Street",
    "city": "Newark",
    "state": "OH",
    "zip_code": "43055",
    "latitude": 40.09365,
    "longitude": -82.42715679999999,
    "website": "http://www.oldbagofnails.com/",
    "category": "Bar & Restaurant",
    "types": "restaurant, bar, food, point_of_interest, establishment"
  },
  {
    "place_id": "ChIJOW0Bs5k9OIgRhY1s7d0-wCY",
    "name": "OX-B's",
    "street_address": "917 North 21st Street",
    "city": "Newark",
    "state": "OH",
    "zip_code": "43055",
    "latitude": 40.0733052,
    "longitude": -82.42914239999999,
    "website": "https://www.oxbs.com/",
    "category": "Restaurant",
    "types": "restaurant, food, point_of_interest, establishment"
  },
  {
    "place_id": "ChIJ4yV8xfgXOIgRv6wYnTCpFu0",
    "name": "Earthworks Cafe & Lounge",
    "street_address": "325 West Main Street",
    "city": "Newark",
    "state": "OH",
    "zip_code": "43055",
    "latitude": 40.0544567,
    "longitude": -82.41439439999999,
    "website": "https://www.newark-station.com/",
    "category": "Bar & Restaurant",
    "types": "night_club, cafe, bar, store, restaurant, food, point_of_interest, establishment"
  },
  {
    "place_id": "ChIJaVCUGOIXOIgRwrpjYpR2VAM",
    "name": "Moe's Original BBQ",
    "street_address": "21 West Church Street",
    "city": "Newark",
    "state": "OH",
    "zip_code": "43055",
    "latitude": 40.058673,
    "longitude": -82.4041032,
    "website": "https://www.moesoriginalbbq.com/lo/newark",
    "category": "Bar & Restaurant",
    "types": "bar, restaurant, food, point_of_interest, establishment"
  },
  {
    "place_id": "ChIJgcJF8As9OIgRPEwGziZdzgQ",
    "name": "Roosters",
    "street_address": "1414 North 21st Street",
    "city": "Newark",
    "state": "OH",
    "zip_code": "43055",
    "latitude": 40.086096,
    "longitude": -82.42703499999999,
    "website": "http://www.roosterswings.com/",
    "category": "Restaurant",
    "types": "restaurant, food, point_of_interest, establishment"
  }
]