[
  {
    "place_id": "ChIJb6qoE9WZToYRHwPsALnCRAA",
    "name": "Hero",
    "street_address": "3090 Nowitzki Way",
    "city": "Dallas",
    "state": "TX",
    "zip_code": "75219",
    "latitude": 32.7893868,
    "longitude": -96.80964399999999,
    "website": "http://www.herobyhg.com/",
    "category": "Bar & Restaurant",
    "types": "night_club, bar, restaurant, point_of_interest, food, establishment"
  },
  {
    "place_id": "ChIJ0RmJXRiZToYRlEzKpECzHdw",
    "name": "Frankie's Downtown",
    "street_address": "1303 Main Street",
    "city": "Dallas",
    "state": "TX",
    "zip_code": "75202",
    "latitude": 32.7804885,
    "longitude": -96.8006992,
    "website": "https://www.frankiesbar.com/",
    "category": "Bar & Restaurant",
    "types": "bar, restaurant, food, point_of_interest, establishment"
  },
  {
    "place_id": "ChIJS_Yjah-ZToYRJWd9XDazHpI",
    "name": "The Crafty Irishman",
    "street_address": "1800 Main Street",
    "city": "Dallas",
    "state": "TX",
    "zip_code": "75201",
    "latitude": 32.7811311,
    "longitude": -96.79626239999999,
    "website": "https://www.thecraftyirishman.com/",
    "category": "Bar & Restaurant",
    "types": "bar, restaurant, food, point_of_interest, establishment"
  },
  {
    "place_id": "ChIJ5R35sx-ZToYRm9uIeRNysRY",
    "name": "Harwood Tavern",
    "street_address": "333 South Harwood Street",
    "city": "Dallas",
    "state": "TX",
    "zip_code": "75201",
    "latitude": 32.7797204,
    "longitude": -96.7937455,
    "website": "http://harwoodtaverndallas.com/",
    "category": "Bar & Restaurant",
    "types": "bar, restaurant, food, point_of_interest, establishment"
  },
  {
    "place_id": "ChIJbU01oxiZToYR7SbEzKcmmrw",
    "name": "The Woolworth",
    "street_address": "1520 Elm Street",
    "city": "Dallas",
    "state": "TX",
    "zip_code": "75201",
    "latitude": 32.7813256,
    "longitude": -96.7987239,
    "website": "https://www.thewoolworthdallas.com/",
    "category": "Bar & Restaurant",
    "types": "restaurant, bar, food, point_of_interest, establishment"
  },
  {
    "place_id": "ChIJMbrgf9SeToYREJVY_ZuG_0Q",
    "name": "Uptown Pub",
    "street_address": "3605 McKinney Avenue",
    "city": "Dallas",
    "state": "TX",
    "zip_code": "75204",
    "latitude": 32.8073249,
    "longitude": -96.79767059999999,
    "website": "http://www.uptownpubdtx.com/",
    "category": "Bar & Restaurant",
    "types": "bar, restaurant, food, point_of_interest, establishment"
  },
  {
    "place_id": "ChIJsSXcXDGZToYRp8aVk-17Vic",
    "name": "Stoneleigh P",
    "street_address": "4218 Lemmon Avenue",
    "city": "Dallas",
    "state": "TX",
    "zip_code": "75219",
    "latitude": 32.81659640000001,
    "longitude": -96.81046359999999,
    "website": "https://www.thestoneleighp.com/",
    "category": "Bar & Restaurant",
    "types": "bar, restaurant, food, point_of_interest, establishment"
  },
  {
    "place_id": "ChIJjSSyfs6YToYRAklisOmlYWQ",
    "name": "Bryan Street Tavern",
    "street_address": "4315 Bryan Street",
    "city": "Dallas",
    "state": "TX",
    "zip_code": "75204",
    "latitude": 32.7996855,
    "longitude": -96.7792473,
    "website": "https://bryanstreettavern.com/",
    "category": "Bar & Restaurant",
    "types": "bar, restaurant, food, point_of_interest, establishment"
  },
  {
    "place_id": "ChIJmZZVAzWZToYRWKTPF-3nLN0",
    "name": "Rodeo Bar",
    "street_address": "1321 Commerce Street",
    "city": "Dallas",
    "state": "TX",
    "zip_code": "75202",
    "latitude": 32.7799743,
    "longitude": -96.7995024,
    "website": "https://www.adolphus.com/restaurants-bars/rodeo-bar?utm_source=google-gbp&utm_medium=organic&utm_campaign=gbp",
    "category": "Bar & Restaurant",
    "types": "bar, restaurant, food, point_of_interest, establishment"
  },
  {
    "place_id": "ChIJeyUD9RiZToYRhPdp_lY3W1Y",
    "name": "City Tavern",
    "street_address": "1514 Elm Street",
    "city": "Dallas",
    "state": "TX",
    "zip_code": "75201",
    "latitude": 32.78130099999999,
    "longitude": -96.79910079999999,
    "website": "https://citytaverndowntown.com/",
    "category": "Bar & Restaurant",
    "types": "bar, restaurant, point_of_interest, food, establishment"
  },
  {
    "place_id": "ChIJS6tIBSybToYRFUK8sERiYkE",
    "name": "Cannon's Corner Irish Pub",
    "street_address": "1314 West Davis Street",
    "city": "Dallas",
    "state": "TX",
    "zip_code": "75208",
    "latitude": 32.7492561,
    "longitude": -96.84372959999999,
    "website": "https://www.cannonsirishpub.com/",
    "category": "Restaurant",
    "types": "restaurant, food, point_of_interest, establishment"
  },
  {
    "place_id": "ChIJvbtoONOeToYR4NYB5NYqgxs",
    "name": "The Loon",
    "street_address": "3028 North Hall Street",
    "city": "Dallas",
    "state": "TX",
    "zip_code": "75204",
    "latitude": 32.8048802,
    "longitude": -96.7999411,
    "website": "https://www.theloonbar.com/?utm_source=local&utm_medium=organic&utm_campaign=gmb",
    "category": "Bar & Restaurant",
    "types": "bar, restaurant, food, point_of_interest, establishment"
  },
  {
    "place_id": "ChIJ3aaOA06ZToYR8NFgiHe0pT4",
    "name": "Rodeo Goat",
    "street_address": "1926 Market Center Boulevard",
    "city": "Dallas",
    "state": "TX",
    "zip_code": "75207",
    "latitude": 32.7972052,
    "longitude": -96.82391489999999,
    "website": "http://rodeogoat.com/dallas/",
    "category": "Bar & Restaurant",
    "types": "bar, restaurant, food, point_of_interest, establishment"
  },
  {
    "place_id": "ChIJ1Yd6keCZToYR_i74UlqYcas",
    "name": "Patrick Kennedy's Irish Pub",
    "street_address": "1201 Main Street",
    "city": "Dallas",
    "state": "TX",
    "zip_code": "75202",
    "latitude": 32.7804991,
    "longitude": -96.8018622,
    "website": "https://www.patrickkennedysirishpub.com/",
    "category": "Bar & Restaurant",
    "types": "bar, restaurant, point_of_interest, food, establishment"
  },
  {
    "place_id": "ChIJL2Ac-C6aToYR1WMPJgkEnOo",
    "name": "PhD - Pour House Dallas",
    "street_address": "1300 West Davis Street",
    "city": "Dallas",
    "state": "TX",
    "zip_code": "75208",
    "latitude": 32.7492539,
    "longitude": -96.8431581,
    "website": "http://phdallas.com/",
    "category": "Bar & Restaurant",
    "types": "bar, restaurant, food, point_of_interest, establishment"
  },
  {
    "place_id": "ChIJD9x7Ux-ZToYROqNYr_073BU",
    "name": "Press Box Grill",
    "street_address": "1623 Main Street",
    "city": "Dallas",
    "state": "TX",
    "zip_code": "75201",
    "latitude": 32.7816477,
    "longitude": -96.7974584,
    "website": "http://www.pressboxgrill.com/",
    "category": "Bar & Restaurant",
    "types": "bar, restaurant, food, point_of_interest, establishment"
  },
  {
    "place_id": "ChIJq95y1heZToYRB4jVDi2Eiw0",
    "name": "Bar W",
    "street_address": "2926 Maple Avenue",
    "city": "Dallas",
    "state": "TX",
    "zip_code": "75201",
    "latitude": 32.7980123,
    "longitude": -96.80699919999999,
    "website": null,
    "category": "Bar & Restaurant",
    "types": "restaurant, bar, food, point_of_interest, establishment"
  },
  {
    "place_id": "ChIJN0ygdJafToYRGa3FyZGuo6o",
    "name": "Roy G's",
    "street_address": "4001 Cedar Springs Road",
    "city": "Dallas",
    "state": "TX",
    "zip_code": "75219",
    "latitude": 32.810988,
    "longitude": -96.8116146,
    "website": "https://www.roygs.com/",
    "category": "Bar & Restaurant",
    "types": "bar, restaurant, food, point_of_interest, establishment"
  },
  {
    "place_id": "ChIJAwIv8MueToYR8pFzS_Gmfyc",
    "name": "The Library",
    "street_address": "3015 Oak Lawn Avenue",
    "city": "Dallas",
    "state": "TX",
    "zip_code": "75219",
    "latitude": 32.8090192,
    "longitude": -96.80932050000001,
    "website": "https://www.librarybardallas.com/",
    "category": "Bar & Restaurant",
    "types": "bar, restaurant, food, point_of_interest, establishment"
  },
  {
    "place_id": "ChIJIcjH5k-ZToYRn64Eb-YIRNI",
    "name": "Beehive (Restaurant-Bar-Lounge)",
    "street_address": "1514 Elm Street",
    "city": "Dallas",
    "state": "TX",
    "zip_code": "75201",
    "latitude": 32.7813745,
    "longitude": -96.7990107,
    "website": "https://www.thebeehiverestaurant.com/",
    "category": "Restaurant",
    "types": "restaurant, food, point_of_interest, establishment"
  },
  {
    "place_id": "ChIJd0GlbLqZToYR5pmP1Wlo39U",
    "name": "The Henry",
    "street_address": "2301 North Akard Street",
    "city": "Dallas",
    "state": "TX",
    "zip_code": "75201",
    "latitude": 32.7892021,
    "longitude": -96.8055857,
    "website": "https://www.thehenryrestaurant.com/locations/the-henry-dallas/?utm_source=Google&utm_medium=Organic&utm_campaign=Maps",
    "category": "Bar & Restaurant",
    "types": "cafe, bar, store, restaurant, food, point_of_interest, establishment"
  },
  {
    "place_id": "ChIJHxxY6ZCZToYRm0kd5wYhBY0",
    "name": "Hops & Hens",
    "street_address": "665 South Lamar Street",
    "city": "Dallas",
    "state": "TX",
    "zip_code": "75202",
    "latitude": 32.7754503,
    "longitude": -96.8035864,
    "website": "https://www.omnihotels.com/hotels/dallas/dining/restaurants-on-lamar/hops-and-hens?utm_source=gmblisting&utm_medium=organic",
    "category": "Restaurant",
    "types": "restaurant, food, point_of_interest, establishment"
  },
  {
    "place_id": "ChIJ30TpHYmfToYRYY7uLprsP9Q",
    "name": "River Pig Saloon",
    "street_address": "1720 Greenville Avenue",
    "city": "Dallas",
    "state": "TX",
    "zip_code": "75206",
    "latitude": 32.8117618,
    "longitude": -96.76986219999999,
    "website": "http://riverpigsaloon.com/?utm_source=google-gmb-maps&utm_medium=gmb-website-button&utm_campaign=locl.io&utm_content=c90811ca-e89c-43d3-b866-36e17c637668",
    "category": "Bar & Restaurant",
    "types": "restaurant, bar, food, point_of_interest, establishment"
  },
  {
    "place_id": "ChIJ4aLMrP2YToYRk33N4rk2Fsw",
    "name": "Lee Harvey's",
    "street_address": "1807 Gould Street",
    "city": "Dallas",
    "state": "TX",
    "zip_code": "75215",
    "latitude": 32.76795679999999,
    "longitude": -96.7895853,
    "website": "http://leeharveys.com/",
    "category": "Bar & Restaurant",
    "types": "bar, restaurant, food, point_of_interest, establishment"
  },
  {
    "place_id": "ChIJyS6-g92YToYRqsIXgysq-hQ",
    "name": "Dot's Hop House & Cocktail Courtyard",
    "street_address": "2645 Commerce Street",
    "city": "Dallas",
    "state": "TX",
    "zip_code": "75226",
    "latitude": 32.78320740000001,
    "longitude": -96.7844854,
    "website": "http://dotshophouse.com/",
    "category": "Bar & Restaurant",
    "types": "bar, restaurant, food, point_of_interest, establishment"
  },
  {
    "place_id": "ChIJlwgL8N6YToYR4whaqU9eUZU",
    "name": "Backyard - Dallas",
    "street_address": "505 North Good Latimer Expressway",
    "city": "Dallas",
    "state": "TX",
    "zip_code": "75204",
    "latitude": 32.785845,
    "longitude": -96.7892279,
    "website": "https://backyarddallas.com/",
    "category": "Bar & Restaurant",
    "types": "bar, restaurant, food, point_of_interest, establishment"
  },
  {
    "place_id": "ChIJDeCcqxCZToYRe-4VAGbHJXc",
    "name": "The Owners Box",
    "street_address": "555 South Lamar Street",
    "city": "Dallas",
    "state": "TX",
    "zip_code": "75202",
    "latitude": 32.7748892,
    "longitude": -96.8036387,
    "website": "https://www.omnihotels.com/hotels/dallas/dining/restaurants-on-lamar/the-owners-box?utm_source=gmblisting&utm_medium=organic",
    "category": "Bar & Restaurant",
    "types": "bar, restaurant, food, point_of_interest, establishment"
  },
  {
    "place_id": "ChIJy1SNaE6fToYRrRj3fK-wuP4",
    "name": "The Pour House",
    "street_address": "1919 Skillman Street",
    "city": "Dallas",
    "state": "TX",
    "zip_code": "75206",
    "latitude": 32.813186,
    "longitude": -96.76213299999999,
    "website": "https://www.pourhousedallas.com/?utm_source=GMB&utm_medium=gmb&utm_campaign=google&utm_term=dallas",
    "category": "Bar & Restaurant",
    "types": "bar, restaurant, food, point_of_interest, establishment"
  },
  {
    "place_id": "ChIJ75lIQgafToYRMyrlLJSrP5s",
    "name": "The Avenue Sports Grill",
    "street_address": "2121 Greenville Avenue",
    "city": "Dallas",
    "state": "TX",
    "zip_code": "75206",
    "latitude": 32.8158443,
    "longitude": -96.7706624,
    "website": "http://www.avenuesportsgrill.com/",
    "category": "Bar & Restaurant",
    "types": "bar, restaurant, food, point_of_interest, establishment"
  },
  {
    "place_id": "ChIJNflPpDqZToYRYOa03oEN4rY",
    "name": "Rattlesnake",
    "street_address": "2121 McKinney Avenue",
    "city": "Dallas",
    "state": "TX",
    "zip_code": "75201",
    "latitude": 32.7924582,
    "longitude": -96.80382689999999,
    "website": "https://fearingsrestaurant.com/menu/rattlesnake-bar/",
    "category": "Bar & Restaurant",
    "types": "bar, restaurant, food, point_of_interest, establishment"
  },
  {
    "place_id": "ChIJWyyVZaqZToYRbSFl52nZbnw",
    "name": "Local Tap & Table",
    "street_address": "3333 Harry Hines Boulevard",
    "city": "Dallas",
    "state": "TX",
    "zip_code": "75201",
    "latitude": 32.7959935,
    "longitude": -96.8138548,
    "website": "https://www.localtapandtable.com/",
    "category": "Bar & Restaurant",
    "types": "bar, restaurant, food, point_of_interest, establishment"
  },
  {
    "place_id": "ChIJP9rrfN2YToYRM-YLi3Ov7T4",
    "name": "Angry Dog",
    "street_address": "2726 Commerce Street",
    "city": "Dallas",
    "state": "TX",
    "zip_code": "75226",
    "latitude": 32.7828864,
    "longitude": -96.7835593,
    "website": "https://www.angrydog.com/",
    "category": "Bar & Restaurant",
    "types": "bar, restaurant, point_of_interest, food, establishment"
  },
  {
    "place_id": "ChIJsywTYt2YToYRSyCp5JcQoZ4",
    "name": "St. Pete's Dancing Marlin",
    "street_address": "2730 Commerce Street",
    "city": "Dallas",
    "state": "TX",
    "zip_code": "75226",
    "latitude": 32.7829062,
    "longitude": -96.7832988,
    "website": "https://stpetesdancingmarlin.com/",
    "category": "Bar & Restaurant",
    "types": "bar, restaurant, food, point_of_interest, establishment"
  },
  {
    "place_id": "ChIJ9SU-VteZToYRMy7W0clBkXw",
    "name": "Sloane's Corner",
    "street_address": "2001 Ross Avenue",
    "city": "Dallas",
    "state": "TX",
    "zip_code": "75201",
    "latitude": 32.7876235,
    "longitude": -96.79870919999999,
    "website": "https://www.sloanescorner.com/",
    "category": "Bar & Restaurant",
    "types": "bar, restaurant, food, point_of_interest, establishment"
  },
  {
    "place_id": "ChIJuc7o_4SZToYRtSykoSPbdaA",
    "name": "The303BishopArts",
    "street_address": "303 West Davis Street",
    "city": "Dallas",
    "state": "TX",
    "zip_code": "75208",
    "latitude": 32.7496083,
    "longitude": -96.82690919999999,
    "website": "https://the303bishoparts.com/",
    "category": "Bar & Restaurant",
    "types": "bar, restaurant, food, point_of_interest, establishment"
  },
  {
    "place_id": "ChIJBTrHJSmZToYR-5-ZNIAJzdU",
    "name": "The Nodding Donkey",
    "street_address": "2900 Thomas Avenue",
    "city": "Dallas",
    "state": "TX",
    "zip_code": "75204",
    "latitude": 32.7965785,
    "longitude": -96.7968317,
    "website": "http://www.thenoddingdonkey.com/",
    "category": "Bar & Restaurant",
    "types": "meal_takeaway, bar, restaurant, food, point_of_interest, establishment"
  },
  {
    "place_id": "ChIJYz-WVPOYToYRL4k7Cr2z5AA",
    "name": "Emerald City Bar & Grill",
    "street_address": "2532 Martin Luther King Junior Boulevard",
    "city": "Dallas",
    "state": "TX",
    "zip_code": "75215",
    "latitude": 32.7668266,
    "longitude": -96.7706451,
    "website": null,
    "category": "Bar & Restaurant",
    "types": "bar, restaurant, food, point_of_interest, establishment"
  },
  {
    "place_id": "ChIJlScNQC6ZToYRa8JiH9b_WnM",
    "name": "Blackfriar Pub",
    "street_address": "2621 McKinney Avenue",
    "city": "Dallas",
    "state": "TX",
    "zip_code": "75204",
    "latitude": 32.7972648,
    "longitude": -96.8018618,
    "website": "https://www.blackfriarpub.com/",
    "category": "Bar & Restaurant",
    "types": "bar, restaurant, food, point_of_interest, establishment"
  },
  {
    "place_id": "ChIJ85jdFoWZToYRx8qSGu4l_fo",
    "name": "Ten Bells Tavern",
    "street_address": "231 West Eighth Street",
    "city": "Dallas",
    "state": "TX",
    "zip_code": "75208",
    "latitude": 32.7482594,
    "longitude": -96.8258056,
    "website": null,
    "category": "Bar & Restaurant",
    "types": "bar, restaurant, food, point_of_interest, establishment"
  },
  {
    "place_id": "ChIJ_x4qKWufToYR46wKc_KstD4",
    "name": "Life\u2019s Good Bar & Grill",
    "street_address": "3619 Greenville Avenue",
    "city": "Dallas",
    "state": "TX",
    "zip_code": "75206",
    "latitude": 32.831581,
    "longitude": -96.7703141,
    "website": "https://lifesgooddtx.com/?utm_source=google",
    "category": "Bar & Restaurant",
    "types": "bar, night_club, restaurant, food, point_of_interest, establishment"
  },
  {
    "place_id": "ChIJe1rQnn6fToYRfxF4CwQRJgw",
    "name": "Blackfriar Pub",
    "street_address": "6341 La Vista Drive",
    "city": "Dallas",
    "state": "TX",
    "zip_code": "75214",
    "latitude": 32.8128152,
    "longitude": -96.7535085,
    "website": "https://blackfriarpub.com/",
    "category": "Bar & Restaurant",
    "types": "bar, restaurant, food, point_of_interest, establishment"
  },
  {
    "place_id": "ChIJrZ7Xid2YToYRqT2ZtSxPSPU",
    "name": "The Free Man Cajun Cafe & Lounge",
    "street_address": "2626-2630 Commerce Street",
    "city": "Dallas",
    "state": "TX",
    "zip_code": "75226",
    "latitude": 32.7825987,
    "longitude": -96.78498429999999,
    "website": "http://www.freemandallas.com/",
    "category": "Bar & Restaurant",
    "types": "meal_takeaway, bar, restaurant, food, point_of_interest, establishment"
  },
  {
    "place_id": "ChIJA63qmzafToYRXuWGuSZgIgo",
    "name": "High Fives",
    "street_address": "1804 McMillan Avenue",
    "city": "Dallas",
    "state": "TX",
    "zip_code": "75206",
    "latitude": 32.8117671,
    "longitude": -96.7744603,
    "website": "https://www.wedothisandthat.com/highfives",
    "category": "Bar & Restaurant",
    "types": "bar, restaurant, food, point_of_interest, establishment"
  },
  {
    "place_id": "ChIJH18oWySfToYRYOsWezlyr50",
    "name": "The Old Monk",
    "street_address": "2847 North Henderson Avenue",
    "city": "Dallas",
    "state": "TX",
    "zip_code": "75206",
    "latitude": 32.8200357,
    "longitude": -96.7849164,
    "website": "http://www.oldmonkdallas.com/",
    "category": "Bar & Restaurant",
    "types": "bar, restaurant, food, point_of_interest, establishment"
  },
  {
    "place_id": "ChIJZf_9rJqZToYRXNSMj99QaWg",
    "name": "Hamilton's Restaurant & Cocktail Lounge",
    "street_address": "1011 South Akard Street",
    "city": "Dallas",
    "state": "TX",
    "zip_code": "75215",
    "latitude": 32.7726405,
    "longitude": -96.7956978,
    "website": "http://hamiltonsatlorenzo.com/",
    "category": "Restaurant",
    "types": "restaurant, food, point_of_interest, establishment"
  },
  {
    "place_id": "ChIJXcS8WDCfToYR2oE3zljEhE8",
    "name": "Hideaway on Henderson",
    "street_address": "2405 North Henderson Avenue",
    "city": "Dallas",
    "state": "TX",
    "zip_code": "75206",
    "latitude": 32.81494540000001,
    "longitude": -96.7788379,
    "website": "https://henderson.myhideawaydallas.com/",
    "category": "Bar & Restaurant",
    "types": "bar, restaurant, food, point_of_interest, establishment"
  },
  {
    "place_id": "ChIJFds6uVGfToYRFEUk4WzBCzI",
    "name": "The Londoner Pub Dallas",
    "street_address": "5321 East Mockingbird Lane",
    "city": "Dallas",
    "state": "TX",
    "zip_code": "75206",
    "latitude": 32.8380918,
    "longitude": -96.77566,
    "website": "https://thelondonerpub.com/",
    "category": "Bar & Restaurant",
    "types": "restaurant, bar, food, point_of_interest, establishment"
  },
  {
    "place_id": "ChIJU8KnR-6eToYR0P6mziYJ3_I",
    "name": "The Honor Bar",
    "street_address": "26 Highland Park Village",
    "city": "Dallas",
    "state": "TX",
    "zip_code": "75205",
    "latitude": 32.835493,
    "longitude": -96.806764,
    "website": "http://www.honorbar.com/",
    "category": "Bar & Restaurant",
    "types": "bar, restaurant, food, point_of_interest, establishment"
  },
  {
    "place_id": "ChIJUb4R6kWbToYRhIeH2piMsRo",
    "name": "Barra Libre Sports Bar",
    "street_address": "2627 Jefferson Boulevard",
    "city": "Dallas",
    "state": "TX",
    "zip_code": "75211",
    "latitude": 32.7487656,
    "longitude": -96.86206729999999,
    "website": null,
    "category": "Bar & Restaurant",
    "types": "bar, restaurant, food, point_of_interest, establishment"
  },
  {
    "place_id": "ChIJnepQlC-ZToYRtS6XR_tcEk4",
    "name": "Dragonfly",
    "street_address": "2332 Leonard Street",
    "city": "Dallas",
    "state": "TX",
    "zip_code": "75201",
    "latitude": 32.7944494,
    "longitude": -96.8018568,
    "website": "https://www.hotelzaza.com/dallas/dining/dragonfly",
    "category": "Bar & Restaurant",
    "types": "bar, restaurant, food, point_of_interest, establishment"
  },
  {
    "place_id": "ChIJ0eJlLAOZToYRL2DPqc3XbAk",
    "name": "Golden Lion",
    "street_address": "2500 Victory Avenue",
    "city": "Dallas",
    "state": "TX",
    "zip_code": "75219",
    "latitude": 32.78983239999999,
    "longitude": -96.8102876,
    "website": "http://www.americanairlinescenter.com/",
    "category": "Bar & Restaurant",
    "types": "bar, restaurant, food, point_of_interest, establishment"
  },
  {
    "place_id": "ChIJHV_pQt2ZToYR25feUyIhLW0",
    "name": "Jaquval Gastropub & Brewery",
    "street_address": "312 West Seventh Street",
    "city": "Dallas",
    "state": "TX",
    "zip_code": "75208",
    "latitude": 32.7487202,
    "longitude": -96.8273866,
    "website": "http://www.jaquval.com/",
    "category": "Bar & Restaurant",
    "types": "bar, restaurant, food, point_of_interest, establishment"
  },
  {
    "place_id": "ChIJtSrvpU6bToYRJaTV2rCdqyQ",
    "name": "Buffalo Wild Wings",
    "street_address": "3333 Canyon Bluff Boulevard",
    "city": "Dallas",
    "state": "TX",
    "zip_code": "75211",
    "latitude": 32.765837,
    "longitude": -96.8743113,
    "website": "https://www.buffalowildwings.com/locations/us/tx/dallas/3333-canyon-bluff-blvd/sports-bar-1544?utm_source=google%20my%20business&utm_medium=organic&utm_campaign=website%20link",
    "category": "Bar & Restaurant",
    "types": "bar, meal_takeaway, restaurant, food, point_of_interest, establishment"
  },
  {
    "place_id": "ChIJvU3NtgOZToYR8ZYThgxT_lw",
    "name": "Opening Bell Coffee",
    "street_address": "1409 Botham Jean Boulevard",
    "city": "Dallas",
    "state": "TX",
    "zip_code": "75215",
    "latitude": 32.7673584,
    "longitude": -96.796026,
    "website": "http://www.openingbellcoffee.com/",
    "category": "Bar & Restaurant",
    "types": "cafe, bar, store, restaurant, food, point_of_interest, establishment"
  },
  {
    "place_id": "ChIJbf2vDuKZToYRS8vgcldamyk",
    "name": "Pesca Coastal Classics and Boozy Cocktails",
    "street_address": "3011 Gulden Lane",
    "city": "Dallas",
    "state": "TX",
    "zip_code": "75212",
    "latitude": 32.7794467,
    "longitude": -96.8285319,
    "website": "https://www.pescacoastalclassics.com/",
    "category": "Bar & Restaurant",
    "types": "bar, restaurant, food, point_of_interest, establishment"
  },
  {
    "place_id": "ChIJvV8MowGfToYR3I4KelKhPFA",
    "name": "Thirsty Lion",
    "street_address": "7859 Walnut Hill Lane",
    "city": "Dallas",
    "state": "TX",
    "zip_code": "75230",
    "latitude": 32.880554,
    "longitude": -96.7729832,
    "website": "https://www.thirstylionrestaurant.com/",
    "category": "Bar & Restaurant",
    "types": "restaurant, bar, point_of_interest, food, establishment"
  },
  {
    "place_id": "ChIJhcQOLdWeToYRURVCqH8zfys",
    "name": "The Rustic",
    "street_address": "3656 Howell Street",
    "city": "Dallas",
    "state": "TX",
    "zip_code": "75204",
    "latitude": 32.804896,
    "longitude": -96.79422699999999,
    "website": "https://therustic.com/",
    "category": "Restaurant",
    "types": "restaurant, food, point_of_interest, establishment"
  },
  {
    "place_id": "ChIJDzbXcNWfToYRIO8ANFI1ikQ",
    "name": "Hudson House",
    "street_address": "4040 Abrams Road",
    "city": "Dallas",
    "state": "TX",
    "zip_code": "75214",
    "latitude": 32.8354697,
    "longitude": -96.7523884,
    "website": "https://www.hudsonhousehp.com/",
    "category": "Restaurant",
    "types": "restaurant, food, point_of_interest, establishment"
  },
  {
    "place_id": "ChIJpZBzVXyhToYR9Q9KihbOv6Y",
    "name": "The Whistling Pig Neighborhood Pub",
    "street_address": "8786 Ferguson Road",
    "city": "Dallas",
    "state": "TX",
    "zip_code": "75228",
    "latitude": 32.8123501,
    "longitude": -96.6983905,
    "website": "https://www.thewhistlingpigdallas.com/",
    "category": "Bar & Restaurant",
    "types": "bar, restaurant, point_of_interest, food, establishment"
  },
  {
    "place_id": "ChIJSULo2Q2hToYRKIuFKyWhGfE",
    "name": "The Royal Pour Bar and Grill",
    "street_address": "9909 Garland Road",
    "city": "Dallas",
    "state": "TX",
    "zip_code": "75218",
    "latitude": 32.83765309999999,
    "longitude": -96.6978578,
    "website": "http://theroyalpour.com/",
    "category": "Bar & Restaurant",
    "types": "night_club, bar, restaurant, food, point_of_interest, establishment"
  },
  {
    "place_id": "ChIJ32uOM3OfToYRMIgnroY3IDM",
    "name": "Ozona Grill and Bar",
    "street_address": "4615 Greenville Avenue",
    "city": "Dallas",
    "state": "TX",
    "zip_code": "75206",
    "latitude": 32.84355239999999,
    "longitude": -96.7708607,
    "website": "http://www.ozonagrill.com/",
    "category": "Restaurant",
    "types": "restaurant, food, point_of_interest, establishment"
  },
  {
    "place_id": "ChIJT-c6o1afToYRWnl1NCInsVc",
    "name": "Cock & Bull Neighborhood Pub",
    "street_address": "6330 Gaston Avenue",
    "city": "Dallas",
    "state": "TX",
    "zip_code": "75214",
    "latitude": 32.8130667,
    "longitude": -96.7535028,
    "website": "https://www.cockandbulldallas.com/",
    "category": "Bar & Restaurant",
    "types": "bar, restaurant, food, point_of_interest, establishment"
  },
  {
    "place_id": "ChIJQVQTFmWfToYRwEocRdo6-d4",
    "name": "The Finch",
    "street_address": "5307 East Mockingbird Lane",
    "city": "Dallas",
    "state": "TX",
    "zip_code": "75206",
    "latitude": 32.8369462,
    "longitude": -96.7774609,
    "website": "https://www.thefinchdallas.com/",
    "category": "Bar & Restaurant",
    "types": "bar, restaurant, food, point_of_interest, establishment"
  },
  {
    "place_id": "ChIJg97tscmeToYRQi1hTc6EEHo",
    "name": "Alexandre's",
    "street_address": "4026 Cedar Springs Road",
    "city": "Dallas",
    "state": "TX",
    "zip_code": "75219",
    "latitude": 32.811796,
    "longitude": -96.81160100000001,
    "website": "http://www.alexandres.com/",
    "category": "Bar & Restaurant",
    "types": "bar, restaurant, food, point_of_interest, establishment"
  },
  {
    "place_id": "ChIJhXlmdVCfToYRgeD33F0hux4",
    "name": "Over Under Sports Bar - The Village Dallas",
    "street_address": "5625 Village Glen Drive",
    "city": "Dallas",
    "state": "TX",
    "zip_code": "75206",
    "latitude": 32.8598934,
    "longitude": -96.76338679999999,
    "website": "https://www.thevillagedallas.com/over-under",
    "category": "Bar & Restaurant",
    "types": "bar, restaurant, food, point_of_interest, establishment"
  },
  {
    "place_id": "ChIJRUUS1XKfToYR6gGh4W4OCrc",
    "name": "Milo Butterfingers",
    "street_address": "5645 SMU Boulevard",
    "city": "Dallas",
    "state": "TX",
    "zip_code": "75206",
    "latitude": 32.8421658,
    "longitude": -96.7707454,
    "website": "http://www.milobutterfingersdallas.com/",
    "category": "Bar & Restaurant",
    "types": "bar, restaurant, food, point_of_interest, establishment"
  },
  {
    "place_id": "ChIJB5GIH2ecToYRv7mZEPAdeGE",
    "name": "Bombshells Restaurant & Bar Dallas",
    "street_address": "7501 North Stemmons Freeway",
    "city": "Dallas",
    "state": "TX",
    "zip_code": "75247",
    "latitude": 32.8205593,
    "longitude": -96.87065539999999,
    "website": "http://www.4bombshells.com/",
    "category": "Bar & Restaurant",
    "types": "bar, restaurant, food, point_of_interest, establishment"
  },
  {
    "place_id": "ChIJSQx1_T2ZToYR5bsB6GaF2Aw",
    "name": "Tejano Sports Bar y Cocina",
    "street_address": "119 Jefferson Boulevard",
    "city": "Dallas",
    "state": "TX",
    "zip_code": "75208",
    "latitude": 32.7435185,
    "longitude": -96.82364489999999,
    "website": "http://tejanosportsbar.com/",
    "category": "Bar & Restaurant",
    "types": "bar, restaurant, food, point_of_interest, establishment"
  },
  {
    "place_id": "ChIJly-7jCKZToYRS7nYEiR4pBQ",
    "name": "Salsa Lim\u00f3n",
    "street_address": "411 North Akard Street",
    "city": "Dallas",
    "state": "TX",
    "zip_code": "75201",
    "latitude": 32.7831807,
    "longitude": -96.8006214,
    "website": "https://salsalimon.com/?olonwp=JjBtp_vMLk25gkYh_bnoiQ",
    "category": "Bar & Restaurant",
    "types": "bar, restaurant, point_of_interest, food, establishment"
  },
  {
    "place_id": "ChIJ4TlNnjafToYRoP5j9fVWreY",
    "name": "Barcadia Dallas",
    "street_address": "1917 North Henderson Avenue",
    "city": "Dallas",
    "state": "TX",
    "zip_code": "75206",
    "latitude": 32.81165920000001,
    "longitude": -96.77522830000001,
    "website": "https://barcadiadtx.com/",
    "category": "Bar & Restaurant",
    "types": "bar, restaurant, food, point_of_interest, establishment"
  },
  {
    "place_id": "ChIJvxyOrc-eToYRv1gUz4WhkeM",
    "name": "Luckys Caf\u00e9",
    "street_address": "3531 Oak Lawn Avenue",
    "city": "Dallas",
    "state": "TX",
    "zip_code": "75219",
    "latitude": 32.8127688,
    "longitude": -96.8049987,
    "website": "http://www.luckysdallas.com/",
    "category": "Bar & Restaurant",
    "types": "bar, restaurant, point_of_interest, food, establishment"
  },
  {
    "place_id": "ChIJiQ5ummCZToYRI3ypi-exp1I",
    "name": "Sportsbook",
    "street_address": "233 West Seventh Street",
    "city": "Dallas",
    "state": "TX",
    "zip_code": "75208",
    "latitude": 32.7490539,
    "longitude": -96.824438,
    "website": "https://sportsbookba.com/",
    "category": "Bar & Restaurant",
    "types": "bar, restaurant, food, point_of_interest, establishment"
  },
  {
    "place_id": "ChIJ2c6d84WZToYRZaVcp-UbgV8",
    "name": "Tribal All Day Cafe",
    "street_address": "263 North Bishop Avenue",
    "city": "Dallas",
    "state": "TX",
    "zip_code": "75208",
    "latitude": 32.74699530000001,
    "longitude": -96.8284937,
    "website": "http://www.livetribal.com/",
    "category": "Bar & Restaurant",
    "types": "cafe, bar, restaurant, food, point_of_interest, establishment"
  },
  {
    "place_id": "ChIJhWJEvECfToYRoPjN_-tdhZo",
    "name": "Halcyon",
    "street_address": "2900 Greenville Avenue",
    "city": "Dallas",
    "state": "TX",
    "zip_code": "75206",
    "latitude": 32.8239924,
    "longitude": -96.76993639999999,
    "website": "https://www.halcyoncoffeebar.com/greenville",
    "category": "Bar & Restaurant",
    "types": "night_club, bar, cafe, store, restaurant, food, point_of_interest, establishment"
  },
  {
    "place_id": "ChIJ5d4kWlGZToYRe_NkGx5ggGo",
    "name": "Peticolas Brewing Company Taproom",
    "street_address": "1301 Pace Street",
    "city": "Dallas",
    "state": "TX",
    "zip_code": "75207",
    "latitude": 32.79681,
    "longitude": -96.8290124,
    "website": "http://www.peticolasbrewing.com/",
    "category": "Bar & Restaurant",
    "types": "liquor_store, bar, restaurant, food, point_of_interest, store, establishment"
  },
  {
    "place_id": "ChIJQyZ5EtSeToYRcb1Tv5sQL90",
    "name": "Malai Kitchen",
    "street_address": "3699 McKinney Avenue",
    "city": "Dallas",
    "state": "TX",
    "zip_code": "75204",
    "latitude": 32.80866080000001,
    "longitude": -96.796891,
    "website": "http://malaikitchen.com/",
    "category": "Bar & Restaurant",
    "types": "night_club, bar, restaurant, food, point_of_interest, establishment"
  },
  {
    "place_id": "ChIJRcvNAsuYToYRjGa7pSAqslQ",
    "name": "Dallasite Billiards",
    "street_address": "4822 Bryan Street",
    "city": "Dallas",
    "state": "TX",
    "zip_code": "75204",
    "latitude": 32.8034945,
    "longitude": -96.7734218,
    "website": "http://www.dallasitetx.com/",
    "category": "Bar & Restaurant",
    "types": "bar, cafe, restaurant, food, point_of_interest, establishment"
  },
  {
    "place_id": "ChIJv76clSecToYR5GwAZHqy8Cs",
    "name": "Sports Page Grill",
    "street_address": "3300 West Mockingbird Lane",
    "city": "Dallas",
    "state": "TX",
    "zip_code": "75235",
    "latitude": 32.8338927,
    "longitude": -96.8365646,
    "website": "http://sportspagegrilldallas.com/",
    "category": "Bar & Restaurant",
    "types": "bar, restaurant, point_of_interest, food, establishment"
  },
  {
    "place_id": "ChIJD2E2xQWdToYRUyeKZ8O8oBo",
    "name": "Maple Landing",
    "street_address": "5855 Maple Avenue",
    "city": "Dallas",
    "state": "TX",
    "zip_code": "75235",
    "latitude": 32.82256759999999,
    "longitude": -96.8384983,
    "website": "http://www.themaplelanding.com/",
    "category": "Bar & Restaurant",
    "types": "bar, restaurant, food, point_of_interest, establishment"
  },
  {
    "place_id": "ChIJSw7gwu-dToYRpCwNZIxitqQ",
    "name": "On Rotation Brewery & Kitchen",
    "street_address": "7701 Lemmon Avenue",
    "city": "Dallas",
    "state": "TX",
    "zip_code": "75209",
    "latitude": 32.848472,
    "longitude": -96.840402,
    "website": "https://on-rotation.com/",
    "category": "Bar & Restaurant",
    "types": "bar, restaurant, food, point_of_interest, establishment"
  },
  {
    "place_id": "ChIJ8UWPjeegToYRUyTRE2L1ifU",
    "name": "LoneStar RoadHouse",
    "street_address": "11277 Northwest Highway",
    "city": "Dallas",
    "state": "TX",
    "zip_code": "75238",
    "latitude": 32.8652763,
    "longitude": -96.6861572,
    "website": "http://www.lonestarroadhouse.com/",
    "category": "Bar & Restaurant",
    "types": "bar, restaurant, food, point_of_interest, establishment"
  },
  {
    "place_id": "ChIJW7DLh9qgToYRdtXTBouIGdk",
    "name": "Bombones Restaurant",
    "street_address": "11917 East Northwest Highway",
    "city": "Dallas",
    "state": "TX",
    "zip_code": "75218",
    "latitude": 32.8646353,
    "longitude": -96.6751044,
    "website": "https://www.bombones-us.com/",
    "category": "Bar & Restaurant",
    "types": "bar, restaurant, food, point_of_interest, establishment"
  },
  {
    "place_id": "ChIJk-AIngyhToYRKWxty2oOVEo",
    "name": "BoomerJack's Grill",
    "street_address": "9540 Casa Linda Plaza",
    "city": "Dallas",
    "state": "TX",
    "zip_code": "75218",
    "latitude": 32.8345386,
    "longitude": -96.70056129999999,
    "website": "https://boomerjacks.com/locations/dallas-samuell-boulevard/",
    "category": "Bar & Restaurant",
    "types": "bar, restaurant, food, point_of_interest, establishment"
  },
  {
    "place_id": "ChIJU7MCz9OhToYRqBi5cQdpcEg",
    "name": "Lochland's Irish Pub",
    "street_address": "8518 Plano Road",
    "city": "Dallas",
    "state": "TX",
    "zip_code": "75238",
    "latitude": 32.86483930000001,
    "longitude": -96.7000097,
    "website": "https://lochlandsdallas.com/",
    "category": "Bar & Restaurant",
    "types": "bar, restaurant, food, point_of_interest, establishment"
  },
  {
    "place_id": "ChIJiyHvWbufToYR7D-SN95BpVo",
    "name": "Hillside Tavern",
    "street_address": "6465 East Mockingbird Lane",
    "city": "Dallas",
    "state": "TX",
    "zip_code": "75214",
    "latitude": 32.8369913,
    "longitude": -96.75007099999999,
    "website": "https://dallashillsidetavern.com/",
    "category": "Bar & Restaurant",
    "types": "bar, restaurant, food, point_of_interest, establishment"
  },
  {
    "place_id": "ChIJhZQvjDSgToYReVDMNfg6H1c",
    "name": "Lake House Bar and Grill",
    "street_address": "7510 East Northwest Highway",
    "city": "Dallas",
    "state": "TX",
    "zip_code": "75214",
    "latitude": 32.8547841,
    "longitude": -96.7320676,
    "website": "https://lakehousewhiterock.com/",
    "category": "Bar & Restaurant",
    "types": "bar, restaurant, food, point_of_interest, establishment"
  },
  {
    "place_id": "ChIJq0OrtD6ZToYROxdZWKyZLAY",
    "name": "Mesero - Victory Park",
    "street_address": "2375 Victory Park Lane",
    "city": "Dallas",
    "state": "TX",
    "zip_code": "75219",
    "latitude": 32.7871196,
    "longitude": -96.8094734,
    "website": "https://www.mesero.net/",
    "category": "Restaurant",
    "types": "restaurant, food, point_of_interest, establishment"
  },
  {
    "place_id": "ChIJ9fWMwsWZToYRyKQp8bRFWVU",
    "name": "Nori Handroll Bar & Sushi",
    "street_address": "2814 Elm Street",
    "city": "Dallas",
    "state": "TX",
    "zip_code": "75226",
    "latitude": 32.7845651,
    "longitude": -96.78294989999999,
    "website": "http://www.norihandrollbar.com/",
    "category": "Bar & Restaurant",
    "types": "bar, store, restaurant, food, point_of_interest, establishment"
  },
  {
    "place_id": "ChIJGYcS0pabToYR6mWFZMHOZ7Q",
    "name": "Victor's Restaurant & Bar",
    "street_address": "3022 West Davis Street",
    "city": "Dallas",
    "state": "TX",
    "zip_code": "75211",
    "latitude": 32.7494073,
    "longitude": -96.8710321,
    "website": "https://victorsdallas.com/",
    "category": "Restaurant",
    "types": "restaurant, point_of_interest, food, establishment"
  },
  {
    "place_id": "ChIJ3yT0tIWZToYRjjxGxNr9d_0",
    "name": "13 Barrels Craft House",
    "street_address": "338 West Davis Street",
    "city": "Dallas",
    "state": "TX",
    "zip_code": "75208",
    "latitude": 32.74932439999999,
    "longitude": -96.82816790000001,
    "website": "http://www.13barrelsdallas.com/",
    "category": "Bar & Restaurant",
    "types": "bar, restaurant, food, point_of_interest, establishment"
  },
  {
    "place_id": "ChIJ6dL2XMwmTIYRQSP3kWQ71R0",
    "name": "The Londoner Addison",
    "street_address": "14930 Midway Road",
    "city": "Addison",
    "state": "TX",
    "zip_code": "75001",
    "latitude": 32.9523763,
    "longitude": -96.83839689999999,
    "website": "https://thelondonerpub.com/",
    "category": "Bar & Restaurant",
    "types": "bar, restaurant, food, point_of_interest, establishment"
  },
  {
    "place_id": "ChIJecAc0_8hTIYRxjuWmm42YRQ",
    "name": "The Brass Tap",
    "street_address": "6959 Arapaho Road",
    "city": "Dallas",
    "state": "TX",
    "zip_code": "75248",
    "latitude": 32.96282899999999,
    "longitude": -96.78914189999999,
    "website": "https://www.brasstapbeerbar.com/northdallas",
    "category": "Bar & Restaurant",
    "types": "bar, restaurant, point_of_interest, food, establishment"
  },
  {
    "place_id": "ChIJlaGW_johTIYR174OrSpNz7M",
    "name": "Yard House",
    "street_address": "5100 Belt Line Road",
    "city": "Dallas",
    "state": "TX",
    "zip_code": "75254",
    "latitude": 32.95039829999999,
    "longitude": -96.81982839999999,
    "website": "https://www.yardhouse.com/locations/tx/addison/addison-village-on-the-parkway/8355?cmpid=br:yh_ag:ie_ch:loc_ca:YHGMB_sn:gmb_gt:dallas-tx-8355_pl:locurl_rd:1052",
    "category": "Bar & Restaurant",
    "types": "meal_takeaway, bar, restaurant, food, point_of_interest, establishment"
  },
  {
    "place_id": "ChIJGyWFPawjTIYRbozrXOMaHlY",
    "name": "Bobbie's Social House",
    "street_address": "4520 Frankford Road",
    "city": "Dallas",
    "state": "TX",
    "zip_code": "75287",
    "latitude": 32.9969859,
    "longitude": -96.8305872,
    "website": "https://bobbiessocialhouse.com/",
    "category": "Bar & Restaurant",
    "types": "bar, restaurant, food, point_of_interest, establishment"
  },
  {
    "place_id": "ChIJ2Y77WBYkTIYRGqVODZmUjrk",
    "name": "Buffalo Joe's Bar & Grill",
    "street_address": "3636 Frankford Road",
    "city": "Dallas",
    "state": "TX",
    "zip_code": "75287",
    "latitude": 32.9958971,
    "longitude": -96.8532743,
    "website": "https://www.buffalojoesbargrill.com/?utm_source=gbp",
    "category": "Bar & Restaurant",
    "types": "bar, restaurant, food, point_of_interest, establishment"
  },
  {
    "place_id": "ChIJyzQw4csmTIYRAaGT03eEXVA",
    "name": "Ron's Place",
    "street_address": "4145 Belt Line Road",
    "city": "Addison",
    "state": "TX",
    "zip_code": "75001",
    "latitude": 32.9548305,
    "longitude": -96.8404195,
    "website": "https://ronsplaceaddison.com/",
    "category": "Bar & Restaurant",
    "types": "bar, restaurant, food, point_of_interest, establishment"
  },
  {
    "place_id": "ChIJqUnVc0ghTIYR58fhCBhyMcA",
    "name": "The Lion & Crown",
    "street_address": "5001 Addison Circle",
    "city": "Addison",
    "state": "TX",
    "zip_code": "75001",
    "latitude": 32.9616778,
    "longitude": -96.8255667,
    "website": "http://www.lionandcrownpub.com/",
    "category": "Bar & Restaurant",
    "types": "bar, restaurant, food, point_of_interest, establishment"
  },
  {
    "place_id": "ChIJmcGvjDshTIYRHnhuh-ek7BY",
    "name": "Twin Peaks",
    "street_address": "5260 Belt Line Road",
    "city": "Dallas",
    "state": "TX",
    "zip_code": "75254",
    "latitude": 32.9535832,
    "longitude": -96.8193775,
    "website": "https://twinpeaksrestaurant.com/locations/addison-tx",
    "category": "Bar & Restaurant",
    "types": "bar, restaurant, food, point_of_interest, establishment"
  },
  {
    "place_id": "ChIJa3pRHzQhTIYRxj6ThW7ynKY",
    "name": "The Quarter Bar & Grill",
    "street_address": "15201 Addison Road",
    "city": "Addison",
    "state": "TX",
    "zip_code": "75001",
    "latitude": 32.9557239,
    "longitude": -96.8302058,
    "website": "http://www.thequarter.biz/",
    "category": "Bar & Restaurant",
    "types": "bar, restaurant, food, point_of_interest, establishment"
  },
  {
    "place_id": "ChIJrTVlMR8kTIYRFRWG34ErxjU",
    "name": "Quinlan's Bar and Grill",
    "street_address": "2810 East Trinity Mills Road",
    "city": "Carrollton",
    "state": "TX",
    "zip_code": "75006",
    "latitude": 32.9862188,
    "longitude": -96.8544582,
    "website": "http://www.quinlanssportsgrill.com/contact-us",
    "category": "Bar & Restaurant",
    "types": "bar, restaurant, food, point_of_interest, establishment"
  },
  {
    "place_id": "ChIJocBO-_chTIYRdEmaplxUZFQ",
    "name": "Sidecar Social Addison",
    "street_address": "5100 Belt Line Road",
    "city": "Addison",
    "state": "TX",
    "zip_code": "75254",
    "latitude": 32.950981,
    "longitude": -96.8190583,
    "website": "https://sidecarsocial.com/?utm_source=extnet&utm_medium=yext",
    "category": "Bar & Restaurant",
    "types": "bar, restaurant, food, point_of_interest, establishment"
  },
  {
    "place_id": "ChIJ8Uud8c4jTIYRnz_rE3mTMtQ",
    "name": "The Irishman Pub",
    "street_address": "18101 Preston Road",
    "city": "Dallas",
    "state": "TX",
    "zip_code": "75252",
    "latitude": 32.9990965,
    "longitude": -96.79872619999999,
    "website": "https://irishmanpub.us/",
    "category": "Bar & Restaurant",
    "types": "bar, restaurant, food, point_of_interest, establishment"
  },
  {
    "place_id": "ChIJDVkazMgmTIYR6wxpGMICQoU",
    "name": "The Back 9 Sports Bar & Grill",
    "street_address": "4060 Belt Line Road",
    "city": "Addison",
    "state": "TX",
    "zip_code": "75001",
    "latitude": 32.95379580000001,
    "longitude": -96.8440962,
    "website": "http://theback9addison.com/",
    "category": "Bar & Restaurant",
    "types": "bar, restaurant, food, point_of_interest, establishment"
  },
  {
    "place_id": "ChIJw6w_GRolTIYRGbAQSQMdHK8",
    "name": "Benders Sports And Spirits",
    "street_address": "18110 Midway Road",
    "city": "Dallas",
    "state": "TX",
    "zip_code": "75287",
    "latitude": 32.9968347,
    "longitude": -96.8422139,
    "website": "https://www.benderssportsandspirits.com/",
    "category": "Bar & Restaurant",
    "types": "bar, restaurant, food, point_of_interest, establishment"
  },
  {
    "place_id": "ChIJj6yjUdcjTIYR0Nj6TkjxKCg",
    "name": "Sharky's Bar, Grill & Games",
    "street_address": "17453 Preston Road",
    "city": "Dallas",
    "state": "TX",
    "zip_code": "75252",
    "latitude": 32.99092900000001,
    "longitude": -96.80269799999999,
    "website": "http://www.sharkysdallas.com/",
    "category": "Bar & Restaurant",
    "types": "bar, restaurant, food, point_of_interest, establishment"
  },
  {
    "place_id": "ChIJZ47J4MsmTIYRTauVT8IjaH0",
    "name": "The HUB Sports Bar & Grill",
    "street_address": "4145 Belt Line Road",
    "city": "Addison",
    "state": "TX",
    "zip_code": "75001",
    "latitude": 32.9547809,
    "longitude": -96.8405887,
    "website": "https://www.thehubsportsbar.com/",
    "category": "Bar & Restaurant",
    "types": "bar, restaurant, food, point_of_interest, establishment"
  },
  {
    "place_id": "ChIJa9B3NTEhTIYRDXpCVFdwLT0",
    "name": "BJ's Restaurant & Brewhouse",
    "street_address": "4901 Belt Line Road",
    "city": "Dallas",
    "state": "TX",
    "zip_code": "75254",
    "latitude": 32.9546649,
    "longitude": -96.82802369999999,
    "website": "https://www.bjsrestaurants.com/locations/tx/addison?utm_source=google&utm_medium=organic&utm_campaign=google_my_business",
    "category": "Bar & Restaurant",
    "types": "restaurant, bar, food, point_of_interest, establishment"
  },
  {
    "place_id": "ChIJjYYg20chTIYRTJZ3zysgJq0",
    "name": "The Mucky Duck Bar",
    "street_address": "5064 Addison Circle",
    "city": "Addison",
    "state": "TX",
    "zip_code": "75001",
    "latitude": 32.9618354,
    "longitude": -96.82326019999999,
    "website": "http://themuckyduckbar.com/",
    "category": "Bar & Restaurant",
    "types": "bar, restaurant, food, point_of_interest, establishment"
  },
  {
    "place_id": "ChIJb7_Xm6snTIYRjkWJgL0Oitc",
    "name": "Vitruvian Park Tavern",
    "street_address": "3870 Ponte Avenue",
    "city": "Addison",
    "state": "TX",
    "zip_code": "75001",
    "latitude": 32.93499789999999,
    "longitude": -96.8511393,
    "website": "https://www.vitruvianparktavern.com/",
    "category": "Restaurant",
    "types": "restaurant, food, point_of_interest, establishment"
  },
  {
    "place_id": "ChIJwzLNTTEhTIYRo3ipKnJW9vQ",
    "name": "Stadium Sports Grill | Best Sports Bar in Addison for Great Food & Drinks",
    "street_address": "4872 Belt Line Road",
    "city": "Dallas",
    "state": "TX",
    "zip_code": "75254",
    "latitude": 32.9531926,
    "longitude": -96.82883439999999,
    "website": "https://stadiumsportsgrilltx.com/",
    "category": "Bar & Restaurant",
    "types": "bar, restaurant, point_of_interest, food, store, establishment"
  },
  {
    "place_id": "ChIJG6y0YygjTIYRZlGYJvL8eTw",
    "name": "NELSON'S Neighborhood Grill",
    "street_address": "17602 Preston Road",
    "city": "Dallas",
    "state": "TX",
    "zip_code": "75252",
    "latitude": 32.9915656,
    "longitude": -96.80031090000001,
    "website": "http://nelsonsrestaurant.com/",
    "category": "Bar & Restaurant",
    "types": "restaurant, bar, food, point_of_interest, establishment"
  },
  {
    "place_id": "ChIJLcAFDDshTIYROwbaG8RFBzM",
    "name": "Pie Tap Pizza Workshop + Bar - Addison",
    "street_address": "5100 Belt Line Road",
    "city": "Dallas",
    "state": "TX",
    "zip_code": "75254",
    "latitude": 32.9522618,
    "longitude": -96.8204117,
    "website": "http://pie-tap.com/",
    "category": "Bar & Restaurant",
    "types": "bar, restaurant, point_of_interest, food, establishment"
  },
  {
    "place_id": "ChIJ4WUkFAQkTIYRS0uZw0ZqOIs",
    "name": "Louisiana Famous Fried Chicken North Dallas",
    "street_address": "17610 Midway Road",
    "city": "Dallas",
    "state": "TX",
    "zip_code": "75287",
    "latitude": 32.98843889999999,
    "longitude": -96.8415596,
    "website": null,
    "category": "Restaurant",
    "types": "meal_takeaway, restaurant, food, point_of_interest, establishment"
  },
  {
    "place_id": "ChIJs9DkPTInTIYR8ZUXqPvy3LE",
    "name": "Saltgrass Steak House",
    "street_address": "4101 Lyndon B Johnson Freeway",
    "city": "Dallas",
    "state": "TX",
    "zip_code": "75244",
    "latitude": 32.9245965,
    "longitude": -96.8425606,
    "website": "https://www.saltgrass.com/location/saltgrass-midway-dallas-lbj-frwy/",
    "category": "Restaurant",
    "types": "restaurant, food, point_of_interest, establishment"
  },
  {
    "place_id": "ChIJc5IeEDshTIYRNxiEWyuCIk8",
    "name": "Flying Fish",
    "street_address": "5100 Belt Line Road",
    "city": "Dallas",
    "state": "TX",
    "zip_code": "75254",
    "latitude": 32.951837,
    "longitude": -96.819355,
    "website": "https://www.flyingfishinthe.net/addison/",
    "category": "Restaurant",
    "types": "restaurant, food, point_of_interest, establishment"
  },
  {
    "place_id": "ChIJCdq2QDohTIYR_0y5FG-S2bU",
    "name": "Buffalo Wild Wings",
    "street_address": "5000 Belt Line Road",
    "city": "Dallas",
    "state": "TX",
    "zip_code": "75254",
    "latitude": 32.9534684,
    "longitude": -96.8255793,
    "website": "https://www.buffalowildwings.com/locations/us/tx/dallas/5000-belt-line-rd/sports-bar-78?utm_source=google%20my%20business&utm_medium=organic&utm_campaign=website%20link",
    "category": "Bar & Restaurant",
    "types": "meal_takeaway, bar, restaurant, food, point_of_interest, establishment"
  },
  {
    "place_id": "ChIJ2UUuIuYnTIYRvhVBBCCAw3k",
    "name": "Higuma Ramen & Izakaya",
    "street_address": "4135 Belt Line Road",
    "city": "Addison",
    "state": "TX",
    "zip_code": "75001",
    "latitude": 32.954828,
    "longitude": -96.84185,
    "website": "https://higumaramen.com/",
    "category": "Restaurant",
    "types": "restaurant, food, point_of_interest, establishment"
  },
  {
    "place_id": "ChIJRyQ9YYkhTIYRvsvYfhnje6w",
    "name": "Spatch Kitchen and Cocktails",
    "street_address": "5000 Belt Line Road",
    "city": "Dallas",
    "state": "TX",
    "zip_code": "75254",
    "latitude": 32.95341729999999,
    "longitude": -96.8232225,
    "website": "https://www.spatchkitchenandcocktails.com/",
    "category": "Bar & Restaurant",
    "types": "bar, meal_takeaway, restaurant, food, point_of_interest, establishment"
  },
  {
    "place_id": "ChIJIaN97tUmTIYR8shH-FgRt1k",
    "name": "Fuzzy's Taco Shop",
    "street_address": "13881 Midway Road",
    "city": "Farmers Branch",
    "state": "TX",
    "zip_code": "75244",
    "latitude": 32.9380016,
    "longitude": -96.8396087,
    "website": "https://fuzzystacoshop.com/locations/texas/farmers-branch/",
    "category": "Restaurant",
    "types": "restaurant, food, point_of_interest, establishment"
  },
  {
    "place_id": "ChIJrR4xTSYhTIYRGTxDa8guHT0",
    "name": "Knockout Sports Bar - Addison",
    "street_address": "15225 Montfort Drive",
    "city": "Dallas",
    "state": "TX",
    "zip_code": "75248",
    "latitude": 32.9566268,
    "longitude": -96.81904469999999,
    "website": "https://kosportsbar.com/",
    "category": "Bar & Restaurant",
    "types": "bar, restaurant, food, point_of_interest, establishment"
  },
  {
    "place_id": "ChIJF3ySVTEhTIYRfWrhWpRmJZo",
    "name": "Table 13",
    "street_address": "4812 Belt Line Road",
    "city": "Dallas",
    "state": "TX",
    "zip_code": "75254",
    "latitude": 32.9537,
    "longitude": -96.82939999999999,
    "website": "https://table13addison.com/",
    "category": "Bar & Restaurant",
    "types": "bar, restaurant, food, point_of_interest, establishment"
  },
  {
    "place_id": "ChIJx9w0IBAhTIYR-FOV4QWgEzI",
    "name": "TNT Sports Page",
    "street_address": "14902 Preston Road",
    "city": "Dallas",
    "state": "TX",
    "zip_code": "75254",
    "latitude": 32.9512487,
    "longitude": -96.8013062,
    "website": "https://tntsportspagedallas.com/",
    "category": "Bar & Restaurant",
    "types": "bar, restaurant, food, point_of_interest, establishment"
  },
  {
    "place_id": "ChIJx9w0IBAhTIYRpKx0s3qWgII",
    "name": "The Hideaway",
    "street_address": "14902 Preston Road",
    "city": "Dallas",
    "state": "TX",
    "zip_code": "75254",
    "latitude": 32.9530562,
    "longitude": -96.8029071,
    "website": "http://myhideawaydallas.com/",
    "category": "Bar & Restaurant",
    "types": "bar, restaurant, food, point_of_interest, establishment"
  },
  {
    "place_id": "ChIJp1N4qGAhTIYRr56BvMNbIf4",
    "name": "Zalat Pizza",
    "street_address": "4980 Belt Line Road",
    "city": "Dallas",
    "state": "TX",
    "zip_code": "75254",
    "latitude": 32.95372070000001,
    "longitude": -96.82656109999999,
    "website": "https://zalatpizza.com/",
    "category": "Restaurant",
    "types": "restaurant, food, point_of_interest, establishment"
  },
  {
    "place_id": "ChIJ8Xc5UjEhTIYROYrUg5aFFnU",
    "name": "May Dragon Chinese Restaurant",
    "street_address": "4848 Belt Line Road",
    "city": "Dallas",
    "state": "TX",
    "zip_code": "75254",
    "latitude": 32.9532058,
    "longitude": -96.8292368,
    "website": "http://www.maydragon.com/",
    "category": "Restaurant",
    "types": "meal_takeaway, meal_delivery, restaurant, food, point_of_interest, establishment"
  },
  {
    "place_id": "ChIJC8NEZ-4gTIYRqZdv_at7jtc",
    "name": "Sazon Tex-Mex and More",
    "street_address": "12817 Preston Road",
    "city": "Dallas",
    "state": "TX",
    "zip_code": "75230",
    "latitude": 32.9234859,
    "longitude": -96.80475179999999,
    "website": "https://sazontexmexandmore.com/",
    "category": "Bar & Restaurant",
    "types": "meal_delivery, meal_takeaway, bar, restaurant, food, point_of_interest, establishment"
  },
  {
    "place_id": "ChIJ5YASC8wmTIYRviE-E-Xgdd0",
    "name": "Nate's Seafood & Steakhouse",
    "street_address": "14951 Midway Road",
    "city": "Addison",
    "state": "TX",
    "zip_code": "75001",
    "latitude": 32.9534668,
    "longitude": -96.8393016,
    "website": "https://www.natesseafood.com/",
    "category": "Restaurant",
    "types": "restaurant, food, point_of_interest, establishment"
  },
  {
    "place_id": "ChIJLy-zhx8hTIYRSW7yfB9kfr8",
    "name": "la Madeleine French Bakery & Cafe Montfort",
    "street_address": "15125 Montfort Drive",
    "city": "Dallas",
    "state": "TX",
    "zip_code": "75254",
    "latitude": 32.9554592,
    "longitude": -96.81889319999999,
    "website": "https://lamadeleine.com/locations/addison-montfort",
    "category": "Restaurant",
    "types": "restaurant, food, point_of_interest, establishment"
  },
  {
    "place_id": "ChIJ28G__T0kTIYRjsozbkApfR8",
    "name": "Applebee's Grill + Bar",
    "street_address": "3565 Frankford Road",
    "city": "Dallas",
    "state": "TX",
    "zip_code": "75287",
    "latitude": 32.9975869,
    "longitude": -96.8570168,
    "website": "https://restaurants.applebees.com/en-us/tx/dallas/3565-frankford-road-80052?utm_source=google&utm_medium=organic&utm_campaign=google_my_business&utm_term=80052&utm_content=website",
    "category": "Bar & Restaurant",
    "types": "restaurant, bar, food, point_of_interest, establishment"
  },
  {
    "place_id": "ChIJ4d7wJw4hTIYRTcxFnXwjOjo",
    "name": "Selda Mediterranean Kitchen & Bar",
    "street_address": "6006 Belt Line Road",
    "city": "Dallas",
    "state": "TX",
    "zip_code": "75254",
    "latitude": 32.9535348,
    "longitude": -96.8028948,
    "website": "https://www.seldadallas.com/location-dallas-tx",
    "category": "Restaurant",
    "types": "restaurant, food, point_of_interest, establishment"
  }
]