[
  {
    "place_id": "ChIJE2oNutF4bIcRNZEeHwOJCxo",
    "name": "Stout Street Social",
    "street_address": "1400 Stout Street",
    "city": "Denver",
    "state": "CO",
    "zip_code": "80202",
    "latitude": 39.7440941,
    "longitude": -104.9949255,
    "website": "http://www.stoutstsocial.com/",
    "category": "Bar & Restaurant",
    "types": "bar, restaurant, food, point_of_interest, establishment"
  },
  {
    "place_id": "ChIJdf7vwDB5bIcRUKbqopeByXc",
    "name": "Revival Denver Public House",
    "street_address": "630 East 17th Avenue",
    "city": "Denver",
    "state": "CO",
    "zip_code": "80203",
    "latitude": 39.7431046,
    "longitude": -104.9789215,
    "website": "http://revival-denver.com/",
    "category": "Bar & Restaurant",
    "types": "meal_takeaway, bar, restaurant, food, point_of_interest, establishment"
  },
  {
    "place_id": "ChIJF4PORCt_bIcRzu99r3p8-Ww",
    "name": "Pints Pub",
    "street_address": "221 West 13th Avenue",
    "city": "Denver",
    "state": "CO",
    "zip_code": "80204",
    "latitude": 39.7369806,
    "longitude": -104.9908306,
    "website": "http://pintspub.com/index.html?devicelock=desktop",
    "category": "Bar & Restaurant",
    "types": "restaurant, bar, food, point_of_interest, establishment"
  },
  {
    "place_id": "ChIJ5e74itR-bIcRBymHHQRL9jE",
    "name": "Pub on Penn",
    "street_address": "1278 Pennsylvania Street",
    "city": "Denver",
    "state": "CO",
    "zip_code": "80203",
    "latitude": 39.7367753,
    "longitude": -104.980827,
    "website": "http://www.pub-on-penn.com/",
    "category": "Bar & Restaurant",
    "types": "bar, restaurant, food, point_of_interest, establishment"
  },
  {
    "place_id": "ChIJTW6oReN-bIcRm4M6YDz5bGo",
    "name": "Candlelight Tavern",
    "street_address": "383 South Pearl Street",
    "city": "Denver",
    "state": "CO",
    "zip_code": "80209",
    "latitude": 39.709632,
    "longitude": -104.9806348,
    "website": "http://candlelighttavern.com/",
    "category": "Bar & Restaurant",
    "types": "bar, night_club, restaurant, food, point_of_interest, establishment"
  },
  {
    "place_id": "ChIJC1GYhcN4bIcRVccmHDESBIE",
    "name": "Thirsty Lion",
    "street_address": "1605 Wynkoop Street",
    "city": "Denver",
    "state": "CO",
    "zip_code": "80202",
    "latitude": 39.7522289,
    "longitude": -105.0009956,
    "website": "https://www.thirstylionrestaurant.com/",
    "category": "Bar & Restaurant",
    "types": "restaurant, bar, food, point_of_interest, establishment"
  },
  {
    "place_id": "ChIJ-7rEDpd-bIcRfkdsCbgzqDs",
    "name": "Milwaukee Street Tavern",
    "street_address": "201 Milwaukee Street",
    "city": "Denver",
    "state": "CO",
    "zip_code": "80206",
    "latitude": 39.719521,
    "longitude": -104.952522,
    "website": "http://www.milwaukeestreettavern.com/",
    "category": "Bar & Restaurant",
    "types": "restaurant, bar, food, point_of_interest, establishment"
  },
  {
    "place_id": "ChIJDzcNp9Z4bIcR9VUgh8z4uRM",
    "name": "Henry's Tavern",
    "street_address": "500 16th Street Mall",
    "city": "Denver",
    "state": "CO",
    "zip_code": "80202",
    "latitude": 39.7442771,
    "longitude": -104.9912948,
    "website": "https://www.henrystavern.com/location/henrys-tavern-denver/",
    "category": "Bar & Restaurant",
    "types": "bar, restaurant, food, point_of_interest, establishment"
  },
  {
    "place_id": "ChIJ8xSPRtx4bIcRjRU0wgaF2gE",
    "name": "Viewhouse Ballpark",
    "street_address": "2015 Market Street",
    "city": "Denver",
    "state": "CO",
    "zip_code": "80205",
    "latitude": 39.75407559999999,
    "longitude": -104.9933098,
    "website": "https://www.viewhouse.com/",
    "category": "Bar & Restaurant",
    "types": "bar, restaurant, food, point_of_interest, establishment"
  },
  {
    "place_id": "ChIJa1TfM_9-bIcRvf4DyKvRccI",
    "name": "Kentucky Inn",
    "street_address": "890 South Pearl Street",
    "city": "Denver",
    "state": "CO",
    "zip_code": "80209",
    "latitude": 39.700442,
    "longitude": -104.980139,
    "website": "https://kentuckyinndenver.com/",
    "category": "Bar & Restaurant",
    "types": "meal_takeaway, bar, restaurant, food, point_of_interest, establishment"
  },
  {
    "place_id": "ChIJhc-3aCt_bIcR5quO4_N8G1c",
    "name": "Cap City Tavern",
    "street_address": "1247 Bannock Street",
    "city": "Denver",
    "state": "CO",
    "zip_code": "80204",
    "latitude": 39.7362082,
    "longitude": -104.9904111,
    "website": "http://capcitytavern.com/",
    "category": "Bar & Restaurant",
    "types": "restaurant, bar, food, point_of_interest, establishment"
  },
  {
    "place_id": "ChIJUVimFAB5bIcRPhFXLN-w_aM",
    "name": "SPORTS DRINKS",
    "street_address": "2190 15th Street",
    "city": "Denver",
    "state": "CO",
    "zip_code": "80202",
    "latitude": 39.7543454,
    "longitude": -105.0083123,
    "website": null,
    "category": "Restaurant",
    "types": "meal_takeaway, restaurant, food, point_of_interest, establishment"
  },
  {
    "place_id": "ChIJfaIaDip_bIcRFzwCojaHsu8",
    "name": "Stoney's Bar and Grill",
    "street_address": "1111 Lincoln Street",
    "city": "Denver",
    "state": "CO",
    "zip_code": "80203",
    "latitude": 39.7342314,
    "longitude": -104.986504,
    "website": "https://www.stoneysbarandgrill.com/stoneys-bar-and-grill",
    "category": "Bar & Restaurant",
    "types": "bar, restaurant, food, point_of_interest, establishment"
  },
  {
    "place_id": "ChIJq9D3xO14bIcR1yI2q5CCwjg",
    "name": "Highland Tavern",
    "street_address": "3400 Navajo Street",
    "city": "Denver",
    "state": "CO",
    "zip_code": "80211",
    "latitude": 39.7645954,
    "longitude": -105.0039339,
    "website": "http://www.highlandtavern.com/",
    "category": "Bar & Restaurant",
    "types": "bar, restaurant, food, point_of_interest, establishment"
  },
  {
    "place_id": "ChIJh1Z5TpV4bIcRABuUrCOahzo",
    "name": "My Brother's Bar",
    "street_address": "2376 15th Street",
    "city": "Denver",
    "state": "CO",
    "zip_code": "80202",
    "latitude": 39.7562205,
    "longitude": -105.0093141,
    "website": "http://www.mybrothersbar.com/",
    "category": "Bar & Restaurant",
    "types": "bar, restaurant, food, point_of_interest, establishment"
  },
  {
    "place_id": "ChIJtdZf_Nx4bIcRyw74Mfs3USA",
    "name": "Jackson's LODO",
    "street_address": "1520 20th Street",
    "city": "Denver",
    "state": "CO",
    "zip_code": "80202",
    "latitude": 39.75451169999999,
    "longitude": -104.9950794,
    "website": "https://www.jacksonslodo.com/",
    "category": "Bar & Restaurant",
    "types": "bar, restaurant, food, point_of_interest, establishment"
  },
  {
    "place_id": "ChIJQWcQOCh_bIcRCQyVNFvTGZo",
    "name": "The Fainting Goat Pub",
    "street_address": "846 Broadway",
    "city": "Denver",
    "state": "CO",
    "zip_code": "80203",
    "latitude": 39.729968,
    "longitude": -104.987174,
    "website": "http://thefaintinggoatdenver.com/",
    "category": "Bar & Restaurant",
    "types": "bar, restaurant, food, point_of_interest, establishment"
  },
  {
    "place_id": "ChIJe51joMV4bIcRywyH7LITQOI",
    "name": "The Celtic on Market",
    "street_address": "1400 Market Street",
    "city": "Denver",
    "state": "CO",
    "zip_code": "80202",
    "latitude": 39.7479417,
    "longitude": -105.0003833,
    "website": "http://celticonmarket.com/",
    "category": "Bar & Restaurant",
    "types": "bar, restaurant, food, point_of_interest, establishment"
  },
  {
    "place_id": "ChIJgzygBCl5bIcRMMMFtJzroBw",
    "name": "Colorado Campfire",
    "street_address": "400 East 19th Avenue",
    "city": "Denver",
    "state": "CO",
    "zip_code": "80203",
    "latitude": 39.7458984,
    "longitude": -104.9819852,
    "website": "https://www.campfiredenver.com/",
    "category": "Bar & Restaurant",
    "types": "bar, restaurant, food, point_of_interest, establishment"
  },
  {
    "place_id": "ChIJj-VCSWB4bIcRs0bF4hU8CwQ",
    "name": "The Monkey Barrel",
    "street_address": "4401 Tejon Street",
    "city": "Denver",
    "state": "CO",
    "zip_code": "80211",
    "latitude": 39.7767994,
    "longitude": -105.0116873,
    "website": "http://www.monkeybarrelbar.com/",
    "category": "Bar & Restaurant",
    "types": "restaurant, bar, point_of_interest, food, establishment"
  },
  {
    "place_id": "ChIJrXKvMdR4bIcR5EK3EkEjxwo",
    "name": "Yard House",
    "street_address": "1555 Court Place",
    "city": "Denver",
    "state": "CO",
    "zip_code": "80202",
    "latitude": 39.7428271,
    "longitude": -104.9895881,
    "website": "https://www.yardhouse.com/locations/co/denver/denver-sheraton-downtown/8329?cmpid=br:yh_ag:ie_ch:loc_ca:YHGMB_sn:gmb_gt:denver-co-8329_pl:locurl_rd:1027",
    "category": "Bar & Restaurant",
    "types": "meal_takeaway, bar, restaurant, food, point_of_interest, establishment"
  },
  {
    "place_id": "ChIJA-MYICB_bIcRgh3wZbzUAVU",
    "name": "The Hornet",
    "street_address": "76 Broadway",
    "city": "Denver",
    "state": "CO",
    "zip_code": "80203",
    "latitude": 39.7181201,
    "longitude": -104.9872351,
    "website": "http://www.hornetrestaurant.com/",
    "category": "Bar & Restaurant",
    "types": "bar, restaurant, food, point_of_interest, establishment"
  },
  {
    "place_id": "ChIJ_ywSXdh4bIcRwStJfqebByQ",
    "name": "The British Bulldog",
    "street_address": "2052 Stout Street",
    "city": "Denver",
    "state": "CO",
    "zip_code": "80205",
    "latitude": 39.7501791,
    "longitude": -104.9871033,
    "website": "https://www.britishbulldogdenver.com/",
    "category": "Bar & Restaurant",
    "types": "bar, restaurant, food, point_of_interest, establishment"
  },
  {
    "place_id": "ChIJ9dBRb9Z4bIcRkoMmCPQ47Mg",
    "name": "Ship Tavern",
    "street_address": "321 17th Street",
    "city": "Denver",
    "state": "CO",
    "zip_code": "80202",
    "latitude": 39.74442200000001,
    "longitude": -104.987643,
    "website": "https://www.brownpalace.com/dining/restaurants/ship-tavern/",
    "category": "Bar & Restaurant",
    "types": "restaurant, bar, food, point_of_interest, establishment"
  },
  {
    "place_id": "ChIJb4Pmoq1-bIcRRdmkFKVF6pU",
    "name": "Mezcal",
    "street_address": "3230 East Colfax Avenue",
    "city": "Denver",
    "state": "CO",
    "zip_code": "80206",
    "latitude": 39.7399644,
    "longitude": -104.9487182,
    "website": "https://mezcalcolorado.com/",
    "category": "Bar & Restaurant",
    "types": "bar, restaurant, food, point_of_interest, establishment"
  },
  {
    "place_id": "ChIJ97DKLCl5bIcRIj1VqgO9Rww",
    "name": "Walter's303 Pizzeria & Publik House | Uptown",
    "street_address": "1906 Pearl Street",
    "city": "Denver",
    "state": "CO",
    "zip_code": "80203",
    "latitude": 39.7463,
    "longitude": -104.979747,
    "website": "https://walters303.com/location/uptown/",
    "category": "Bar & Restaurant",
    "types": "meal_delivery, bar, restaurant, point_of_interest, food, establishment"
  },
  {
    "place_id": "ChIJ7bj3tZN4bIcRwAQ9GQZpKgU",
    "name": "Highland Tap & Burger",
    "street_address": "2219 West 32nd Avenue",
    "city": "Denver",
    "state": "CO",
    "zip_code": "80211",
    "latitude": 39.7622847,
    "longitude": -105.0133257,
    "website": "https://www.tapandburger.com/",
    "category": "Bar & Restaurant",
    "types": "bar, restaurant, food, point_of_interest, establishment"
  },
  {
    "place_id": "ChIJs47yE8N4bIcRAb-y-L6dYHo",
    "name": "Machete Tequila + Tacos",
    "street_address": "1730 Wynkoop Street",
    "city": "Denver",
    "state": "CO",
    "zip_code": "80202",
    "latitude": 39.7531401,
    "longitude": -104.999071,
    "website": "http://machetedenver.com/",
    "category": "Bar & Restaurant",
    "types": "bar, restaurant, food, point_of_interest, establishment"
  },
  {
    "place_id": "ChIJ6_9WVRl5bIcRhUi7DbpFXaY",
    "name": "The Walnut Room",
    "street_address": "3131 Walnut Street",
    "city": "Denver",
    "state": "CO",
    "zip_code": "80205",
    "latitude": 39.76465109999999,
    "longitude": -104.9797829,
    "website": "http://www.thewalnutroom.com/",
    "category": "Bar & Restaurant",
    "types": "meal_delivery, bar, restaurant, food, point_of_interest, establishment"
  },
  {
    "place_id": "ChIJP5Do07x4bIcRrBUCu1Ve8EE",
    "name": "Briar Common Brewery + Eatery",
    "street_address": "2298 Clay Street",
    "city": "Denver",
    "state": "CO",
    "zip_code": "80211",
    "latitude": 39.7510689,
    "longitude": -105.0203794,
    "website": "http://www.briarcommon.com/",
    "category": "Bar & Restaurant",
    "types": "bar, restaurant, food, point_of_interest, establishment"
  },
  {
    "place_id": "ChIJkbxSTJuHa4cRxEiouxnnq2c",
    "name": "PARISI pizzeria, trattoria e vino",
    "street_address": "4401 Tennyson Street",
    "city": "Denver",
    "state": "CO",
    "zip_code": "80212",
    "latitude": 39.776712,
    "longitude": -105.044178,
    "website": "http://www.parisidenver.com/",
    "category": "Bar & Restaurant",
    "types": "cafe, bar, grocery_or_supermarket, meal_takeaway, store, restaurant, food, point_of_interest, establishment"
  },
  {
    "place_id": "ChIJD9tK3St5bIcRdNXPCJK8oqU",
    "name": "Park & Co",
    "street_address": "439 East 17th Avenue",
    "city": "Denver",
    "state": "CO",
    "zip_code": "80203",
    "latitude": 39.7434306,
    "longitude": -104.9814128,
    "website": "https://www.parkandcodenver.com/",
    "category": "Bar & Restaurant",
    "types": "bar, restaurant, food, point_of_interest, establishment"
  },
  {
    "place_id": "ChIJy0fuetN9bIcRfTivsjBIIPw",
    "name": "Bull & Bush Brewery",
    "street_address": "4700 Cherry Creek South Drive",
    "city": "Denver",
    "state": "CO",
    "zip_code": "80246",
    "latitude": 39.7030429,
    "longitude": -104.9324773,
    "website": "https://bullandbush.com/",
    "category": "Bar & Restaurant",
    "types": "bar, restaurant, food, point_of_interest, establishment"
  },
  {
    "place_id": "ChIJqR4RLBB5bIcRPt2a0tE5Bo4",
    "name": "RiNo Beer Garden",
    "street_address": "3800 Walnut Street",
    "city": "Denver",
    "state": "CO",
    "zip_code": "80205",
    "latitude": 39.770147,
    "longitude": -104.971323,
    "website": "http://rinobeergarden.com/",
    "category": "Bar & Restaurant",
    "types": "restaurant, bar, food, point_of_interest, establishment"
  },
  {
    "place_id": "ChIJpRrkN5Z-bIcR-ZY1Sk3drZ4",
    "name": "Machete Tequila + Tacos",
    "street_address": "2817 East 3rd Avenue",
    "city": "Denver",
    "state": "CO",
    "zip_code": "80206",
    "latitude": 39.72123,
    "longitude": -104.954392,
    "website": "http://machetedenver.com/",
    "category": "Bar & Restaurant",
    "types": "bar, restaurant, food, point_of_interest, establishment"
  },
  {
    "place_id": "ChIJq6pqfAR5bIcRTeUWs5sBtt4",
    "name": "Number Thirty Eight",
    "street_address": "3560 Chestnut Place",
    "city": "Denver",
    "state": "CO",
    "zip_code": "80216",
    "latitude": 39.77240820000001,
    "longitude": -104.9794011,
    "website": "http://nmbr38.com/",
    "category": "Bar & Restaurant",
    "types": "bar, restaurant, food, point_of_interest, establishment"
  },
  {
    "place_id": "ChIJw8dMmh9_bIcRZMATPy9nWwo",
    "name": "Go Fish Sushi Denver",
    "street_address": "1 Broadway",
    "city": "Denver",
    "state": "CO",
    "zip_code": "80203",
    "latitude": 39.7168472,
    "longitude": -104.9877472,
    "website": "http://gofishsushi.com/",
    "category": "Bar & Restaurant",
    "types": "night_club, bar, restaurant, point_of_interest, food, establishment"
  },
  {
    "place_id": "ChIJLz1VrIKHa4cRytFIEWvCQTM",
    "name": "Hops & Pie",
    "street_address": "3920 Tennyson Street",
    "city": "Denver",
    "state": "CO",
    "zip_code": "80212",
    "latitude": 39.7713884,
    "longitude": -105.0437324,
    "website": "http://www.hopsandpie.com/",
    "category": "Bar & Restaurant",
    "types": "bar, restaurant, food, point_of_interest, establishment"
  },
  {
    "place_id": "ChIJq6oaasd4bIcR0p1O4bMMT0c",
    "name": "Colorado Social (formerly Peak Pub House)",
    "street_address": "1000 Chopper Circle",
    "city": "Denver",
    "state": "CO",
    "zip_code": "80204",
    "latitude": 39.7492798,
    "longitude": -105.0078476,
    "website": "https://www.ballarena.com/food-drink/colorado-social/",
    "category": "Bar & Restaurant",
    "types": "restaurant, bar, food, point_of_interest, establishment"
  },
  {
    "place_id": "ChIJE2oTzMR4bIcRTXq2vURvkmI",
    "name": "Oskar Blues Grill & Brew - Denver",
    "street_address": "1624 Market Street",
    "city": "Denver",
    "state": "CO",
    "zip_code": "80202",
    "latitude": 39.7501564,
    "longitude": -104.9976582,
    "website": "https://www.oskarbluesfooderies.com/",
    "category": "Bar & Restaurant",
    "types": "bar, restaurant, food, point_of_interest, establishment"
  },
  {
    "place_id": "ChIJedEujDV5bIcRB1SGOdPEoqY",
    "name": "Tom's Watch Bar - Coors Field",
    "street_address": "1601 19th Street",
    "city": "Denver",
    "state": "CO",
    "zip_code": "80202",
    "latitude": 39.7544854,
    "longitude": -104.9967483,
    "website": "https://tomswatchbar.com/denver-coors-field/",
    "category": "Bar & Restaurant",
    "types": "bar, restaurant, food, point_of_interest, establishment"
  },
  {
    "place_id": "ChIJsRODlcd4bIcRg1OK-N72S6w",
    "name": "Brooklyn's At Ball Arena",
    "street_address": "901 Auraria Parkway",
    "city": "Denver",
    "state": "CO",
    "zip_code": "80204",
    "latitude": 39.7470381,
    "longitude": -105.0076126,
    "website": "https://brooklynsballarena.com/",
    "category": "Bar & Restaurant",
    "types": "bar, restaurant, food, point_of_interest, establishment"
  },
  {
    "place_id": "ChIJ3ZKpdjJ5bIcR9SzF7keSe0Q",
    "name": "Stoney's Uptown Joint",
    "street_address": "1035 East 17th Avenue",
    "city": "Denver",
    "state": "CO",
    "zip_code": "80218",
    "latitude": 39.7434583,
    "longitude": -104.9737051,
    "website": "https://www.stoneysbarandgrill.com/stoneys-uptown-joint",
    "category": "Bar & Restaurant",
    "types": "bar, restaurant, food, point_of_interest, establishment"
  },
  {
    "place_id": "ChIJq41-kR9_bIcR_BFDZQ6PVxc",
    "name": "Historians Ale House",
    "street_address": "24 Broadway",
    "city": "Denver",
    "state": "CO",
    "zip_code": "80203",
    "latitude": 39.71716199999999,
    "longitude": -104.9871001,
    "website": "http://historiansalehouse.com/",
    "category": "Bar & Restaurant",
    "types": "bar, restaurant, food, point_of_interest, establishment"
  },
  {
    "place_id": "ChIJYYcJUNZ-bIcR9E5nedC2hmk",
    "name": "Charlie Brown's Bar & Grill",
    "street_address": "980 Grant Street",
    "city": "Denver",
    "state": "CO",
    "zip_code": "80203",
    "latitude": 39.7317995,
    "longitude": -104.9832143,
    "website": "http://www.charliebrownsbarandgrill.com/",
    "category": "Bar & Restaurant",
    "types": "meal_takeaway, bar, restaurant, food, point_of_interest, establishment"
  },
  {
    "place_id": "ChIJTb6-a-F-bIcRoHz3AGNP7PM",
    "name": "Spot Bar & Grill",
    "street_address": "98 South Pennsylvania Street",
    "city": "Denver",
    "state": "CO",
    "zip_code": "80209",
    "latitude": 39.714851,
    "longitude": -104.981259,
    "website": "http://www.spotbarandgrill.com/",
    "category": "Bar & Restaurant",
    "types": "bar, restaurant, point_of_interest, food, establishment"
  },
  {
    "place_id": "ChIJofYJz9Z4bIcRAJTJ-IaWt74",
    "name": "Appaloosa Grill",
    "street_address": "535 16th Street Mall",
    "city": "Denver",
    "state": "CO",
    "zip_code": "80202",
    "latitude": 39.7444757,
    "longitude": -104.9910597,
    "website": "http://appaloosagrill.com/",
    "category": "Bar & Restaurant",
    "types": "bar, restaurant, food, point_of_interest, establishment"
  },
  {
    "place_id": "ChIJwUqzb9N4bIcREnFRRHM8gVw",
    "name": "The Original Brooklyn's",
    "street_address": "2644 West Colfax Avenue",
    "city": "Denver",
    "state": "CO",
    "zip_code": "80204",
    "latitude": 39.7399332,
    "longitude": -105.0204835,
    "website": "https://www.originalbrooklyns.com/",
    "category": "Bar & Restaurant",
    "types": "bar, restaurant, food, point_of_interest, establishment"
  },
  {
    "place_id": "ChIJW-JPBdF4bIcRPRTSYvAOiEo",
    "name": "54thirty Rooftop",
    "street_address": "1475 California Street",
    "city": "Denver",
    "state": "CO",
    "zip_code": "80202",
    "latitude": 39.7442539,
    "longitude": -104.993871,
    "website": "https://www.54thirty.com/?utm_source=google&utm_medium=organic&utm_campaign=business_listing",
    "category": "Bar & Restaurant",
    "types": "bar, restaurant, food, point_of_interest, establishment"
  },
  {
    "place_id": "ChIJ1aNkg0p5bIcRultN3x_J9bg",
    "name": "Vine Street Pub & Brewery",
    "street_address": "1700 Vine Street",
    "city": "Denver",
    "state": "CO",
    "zip_code": "80206",
    "latitude": 39.7434812,
    "longitude": -104.9620078,
    "website": "http://www.mountainsunpub.com/",
    "category": "Bar & Restaurant",
    "types": "restaurant, bar, food, point_of_interest, establishment"
  },
  {
    "place_id": "ChIJHY5jhNp4bIcR8ij0UT5PKRY",
    "name": "Rock Bottom Restaurant & Brewery",
    "street_address": "1001 16th Street Mall",
    "city": "Denver",
    "state": "CO",
    "zip_code": "80265",
    "latitude": 39.7475593,
    "longitude": -104.9948415,
    "website": "https://rockbottom.com/locations/denver/?utm_source=google_my_business&utm_medium=map_organic_search&utm_campaign=location&utm_content=website_button",
    "category": "Bar & Restaurant",
    "types": "bar, restaurant, food, point_of_interest, establishment"
  },
  {
    "place_id": "ChIJq29HUa15bIcRLETzEiISOrg",
    "name": "City Park Tavern",
    "street_address": "3181 East 23rd Avenue",
    "city": "Denver",
    "state": "CO",
    "zip_code": "80205",
    "latitude": 39.7524842,
    "longitude": -104.949143,
    "website": "https://www.cityofdenvergolf.com/city-park/",
    "category": "Restaurant",
    "types": "restaurant, food, point_of_interest, establishment"
  },
  {
    "place_id": "ChIJ_8-mapN4bIcReXBvTCe4pAM",
    "name": "Recess Beer Garden",
    "street_address": "2715 17th Street",
    "city": "Denver",
    "state": "CO",
    "zip_code": "80211",
    "latitude": 39.76157,
    "longitude": -105.0104605,
    "website": "https://www.recessbeergarden.com/",
    "category": "Bar & Restaurant",
    "types": "bar, restaurant, food, point_of_interest, establishment"
  },
  {
    "place_id": "ChIJwZDO4Lx5bIcR8VWv5BGiex8",
    "name": "The Moose Sports Bar & Grill",
    "street_address": "3350 Brighton Boulevard",
    "city": "Denver",
    "state": "CO",
    "zip_code": "80216",
    "latitude": 39.768594,
    "longitude": -104.9797872,
    "website": "https://moosedenver.com/",
    "category": "Bar & Restaurant",
    "types": "bar, restaurant, food, point_of_interest, establishment"
  },
  {
    "place_id": "ChIJ00-C-wV8bIcRAIDbU1INkQc",
    "name": "The Abbey Tavern",
    "street_address": "5151 East Colfax Avenue",
    "city": "Denver",
    "state": "CO",
    "zip_code": "80220",
    "latitude": 39.7405972,
    "longitude": -104.9277056,
    "website": "http://theabbeytaverndenver.com/",
    "category": "Bar & Restaurant",
    "types": "bar, restaurant, point_of_interest, food, establishment"
  },
  {
    "place_id": "ChIJkR49mut5bIcRYkPzM1V3LAI",
    "name": "RIVER",
    "street_address": "3759 Chestnut Place",
    "city": "Denver",
    "state": "CO",
    "zip_code": "80216",
    "latitude": 39.774268,
    "longitude": -104.9776131,
    "website": "https://www.riverbar.art/",
    "category": "Bar & Restaurant",
    "types": "bar, restaurant, food, point_of_interest, establishment"
  },
  {
    "place_id": "ChIJ9wzD8Ad_bIcRniyrX0kTyks",
    "name": "Rome's Saloon",
    "street_address": "785 West Mississippi Avenue",
    "city": "Denver",
    "state": "CO",
    "zip_code": "80223",
    "latitude": 39.6969276,
    "longitude": -104.9963775,
    "website": "http://www.romessaloon.com/",
    "category": "Bar & Restaurant",
    "types": "bar, restaurant, food, point_of_interest, establishment"
  },
  {
    "place_id": "ChIJBadAhB95bIcR1h_loSGkaR0",
    "name": "Wynkoop Brewing Company",
    "street_address": "1634 18th Street",
    "city": "Denver",
    "state": "CO",
    "zip_code": "80202",
    "latitude": 39.7534439,
    "longitude": -104.9984977,
    "website": "https://wynkoop.com/",
    "category": "Bar & Restaurant",
    "types": "bar, restaurant, point_of_interest, food, establishment"
  },
  {
    "place_id": "ChIJsa5b_s94bIcRS8f1KMq93S0",
    "name": "Clever Girl",
    "street_address": "3501 Wazee Street",
    "city": "Denver",
    "state": "CO",
    "zip_code": "80216",
    "latitude": 39.769417,
    "longitude": -104.977068,
    "website": "https://www.clevergirldenver.com/",
    "category": "Bar & Restaurant",
    "types": "bar, restaurant, food, point_of_interest, establishment"
  },
  {
    "place_id": "ChIJRdLgJjt_bIcR_laCL5XuKVM",
    "name": "Black Sky Brewery",
    "street_address": "490 Santa Fe Drive",
    "city": "Denver",
    "state": "CO",
    "zip_code": "80204",
    "latitude": 39.72394099999999,
    "longitude": -104.9984666,
    "website": "http://www.blackskydenver.com/",
    "category": "Bar & Restaurant",
    "types": "bar, restaurant, food, point_of_interest, establishment"
  },
  {
    "place_id": "ChIJp_NsT_h5bIcRnDY0uCkKRCw",
    "name": "Teachers' Lounge Food + Drink",
    "street_address": "1250 Welton Street",
    "city": "Denver",
    "state": "CO",
    "zip_code": "80204",
    "latitude": 39.7412393,
    "longitude": -104.9952935,
    "website": "https://www.slatedenver.com/dining?utm_source=gmb&utm_medium=Yext",
    "category": "Restaurant",
    "types": "restaurant, food, point_of_interest, establishment"
  },
  {
    "place_id": "ChIJ0VBfnmx_bIcRC4U_17SsYx0",
    "name": "Postino Broadway",
    "street_address": "145 Broadway",
    "city": "Denver",
    "state": "CO",
    "zip_code": "80203",
    "latitude": 39.71915329999999,
    "longitude": -104.9878005,
    "website": "https://www.postinowinecafe.com/locations/postino-broadway",
    "category": "Bar & Restaurant",
    "types": "restaurant, bar, point_of_interest, food, establishment"
  },
  {
    "place_id": "ChIJzUQzedN-bIcRwhZQzex-bBQ",
    "name": "Hudson Hill",
    "street_address": "619 East 13th Avenue",
    "city": "Denver",
    "state": "CO",
    "zip_code": "80203",
    "latitude": 39.736974,
    "longitude": -104.9793807,
    "website": "http://hudsonhilldenver.com/",
    "category": "Bar & Restaurant",
    "types": "cafe, bar, store, restaurant, food, point_of_interest, establishment"
  },
  {
    "place_id": "ChIJsZiy8I55bIcR-YXK_6oJ54M",
    "name": "Nola Jane Restaurant & Bar",
    "street_address": "1435 Market Street",
    "city": "Denver",
    "state": "CO",
    "zip_code": "80202",
    "latitude": 39.7486435,
    "longitude": -105.0002679,
    "website": "https://nolajanedenver.com/",
    "category": "Bar & Restaurant",
    "types": "bar, restaurant, food, point_of_interest, establishment"
  },
  {
    "place_id": "ChIJI_cFicJ5bIcRSkRHh9eaXik",
    "name": "Westbound & Down Brewing Company",
    "street_address": "1801 Blake Street",
    "city": "Denver",
    "state": "CO",
    "zip_code": "80202",
    "latitude": 39.7529622,
    "longitude": -104.9968589,
    "website": "https://www.westboundanddown.com/downtown-denver",
    "category": "Bar & Restaurant",
    "types": "bar, restaurant, food, point_of_interest, establishment"
  },
  {
    "place_id": "ChIJ59c0J9B4bIcRP7IDgFozjiw",
    "name": "The Corner Office Restaurant + Martini Bar",
    "street_address": "1401 Curtis Street",
    "city": "Denver",
    "state": "CO",
    "zip_code": "80202",
    "latitude": 39.7457156,
    "longitude": -104.9972166,
    "website": "https://www.thecornerofficedenver.com/",
    "category": "Bar & Restaurant",
    "types": "restaurant, bar, food, point_of_interest, establishment"
  },
  {
    "place_id": "ChIJ12azGxSHa4cRNVroIJZOQ58",
    "name": "Sloan's Bar & Grill",
    "street_address": "5850 West 25th Avenue",
    "city": "Edgewater",
    "state": "CO",
    "zip_code": "80214",
    "latitude": 39.7527374,
    "longitude": -105.0612586,
    "website": "http://www.sloansbarandgrill.com/",
    "category": "Bar & Restaurant",
    "types": "bar, restaurant, food, point_of_interest, establishment"
  },
  {
    "place_id": "ChIJ65yDbMZ4bIcRVF46IhG1cNk",
    "name": "Degree Brewpub",
    "street_address": "1190 Auraria Parkway",
    "city": "Denver",
    "state": "CO",
    "zip_code": "80204",
    "latitude": 39.7471931,
    "longitude": -105.0039718,
    "website": "https://www.degreebrewpub.com/",
    "category": "Bar & Restaurant",
    "types": "bar, restaurant, food, point_of_interest, establishment"
  },
  {
    "place_id": "ChIJHf-u0ICHa4cRUpCbgPKgnoo",
    "name": "Billy's Inn",
    "street_address": "4403 Lowell Boulevard",
    "city": "Denver",
    "state": "CO",
    "zip_code": "80211",
    "latitude": 39.7769705,
    "longitude": -105.0349888,
    "website": "http://www.billysinn.com/",
    "category": "Bar & Restaurant",
    "types": "bar, restaurant, food, point_of_interest, establishment"
  },
  {
    "place_id": "ChIJuTqE19mHa4cR6YNe7nI31as",
    "name": "Jake's Roadhouse",
    "street_address": "5980 North Lamar Street",
    "city": "Arvada",
    "state": "CO",
    "zip_code": "80003",
    "latitude": 39.80506949999999,
    "longitude": -105.0669326,
    "website": "http://www.jakesroadhouse.com/",
    "category": "Bar & Restaurant",
    "types": "bar, restaurant, food, point_of_interest, establishment"
  },
  {
    "place_id": "ChIJsdygshaHa4cR7JAQTbDUuSY",
    "name": "Edgewater Beer Garden",
    "street_address": "2508 Gray Street",
    "city": "Edgewater",
    "state": "CO",
    "zip_code": "80214",
    "latitude": 39.7533512,
    "longitude": -105.0610842,
    "website": "https://www.edgewaterbeergarden.com/",
    "category": "Bar & Restaurant",
    "types": "bar, restaurant, food, point_of_interest, establishment"
  },
  {
    "place_id": "ChIJufIGNdZ9bIcRb3ZyjdruWKk",
    "name": "Dr Proctor's Bar and Grill (Lounge)",
    "street_address": "4201 East Mississippi Avenue",
    "city": "Glendale",
    "state": "CO",
    "zip_code": "80246",
    "latitude": 39.6973305,
    "longitude": -104.9375794,
    "website": "https://www.facebook.com/Proctors.Glendale.Bar",
    "category": "Bar & Restaurant",
    "types": "night_club, bar, restaurant, food, point_of_interest, establishment"
  },
  {
    "place_id": "ChIJo6GUYIp-bIcRyf5yaG459Q8",
    "name": "Campus Lounge",
    "street_address": "701 South University Boulevard",
    "city": "Denver",
    "state": "CO",
    "zip_code": "80209",
    "latitude": 39.703747,
    "longitude": -104.959681,
    "website": "https://www.campusdenver.com/",
    "category": "Bar & Restaurant",
    "types": "bar, night_club, restaurant, food, point_of_interest, establishment"
  },
  {
    "place_id": "ChIJt2pkGz9-bIcRWCefCZnWpTA",
    "name": "Spanky\u2019s Roadhouse",
    "street_address": "1800 East Evans Avenue",
    "city": "Denver",
    "state": "CO",
    "zip_code": "80210",
    "latitude": 39.6782488,
    "longitude": -104.9659571,
    "website": "https://www.spankysur.com/",
    "category": "Bar & Restaurant",
    "types": "meal_takeaway, bar, restaurant, food, point_of_interest, establishment"
  },
  {
    "place_id": "ChIJZZPIFlR-bIcRmG4EdudSti0",
    "name": "Lincoln's Roadhouse",
    "street_address": "1201 South Pearl Street",
    "city": "Denver",
    "state": "CO",
    "zip_code": "80210",
    "latitude": 39.694672,
    "longitude": -104.9809409,
    "website": "http://www.lincolnsroadhouse.com/",
    "category": "Bar & Restaurant",
    "types": "bar, restaurant, food, point_of_interest, establishment"
  },
  {
    "place_id": "ChIJ7xAt8LR_bIcRQxJRZOGYB9Q",
    "name": "The Brutal Poodle",
    "street_address": "1967 South Broadway",
    "city": "Denver",
    "state": "CO",
    "zip_code": "80210",
    "latitude": 39.6808802,
    "longitude": -104.9878461,
    "website": "https://brutalpoodledenver.com/",
    "category": "Bar & Restaurant",
    "types": "bar, restaurant, food, point_of_interest, establishment"
  },
  {
    "place_id": "ChIJZ5-QRFd8bIcRoF-jo5i39pg",
    "name": "Lowry Beer Garden",
    "street_address": "7577 East Academy Boulevard",
    "city": "Denver",
    "state": "CO",
    "zip_code": "80230",
    "latitude": 39.7203484,
    "longitude": -104.8963521,
    "website": "http://www.lowrybeergarden.com/",
    "category": "Bar & Restaurant",
    "types": "bar, restaurant, food, point_of_interest, establishment"
  },
  {
    "place_id": "ChIJ6w63-Dx_bIcR6v6Lf2AGXWU",
    "name": "Brewery Bar II",
    "street_address": "150 Kalamath Street",
    "city": "Denver",
    "state": "CO",
    "zip_code": "80223",
    "latitude": 39.7193604,
    "longitude": -104.9998859,
    "website": "https://www.brewerybars.com/",
    "category": "Restaurant",
    "types": "restaurant, food, point_of_interest, establishment"
  },
  {
    "place_id": "ChIJz34rgS18bIcREYpi_TFHZPY",
    "name": "Inga's Alpine Tavern",
    "street_address": "5151 Leetsdale Drive",
    "city": "Denver",
    "state": "CO",
    "zip_code": "80246",
    "latitude": 39.70850470000001,
    "longitude": -104.9273982,
    "website": "http://ingasalpinetavern.net/",
    "category": "Bar & Restaurant",
    "types": "night_club, bar, restaurant, food, point_of_interest, establishment"
  },
  {
    "place_id": "ChIJRfSU5YJ_bIcRJaVOxRFUQSY",
    "name": "BurnDown",
    "street_address": "476 South Broadway",
    "city": "Denver",
    "state": "CO",
    "zip_code": "80209",
    "latitude": 39.70804320000001,
    "longitude": -104.9872152,
    "website": "https://www.burndowndenver.com/",
    "category": "Bar & Restaurant",
    "types": "bar, restaurant, food, point_of_interest, establishment"
  },
  {
    "place_id": "ChIJqTdeN4R9bIcRwlhsbVWPOiY",
    "name": "Skippy's",
    "street_address": "7545 East Iliff Avenue",
    "city": "Denver",
    "state": "CO",
    "zip_code": "80231",
    "latitude": 39.6758749,
    "longitude": -104.8999608,
    "website": "http://skippysbarandgrill.com/",
    "category": "Bar & Restaurant",
    "types": "bar, restaurant, food, point_of_interest, establishment"
  },
  {
    "place_id": "ChIJF3iFpWB-bIcREtCdoVQHGn4",
    "name": "Reivers Bar & Grill",
    "street_address": "1085 South Gaylord Street",
    "city": "Denver",
    "state": "CO",
    "zip_code": "80209",
    "latitude": 39.6968872,
    "longitude": -104.9619722,
    "website": "https://www.reiversbarandgrill.com/",
    "category": "Restaurant",
    "types": "restaurant, food, point_of_interest, establishment"
  },
  {
    "place_id": "ChIJlTNa9O9-bIcR0bW7p8ZA_nQ",
    "name": "Blackbird Public House",
    "street_address": "305 South Downing Street",
    "city": "Denver",
    "state": "CO",
    "zip_code": "80209",
    "latitude": 39.7107988,
    "longitude": -104.9737295,
    "website": "https://www.blackbirdpublichouse.com/",
    "category": "Restaurant",
    "types": "restaurant, food, point_of_interest, establishment"
  },
  {
    "place_id": "ChIJ31UE2n1_bIcR1VeAa08lGkI",
    "name": "Culinary Dropout",
    "street_address": "4141 East 9th Avenue",
    "city": "Denver",
    "state": "CO",
    "zip_code": "80220",
    "latitude": 39.7311775,
    "longitude": -104.9390615,
    "website": "https://www.culinarydropout.com/locations/denver-co/?utm_source=Google&utm_medium=Organic&utm_campaign=Maps",
    "category": "Bar & Restaurant",
    "types": "bar, store, restaurant, food, point_of_interest, establishment"
  },
  {
    "place_id": "ChIJQeU1a5t-bIcR_Jv53c3JZ9s",
    "name": "Chopper's Sports Grill",
    "street_address": "80 South Madison Street",
    "city": "Denver",
    "state": "CO",
    "zip_code": "80209",
    "latitude": 39.7149292,
    "longitude": -104.9458857,
    "website": "https://chopperssportsgrill.com/",
    "category": "Bar & Restaurant",
    "types": "bar, restaurant, food, point_of_interest, establishment"
  },
  {
    "place_id": "ChIJIzsCgJZ-bIcRJ8wt6D2vSoQ",
    "name": "The Cherry Cricket",
    "street_address": "2641 East 2nd Avenue",
    "city": "Denver",
    "state": "CO",
    "zip_code": "80206",
    "latitude": 39.7195863,
    "longitude": -104.9563501,
    "website": "https://cherrycricket.com/",
    "category": "Bar & Restaurant",
    "types": "bar, restaurant, food, point_of_interest, establishment"
  },
  {
    "place_id": "ChIJYWO6GxB5bIcR0C3amGQv8ZI",
    "name": "Black Shirt Brewing Co and Craft Pizza Kitchen",
    "street_address": "3719 Walnut Street",
    "city": "Denver",
    "state": "CO",
    "zip_code": "80205",
    "latitude": 39.7698031,
    "longitude": -104.9728906,
    "website": "http://blackshirtbrewingco.com/",
    "category": "Bar & Restaurant",
    "types": "bar, restaurant, food, point_of_interest, establishment"
  },
  {
    "place_id": "ChIJ_1_NKmOHa4cRAdr34iugbB4",
    "name": "El Camino Community Tavern",
    "street_address": "3628 West 32nd Avenue",
    "city": "Denver",
    "state": "CO",
    "zip_code": "80211",
    "latitude": 39.76197439999999,
    "longitude": -105.0353931,
    "website": "http://www.elcaminotavern.com/",
    "category": "Bar & Restaurant",
    "types": "bar, restaurant, food, point_of_interest, establishment"
  },
  {
    "place_id": "ChIJZyPtpYSHa4cRhKIl_QldXPo",
    "name": "The Grateful Gnome Sandwich Shoppe & Brewery",
    "street_address": "4369 Stuart Street",
    "city": "Denver",
    "state": "CO",
    "zip_code": "80212",
    "latitude": 39.776517,
    "longitude": -105.0432799,
    "website": "https://www.thegratefulgnome.com/",
    "category": "Bar & Restaurant",
    "types": "bar, restaurant, food, point_of_interest, establishment"
  },
  {
    "place_id": "ChIJPQgXCsN4bIcR6RnbbBZmgms",
    "name": "Ultreia",
    "street_address": "1701 Wynkoop Street",
    "city": "Denver",
    "state": "CO",
    "zip_code": "80202",
    "latitude": 39.7532211,
    "longitude": -104.9998482,
    "website": "http://ultreiadenver.com/",
    "category": "Bar & Restaurant",
    "types": "bar, restaurant, food, point_of_interest, establishment"
  },
  {
    "place_id": "ChIJjwQ64f1_a4cRB0X0E8-B0ic",
    "name": "Monaghan's Bar and Grill",
    "street_address": "3889 South King Street",
    "city": "Denver",
    "state": "CO",
    "zip_code": "80236",
    "latitude": 39.646019,
    "longitude": -105.033566,
    "website": "https://m.facebook.com/Monaghans-Bar-and-Grill-563095003748497/",
    "category": "Bar & Restaurant",
    "types": "bar, restaurant, food, point_of_interest, establishment"
  },
  {
    "place_id": "ChIJCToRO9t_bIcR3ClopgKw014",
    "name": "Table Public House",
    "street_address": "2190 South Platte River Drive",
    "city": "Denver",
    "state": "CO",
    "zip_code": "80223",
    "latitude": 39.6768189,
    "longitude": -104.996892,
    "website": "https://tablepublichouse.com/",
    "category": "Bar & Restaurant",
    "types": "cafe, bar, store, restaurant, food, point_of_interest, establishment"
  },
  {
    "place_id": "ChIJFfQDpI2Aa4cR5vTWzNLM6sg",
    "name": "Boogie Down Bar",
    "street_address": "5115 Morrison Road",
    "city": "Denver",
    "state": "CO",
    "zip_code": "80219",
    "latitude": 39.6977646,
    "longitude": -105.0523989,
    "website": null,
    "category": "Bar & Restaurant",
    "types": "bar, restaurant, food, point_of_interest, establishment"
  },
  {
    "place_id": "ChIJUwi2ThmAa4cR8LB2a1mou9o",
    "name": "Doghouse Tavern",
    "street_address": "3100 South Sheridan Boulevard",
    "city": "Denver",
    "state": "CO",
    "zip_code": "80227",
    "latitude": 39.654918,
    "longitude": -105.0474652,
    "website": "http://www.doghouse-tavern.com/",
    "category": "Bar & Restaurant",
    "types": "bar, restaurant, food, point_of_interest, establishment"
  },
  {
    "place_id": "ChIJDajH0jl_bIcRMCz9sFLYXps",
    "name": "Origins Sports Bar & Grill",
    "street_address": "266 South Downing Street",
    "city": "Denver",
    "state": "CO",
    "zip_code": "80209",
    "latitude": 39.7117492,
    "longitude": -104.9729299,
    "website": "https://www.originsbar.com/",
    "category": "Bar & Restaurant",
    "types": "bar, restaurant, food, point_of_interest, establishment"
  },
  {
    "place_id": "ChIJa3F5vh9_bIcRR4VxpUA1b20",
    "name": "Dougherty's Restaurant & Pub",
    "street_address": "5 East Ellsworth Avenue",
    "city": "Denver",
    "state": "CO",
    "zip_code": "80209",
    "latitude": 39.7166617,
    "longitude": -104.986981,
    "website": "https://www.doughertyspub.com/",
    "category": "Bar & Restaurant",
    "types": "bar, restaurant, food, point_of_interest, establishment"
  },
  {
    "place_id": "ChIJ-7zPnax_bIcRAdvr0yO8YYU",
    "name": "GB Fish & Chips",
    "street_address": "1311 South Broadway",
    "city": "Denver",
    "state": "CO",
    "zip_code": "80210",
    "latitude": 39.692625,
    "longitude": -104.987715,
    "website": "https://gbfishandchips.com/",
    "category": "Bar & Restaurant",
    "types": "bar, restaurant, food, point_of_interest, establishment"
  },
  {
    "place_id": "ChIJJc5YpHWAbIcR3X9qj2pQqJ0",
    "name": "Bout Time Pub & Grub",
    "street_address": "3580 South Platte River Drive",
    "city": "Sheridan",
    "state": "CO",
    "zip_code": "80110",
    "latitude": 39.651763,
    "longitude": -105.009004,
    "website": "https://www.bouttimepub.com/location/sheridan-colorado/",
    "category": "Bar & Restaurant",
    "types": "bar, restaurant, food, point_of_interest, establishment"
  },
  {
    "place_id": "ChIJD1rR8EWBbIcRcIUSagghuCk",
    "name": "One Barrel American Bistro & Wine Bar",
    "street_address": "3401 South Broadway",
    "city": "Englewood",
    "state": "CO",
    "zip_code": "80113",
    "latitude": 39.6547009,
    "longitude": -104.9880073,
    "website": "https://theonebarrel.com/",
    "category": "Bar & Restaurant",
    "types": "bar, restaurant, food, point_of_interest, establishment"
  },
  {
    "place_id": "ChIJQTOInK9_bIcRRFECDBsPmkE",
    "name": "Fire On The Mountain-Wash Park",
    "street_address": "300 South Logan Street",
    "city": "Denver",
    "state": "CO",
    "zip_code": "80209",
    "latitude": 39.7109648,
    "longitude": -104.982377,
    "website": "https://www.fotmdenver.com/location/wash-park/",
    "category": "Bar & Restaurant",
    "types": "bar, restaurant, food, point_of_interest, establishment"
  },
  {
    "place_id": "ChIJH-MERmCAbIcRKBZBHsoerNE",
    "name": "Full House Sports Bar and Grill",
    "street_address": "4272 South Broadway",
    "city": "Englewood",
    "state": "CO",
    "zip_code": "80113",
    "latitude": 39.63913459999999,
    "longitude": -104.9874287,
    "website": "https://fullhousebarandgrills.com/",
    "category": "Bar & Restaurant",
    "types": "bar, restaurant, food, point_of_interest, establishment"
  },
  {
    "place_id": "ChIJ0V1OFQCBbIcRWjw3gCE5XeU",
    "name": "Black+Haus Tavern - Littleton",
    "street_address": "2439 Main Street",
    "city": "Littleton",
    "state": "CO",
    "zip_code": "80120",
    "latitude": 39.61395400000001,
    "longitude": -105.0166916,
    "website": "https://www.blackhaustavern.com/",
    "category": "Bar & Restaurant",
    "types": "bar, restaurant, food, point_of_interest, establishment"
  },
  {
    "place_id": "ChIJTcAdqDSAbIcRDNDQtR25p88",
    "name": "Ned Kelly's Irish Pub",
    "street_address": "5686 South Sycamore Street",
    "city": "Littleton",
    "state": "CO",
    "zip_code": "80120",
    "latitude": 39.6139602,
    "longitude": -105.0149744,
    "website": "http://nedkellysirishpub.com/",
    "category": "Bar & Restaurant",
    "types": "meal_takeaway, bar, restaurant, food, point_of_interest, establishment"
  },
  {
    "place_id": "ChIJjR2ANQCBbIcRdEetqj89dBQ",
    "name": "The 49th Food & Spirits Littleton",
    "street_address": "5350 South Santa Fe Drive",
    "city": "Littleton",
    "state": "CO",
    "zip_code": "80120",
    "latitude": 39.6199551,
    "longitude": -105.0164036,
    "website": "http://the49thdenver.com/",
    "category": "Bar & Restaurant",
    "types": "bar, restaurant, food, point_of_interest, establishment"
  },
  {
    "place_id": "ChIJ_16ddp-BbIcRsmicwD7TCEk",
    "name": "The Castle Bar and Grill",
    "street_address": "6657 South Broadway",
    "city": "Littleton",
    "state": "CO",
    "zip_code": "80121",
    "latitude": 39.595794,
    "longitude": -104.988637,
    "website": "https://castlebarandgrill.co/",
    "category": "Bar & Restaurant",
    "types": "bar, restaurant, food, point_of_interest, establishment"
  },
  {
    "place_id": "ChIJS89H62uBbIcRPFaYtEx48MA",
    "name": "Colorado Pinball Pub",
    "street_address": "6209 South Santa Fe Drive",
    "city": "Littleton",
    "state": "CO",
    "zip_code": "80120",
    "latitude": 39.6038994,
    "longitude": -105.0207328,
    "website": "http://www.coloradopinballpub.com/",
    "category": "Bar & Restaurant",
    "types": "bar, restaurant, food, point_of_interest, establishment"
  },
  {
    "place_id": "ChIJce9K0eGDbIcRkKOlgQfxgS8",
    "name": "The Varsity Inn",
    "street_address": "7500 South University Boulevard",
    "city": "Centennial",
    "state": "CO",
    "zip_code": "80122",
    "latitude": 39.580357,
    "longitude": -104.957942,
    "website": "http://www.thevarsityinn.net/",
    "category": "Bar & Restaurant",
    "types": "restaurant, bar, food, point_of_interest, establishment"
  },
  {
    "place_id": "ChIJ3V9roCuCbIcR3GeQXzAq1Z4",
    "name": "Alibi's Bar & Grill",
    "street_address": "7983 South Broadway",
    "city": "Littleton",
    "state": "CO",
    "zip_code": "80122",
    "latitude": 39.5711111,
    "longitude": -104.9899694,
    "website": null,
    "category": "Bar & Restaurant",
    "types": "night_club, bar, restaurant, food, point_of_interest, establishment"
  },
  {
    "place_id": "ChIJW_jruTKAbIcRplTOLtjXlR0",
    "name": "ViewHouse",
    "street_address": "2680 Main Street",
    "city": "Littleton",
    "state": "CO",
    "zip_code": "80120",
    "latitude": 39.6135226,
    "longitude": -105.0195111,
    "website": "https://www.viewhouse.com/",
    "category": "Bar & Restaurant",
    "types": "bar, restaurant, food, point_of_interest, establishment"
  },
  {
    "place_id": "ChIJYTqpNTOAbIcROYw8t_rZQqA",
    "name": "Olde Towne Tavern",
    "street_address": "2410 Main Street",
    "city": "Littleton",
    "state": "CO",
    "zip_code": "80120",
    "latitude": 39.61359339999999,
    "longitude": -105.0164404,
    "website": "https://www.ottlittleton.com/",
    "category": "Bar & Restaurant",
    "types": "bar, restaurant, food, point_of_interest, establishment"
  },
  {
    "place_id": "ChIJC6rkXWR-a4cRjGUN9rOUklM",
    "name": "Columbine Bar and Restaurant",
    "street_address": "7660 South Pierce Street",
    "city": "Littleton",
    "state": "CO",
    "zip_code": "80128",
    "latitude": 39.577611,
    "longitude": -105.0719528,
    "website": null,
    "category": "Bar & Restaurant",
    "types": "bar, restaurant, food, point_of_interest, establishment"
  },
  {
    "place_id": "ChIJO-OfA9KBbIcRwmVS-y0jTLY",
    "name": "Platte River Bar and Grill",
    "street_address": "5995 South Santa Fe Drive",
    "city": "Littleton",
    "state": "CO",
    "zip_code": "80120",
    "latitude": 39.6078682,
    "longitude": -105.0214462,
    "website": "http://www.theplatteriverbarandgrill.com/",
    "category": "Bar & Restaurant",
    "types": "bar, restaurant, food, point_of_interest, establishment"
  },
  {
    "place_id": "ChIJ51GFKCZ_a4cR6TN1ZrOn3B8",
    "name": "Social Bar & Lounge",
    "street_address": "3625 West Bowles Avenue",
    "city": "Littleton",
    "state": "CO",
    "zip_code": "80123",
    "latitude": 39.6100335,
    "longitude": -105.0361018,
    "website": "http://www.socialbarlounge.com/",
    "category": "Bar & Restaurant",
    "types": "bar, night_club, restaurant, food, point_of_interest, establishment"
  },
  {
    "place_id": "ChIJV6-yIAeAbIcR8qE5b83oiN4",
    "name": "Longshot Restaurant and Lounge",
    "street_address": "3665 South Federal Boulevard",
    "city": "Englewood",
    "state": "CO",
    "zip_code": "80110",
    "latitude": 39.6499624,
    "longitude": -105.0257369,
    "website": null,
    "category": "Bar & Restaurant",
    "types": "bar, night_club, restaurant, food, point_of_interest, establishment"
  },
  {
    "place_id": "ChIJuf31BWiBbIcRaZBSEMmwF8E",
    "name": "Cherry Cricket Littleton",
    "street_address": "819 West Littleton Boulevard",
    "city": "Littleton",
    "state": "CO",
    "zip_code": "80120",
    "latitude": 39.61359289999999,
    "longitude": -104.9978989,
    "website": "https://cherrycricket.com/",
    "category": "Bar & Restaurant",
    "types": "bar, restaurant, food, point_of_interest, establishment"
  },
  {
    "place_id": "ChIJD7s7UzGBbIcRxrVKOyotzUI",
    "name": "Shifterz Bar & Grill",
    "street_address": "2490 West Hampden Avenue",
    "city": "Sheridan",
    "state": "CO",
    "zip_code": "80110",
    "latitude": 39.6530963,
    "longitude": -105.0171605,
    "website": "https://shifterzbarandgrill.com/",
    "category": "Bar & Restaurant",
    "types": "bar, restaurant, food, point_of_interest, establishment"
  },
  {
    "place_id": "ChIJRTYK_46BbIcRN-P91Sn4Le0",
    "name": "Wheelz",
    "street_address": "2490 West Hampden Avenue",
    "city": "Englewood",
    "state": "CO",
    "zip_code": "80110",
    "latitude": 39.6530963,
    "longitude": -105.0171605,
    "website": "https://wheelzbar.com/",
    "category": "Bar & Restaurant",
    "types": "bar, restaurant, food, point_of_interest, establishment"
  },
  {
    "place_id": "ChIJBRpGcH-AbIcRYZkE9Sf_TTE",
    "name": "Felt",
    "street_address": "101 West Floyd Avenue",
    "city": "Englewood",
    "state": "CO",
    "zip_code": "80110",
    "latitude": 39.656761,
    "longitude": -104.9893368,
    "website": "http://www.feltbar.com/",
    "category": "Bar & Restaurant",
    "types": "bar, store, restaurant, food, point_of_interest, establishment"
  },
  {
    "place_id": "ChIJeVAwm3-AbIcRmRYwqR7xN1U",
    "name": "The Whiskey Biscuit",
    "street_address": "3299 South Broadway",
    "city": "Englewood",
    "state": "CO",
    "zip_code": "80113",
    "latitude": 39.6566915,
    "longitude": -104.9880365,
    "website": "https://thewhiskeybiscuit.com/",
    "category": "Bar & Restaurant",
    "types": "bar, restaurant, food, point_of_interest, establishment"
  },
  {
    "place_id": "ChIJAYppOpCBa4cR3ujHlfJuHt0",
    "name": "Thirsty Bear Bar & Grill",
    "street_address": "2595 South Lewis Way",
    "city": "Lakewood",
    "state": "CO",
    "zip_code": "80227",
    "latitude": 39.6690121,
    "longitude": -105.1134217,
    "website": null,
    "category": "Bar & Restaurant",
    "types": "bar, restaurant, food, point_of_interest, establishment"
  },
  {
    "place_id": "ChIJjSb6_q2Ba4cRtJbCGZHiOV0",
    "name": "Front Range Inn",
    "street_address": "7779 Morrison Road",
    "city": "Lakewood",
    "state": "CO",
    "zip_code": "80227",
    "latitude": 39.6751469,
    "longitude": -105.0847742,
    "website": "https://frontrangeinnco.com/",
    "category": "Bar & Restaurant",
    "types": "restaurant, bar, food, point_of_interest, establishment"
  },
  {
    "place_id": "ChIJG5OUBR2Ba4cRVI3gtoyUOvk",
    "name": "Nite Owl Sports Bar & Grill",
    "street_address": "1050 South Wadsworth Boulevard",
    "city": "Lakewood",
    "state": "CO",
    "zip_code": "80226",
    "latitude": 39.696922,
    "longitude": -105.080131,
    "website": "https://m.facebook.com/Nite-Owl-Sports-Bar-and-Grill-173074039434411/",
    "category": "Bar & Restaurant",
    "types": "bar, restaurant, food, point_of_interest, establishment"
  },
  {
    "place_id": "ChIJtRSs2XiBa4cReRe99cZFM54",
    "name": "Fiddlesticks Bar & Grill",
    "street_address": "West Jewell Avenue",
    "city": "Lakewood",
    "state": "CO",
    "zip_code": "80232",
    "latitude": 39.6826127,
    "longitude": -105.1190917,
    "website": "https://www.fiddlesticksbar-grill.com/",
    "category": "Bar & Restaurant",
    "types": "bar, restaurant, food, point_of_interest, establishment"
  },
  {
    "place_id": "ChIJO4Qc65SBa4cRB-UWmUNvJb8",
    "name": "TJ's Sports Bar & Grill",
    "street_address": "7893 West Jewell Avenue",
    "city": "Lakewood",
    "state": "CO",
    "zip_code": "80232",
    "latitude": 39.6837477,
    "longitude": -105.0857028,
    "website": "https://tjssportsbarlakewood.com/",
    "category": "Restaurant",
    "types": "restaurant, food, point_of_interest, establishment"
  },
  {
    "place_id": "ChIJh9XtGiCEa4cRa9dp_JUBsS4",
    "name": "Misfits Sports Bar And Grill",
    "street_address": "11475 West Colfax Avenue",
    "city": "Lakewood",
    "state": "CO",
    "zip_code": "80215",
    "latitude": 39.740503,
    "longitude": -105.1266874,
    "website": "https://misfitssportsbarandgrill.com/",
    "category": "Bar & Restaurant",
    "types": "bar, restaurant, food, point_of_interest, establishment"
  },
  {
    "place_id": "ChIJu4X-tvuDa4cRBgmUP6qxafU",
    "name": "Westrail Tap & Grill",
    "street_address": "195 South Union Boulevard",
    "city": "Lakewood",
    "state": "CO",
    "zip_code": "80228",
    "latitude": 39.7122459,
    "longitude": -105.134262,
    "website": "https://www.westrailtapandgrill.com/",
    "category": "Restaurant",
    "types": "restaurant, food, point_of_interest, establishment"
  },
  {
    "place_id": "ChIJ0RM_EzqEa4cRJZQAKDPREh4",
    "name": "Teller's Taproom & Kitchen",
    "street_address": "1990 Youngfield Street",
    "city": "Lakewood",
    "state": "CO",
    "zip_code": "80215",
    "latitude": 39.74703179999999,
    "longitude": -105.1418592,
    "website": "http://www.tellerstaproom.com/",
    "category": "Bar & Restaurant",
    "types": "restaurant, bar, food, point_of_interest, establishment"
  },
  {
    "place_id": "ChIJFT_2dKKGa4cR4faRIFkZ3WI",
    "name": "Applebee's Grill + Bar",
    "street_address": "10625 West Colfax Avenue",
    "city": "Lakewood",
    "state": "CO",
    "zip_code": "80226",
    "latitude": 39.7407893,
    "longitude": -105.1184627,
    "website": "https://restaurants.applebees.com/en-us/co/lakewood/10625-west-colfax-84048?utm_source=google&utm_medium=organic&utm_campaign=google_my_business&utm_term=84048&utm_content=website",
    "category": "Bar & Restaurant",
    "types": "restaurant, bar, food, point_of_interest, establishment"
  },
  {
    "place_id": "ChIJr30kRtGBa4cRUS-Wiq7Hz_E",
    "name": "Manning's Steaks and Spirits",
    "street_address": "11100 West Alameda Avenue",
    "city": "Lakewood",
    "state": "CO",
    "zip_code": "80226",
    "latitude": 39.710437,
    "longitude": -105.1229529,
    "website": "https://www.manningssteaksandspirits.com/",
    "category": "Bar & Restaurant",
    "types": "bar, restaurant, food, point_of_interest, establishment"
  },
  {
    "place_id": "ChIJ62nyOECHa4cRh5rs7hCCG8A",
    "name": "Skyline Pub",
    "street_address": "2045 Sheridan Boulevard",
    "city": "Edgewater",
    "state": "CO",
    "zip_code": "80214",
    "latitude": 39.7482252,
    "longitude": -105.0537217,
    "website": null,
    "category": "Bar & Restaurant",
    "types": "bar, restaurant, food, point_of_interest, establishment"
  },
  {
    "place_id": "ChIJo_Pv--CBa4cRax02pHv4gs0",
    "name": "African Grill and Bar - Lakewood Colorado",
    "street_address": "955 South Kipling Parkway",
    "city": "Lakewood",
    "state": "CO",
    "zip_code": "80226",
    "latitude": 39.6995171,
    "longitude": -105.1111294,
    "website": "http://www.africangrilllakewood.com/",
    "category": "Restaurant",
    "types": "restaurant, food, point_of_interest, establishment"
  },
  {
    "place_id": "ChIJqd9CKgGEa4cRMkueHY-JQvk",
    "name": "Beau's Kitchen & Tavern",
    "street_address": "360 Union Boulevard",
    "city": "Lakewood",
    "state": "CO",
    "zip_code": "80228",
    "latitude": 39.7214756,
    "longitude": -105.1317023,
    "website": null,
    "category": "Bar & Restaurant",
    "types": "restaurant, bar, food, point_of_interest, establishment"
  },
  {
    "place_id": "ChIJZeETIiKEa4cR2iBnfvMfCP0",
    "name": "Moose Hill Cantina and Catering",
    "street_address": "11911 West Colfax Avenue",
    "city": "Lakewood",
    "state": "CO",
    "zip_code": "80215",
    "latitude": 39.74045570000001,
    "longitude": -105.1322224,
    "website": "https://moosehillcantinas.com/?utm_source=google",
    "category": "Bar & Restaurant",
    "types": "bar, restaurant, food, point_of_interest, establishment"
  },
  {
    "place_id": "ChIJn00mTruEa4cRPaVazbU1la0",
    "name": "Dirty Dogs Roadhouse",
    "street_address": "17999 West Colfax Avenue",
    "city": "Golden",
    "state": "CO",
    "zip_code": "80401",
    "latitude": 39.72012910000001,
    "longitude": -105.2027757,
    "website": "http://www.dirtydogsroadhouse.net/",
    "category": "Bar & Restaurant",
    "types": "parking, bar, restaurant, food, point_of_interest, establishment"
  },
  {
    "place_id": "ChIJdd2Lcriaa4cRJi7iPEgXWhA",
    "name": "Cast Iron Tavern",
    "street_address": "111 North Rubey Drive",
    "city": "Golden",
    "state": "CO",
    "zip_code": "80403",
    "latitude": 39.7665528,
    "longitude": -105.2327694,
    "website": "http://castirontavern.com/",
    "category": "Restaurant",
    "types": "restaurant, food, point_of_interest, establishment"
  },
  {
    "place_id": "ChIJ80hV9tKaa4cRaVZ3w55TUB4",
    "name": "Miners Saloon",
    "street_address": "1109 Miner's Alley",
    "city": "Golden",
    "state": "CO",
    "zip_code": "80401",
    "latitude": 39.7555776,
    "longitude": -105.2221048,
    "website": "http://www.miners-saloon.com/",
    "category": "Bar & Restaurant",
    "types": "bar, restaurant, food, point_of_interest, establishment"
  },
  {
    "place_id": "ChIJw-g6_dKaa4cRhhu1b20uAm0",
    "name": "Trailhead Taphouse & Kitchen",
    "street_address": "811 12th Street",
    "city": "Golden",
    "state": "CO",
    "zip_code": "80401",
    "latitude": 39.75503399999999,
    "longitude": -105.221729,
    "website": "https://www.trailheadtaphouse.com/",
    "category": "Bar & Restaurant",
    "types": "bar, restaurant, food, point_of_interest, establishment"
  },
  {
    "place_id": "ChIJ4x-TO_OEa4cRyVNBIAE3eBM",
    "name": "Rock Rest Lodge",
    "street_address": "16005 Mount Vernon Road",
    "city": "Golden",
    "state": "CO",
    "zip_code": "80401",
    "latitude": 39.73387239999999,
    "longitude": -105.1795578,
    "website": "https://www.rockrestlodge.com/",
    "category": "Bar & Restaurant",
    "types": "bar, restaurant, food, point_of_interest, establishment"
  },
  {
    "place_id": "ChIJGwUZ8DOFa4cRldInc4WtHqU",
    "name": "Barrels & Bottles Brewery",
    "street_address": "1055 Orchard Street",
    "city": "Golden",
    "state": "CO",
    "zip_code": "80401",
    "latitude": 39.7346707,
    "longitude": -105.1800232,
    "website": "http://www.barrelsbottles.com/",
    "category": "Bar & Restaurant",
    "types": "bar, restaurant, food, point_of_interest, establishment"
  },
  {
    "place_id": "ChIJh6Rz5tKaa4cRSI0SLDtETQA",
    "name": "Buffalo Rose",
    "street_address": "1119 Washington Avenue",
    "city": "Golden",
    "state": "CO",
    "zip_code": "80401",
    "latitude": 39.7556973,
    "longitude": -105.2212884,
    "website": "http://www.buffalorosegolden.com/",
    "category": "Bar & Restaurant",
    "types": "restaurant, bar, food, point_of_interest, establishment"
  },
  {
    "place_id": "ChIJH-bsJqWEa4cREZHvTR1Pouc",
    "name": "Wrigley's Chicago Bar & Grill",
    "street_address": "18200 West Colfax Avenue",
    "city": "Golden",
    "state": "CO",
    "zip_code": "80401",
    "latitude": 39.7186333,
    "longitude": -105.2051679,
    "website": "http://www.wrigleyschicagobar.net/",
    "category": "Bar & Restaurant",
    "types": "bar, restaurant, food, point_of_interest, establishment"
  },
  {
    "place_id": "ChIJqyP1OM6Ea4cRW2agD5w_sK8",
    "name": "Footprints Restaurant at Fossil Trace",
    "street_address": "3050 Illinois Street",
    "city": "Golden",
    "state": "CO",
    "zip_code": "80401",
    "latitude": 39.7374684,
    "longitude": -105.2116284,
    "website": "http://www.footprintsgolden.com/",
    "category": "Restaurant",
    "types": "restaurant, food, point_of_interest, establishment"
  },
  {
    "place_id": "ChIJx8hO2-Kba4cRBDB5Jo-Djgk",
    "name": "King of Wings",
    "street_address": "1100 Arapahoe Street",
    "city": "Golden",
    "state": "CO",
    "zip_code": "80401",
    "latitude": 39.7552342,
    "longitude": -105.223069,
    "website": "https://kingofwingstaphouse.com/golden-co/",
    "category": "Restaurant",
    "types": "restaurant, food, point_of_interest, establishment"
  },
  {
    "place_id": "ChIJPww05dKaa4cRBysxU3aIzGE",
    "name": "Old Capitol Grill & Smokehouse",
    "street_address": "1122 Washington Avenue",
    "city": "Golden",
    "state": "CO",
    "zip_code": "80401",
    "latitude": 39.7554893,
    "longitude": -105.2216644,
    "website": "https://oldcapitolgrill-smokehouse.com/",
    "category": "Bar & Restaurant",
    "types": "restaurant, bar, food, point_of_interest, establishment"
  },
  {
    "place_id": "ChIJvaar3nqEa4cRgpE-PLSCYzk",
    "name": "The Bistro - Eat. Drink. Connect.\u00ae",
    "street_address": "14700 West 6th Avenue",
    "city": "Golden",
    "state": "CO",
    "zip_code": "80401",
    "latitude": 39.72394329999999,
    "longitude": -105.1634886,
    "website": "https://www.marriott.com/hotels/hotel-information/restaurant/dengl-courtyard-denver-west-golden/?scid=f2ae0541-1279-4f24-b197-a979c79310b0",
    "category": "Restaurant",
    "types": "restaurant, food, point_of_interest, establishment"
  },
  {
    "place_id": "ChIJ2W1_I9Oaa4cR_StSeyBzezY",
    "name": "Indulge Bistro & Wine Bar",
    "street_address": "1299 Washington Avenue",
    "city": "Golden",
    "state": "CO",
    "zip_code": "80401",
    "latitude": 39.75501289999999,
    "longitude": -105.2205017,
    "website": "https://www.indulgewinebar.com/",
    "category": "Bar & Restaurant",
    "types": "bar, restaurant, food, point_of_interest, establishment"
  },
  {
    "place_id": "ChIJdUUM8dKaa4cR8-EPhVSqCHo",
    "name": "Windy Saddle Cafe",
    "street_address": "1110 Washington Avenue",
    "city": "Golden",
    "state": "CO",
    "zip_code": "80401",
    "latitude": 39.7557412,
    "longitude": -105.2219262,
    "website": "https://windysaddle.com/",
    "category": "Restaurant",
    "types": "cafe, bakery, restaurant, food, point_of_interest, store, establishment"
  },
  {
    "place_id": "ChIJ30MrMNOaa4cRut9ZeOVxN2w",
    "name": "Woody's Wood-Fired Pizza",
    "street_address": "1305 Washington Avenue",
    "city": "Golden",
    "state": "CO",
    "zip_code": "80401",
    "latitude": 39.75445949999999,
    "longitude": -105.2201387,
    "website": "http://www.woodysgolden.com/home",
    "category": "Restaurant",
    "types": "restaurant, food, point_of_interest, establishment"
  },
  {
    "place_id": "ChIJW-G7682aa4cRnHYMd5A647o",
    "name": "Mountain Toad Brewing",
    "street_address": "900 Washington Avenue",
    "city": "Golden",
    "state": "CO",
    "zip_code": "80401",
    "latitude": 39.75813369999999,
    "longitude": -105.2241717,
    "website": "http://mountaintoadbrewing.com/",
    "category": "Bar & Restaurant",
    "types": "bar, restaurant, food, point_of_interest, establishment"
  },
  {
    "place_id": "ChIJgzXmMGyGa4cRrLuRB1M0aUw",
    "name": "Rambling Rose",
    "street_address": "10080 West 44th Avenue",
    "city": "Wheat Ridge",
    "state": "CO",
    "zip_code": "80033",
    "latitude": 39.77794120000001,
    "longitude": -105.11064,
    "website": "https://www.facebook.com/ramblingrosebar/",
    "category": "Bar & Restaurant",
    "types": "bar, restaurant, food, point_of_interest, establishment"
  },
  {
    "place_id": "ChIJiz9Nm9SHa4cRhKiN2knOpt4",
    "name": "Olde Town Tavern and Grill",
    "street_address": "7355 Ralston Road",
    "city": "Arvada",
    "state": "CO",
    "zip_code": "80002",
    "latitude": 39.8022414,
    "longitude": -105.0779574,
    "website": "https://oldetowntavernandgrillarvada.com/",
    "category": "Bar & Restaurant",
    "types": "restaurant, bar, food, point_of_interest, establishment"
  },
  {
    "place_id": "ChIJDTD_NqqHa4cRDNCPVYuyVQc",
    "name": "Clancy's Irish Pub",
    "street_address": "7000 West 38th Avenue",
    "city": "Wheat Ridge",
    "state": "CO",
    "zip_code": "80033",
    "latitude": 39.7692205,
    "longitude": -105.0745432,
    "website": "https://clancysirish.pub/#",
    "category": "Bar & Restaurant",
    "types": "bar, restaurant, food, point_of_interest, establishment"
  },
  {
    "place_id": "ChIJJR5tVd2Fa4cR35JOTsxi6Zs",
    "name": "Long Shots Bar & Grill",
    "street_address": "4400 Ward Road",
    "city": "Wheat Ridge",
    "state": "CO",
    "zip_code": "80033",
    "latitude": 39.7787578,
    "longitude": -105.1374488,
    "website": "https://m.facebook.com/Long-Shots-Bar-263219803575/",
    "category": "Bar & Restaurant",
    "types": "bar, restaurant, food, point_of_interest, establishment"
  },
  {
    "place_id": "ChIJuVP42iyGa4cRlkXfpFmP9Sc",
    "name": "The Grandview Tavern and Grill",
    "street_address": "7427 Grandview Avenue",
    "city": "Arvada",
    "state": "CO",
    "zip_code": "80002",
    "latitude": 39.799622,
    "longitude": -105.07993,
    "website": "http://thegrandviewtavern.com/",
    "category": "Bar & Restaurant",
    "types": "bar, restaurant, food, point_of_interest, establishment"
  },
  {
    "place_id": "ChIJn6QZ-iyGa4cRAJuI3WAEvzs",
    "name": "Homegrown Tap & Dough",
    "street_address": "5601 Olde Wadsworth Boulevard",
    "city": "Arvada",
    "state": "CO",
    "zip_code": "80002",
    "latitude": 39.7993488,
    "longitude": -105.0816133,
    "website": "https://www.tapanddough.com/",
    "category": "Bar & Restaurant",
    "types": "restaurant, bar, food, point_of_interest, establishment"
  },
  {
    "place_id": "ChIJ97TdiCyGa4cRbL0dR-b7ogo",
    "name": "The Arvada Tavern",
    "street_address": "5707 Olde Wadsworth Boulevard",
    "city": "Arvada",
    "state": "CO",
    "zip_code": "80002",
    "latitude": 39.800495,
    "longitude": -105.081577,
    "website": "https://www.arvadatavern.com/",
    "category": "Bar & Restaurant",
    "types": "night_club, bar, restaurant, food, point_of_interest, establishment"
  },
  {
    "place_id": "ChIJu-cAy6uHa4cRa0dFGugQq_I",
    "name": "Colorado Plus Brew Pub and Taphouse",
    "street_address": "6995 West 38th Avenue",
    "city": "Wheat Ridge",
    "state": "CO",
    "zip_code": "80033",
    "latitude": 39.7696556,
    "longitude": -105.0742083,
    "website": "http://www.coloradoplus.net/",
    "category": "Bar & Restaurant",
    "types": "bar, restaurant, food, point_of_interest, establishment"
  },
  {
    "place_id": "ChIJQwqbQk-Pa4cR2-wneIcRqDY",
    "name": "Rockabillies",
    "street_address": "12363 West 64th Avenue",
    "city": "Arvada",
    "state": "CO",
    "zip_code": "80004",
    "latitude": 39.8136665,
    "longitude": -105.1365439,
    "website": "https://rockabilliesbar.com/",
    "category": "Bar & Restaurant",
    "types": "bar, restaurant, food, point_of_interest, establishment"
  },
  {
    "place_id": "ChIJK0P41XyHa4cRLc-va0065eY",
    "name": "Mead St. Provisions",
    "street_address": "3625 West 32nd Avenue",
    "city": "Denver",
    "state": "CO",
    "zip_code": "80211",
    "latitude": 39.7622494,
    "longitude": -105.0352604,
    "website": "http://meadstdenver.com/",
    "category": "Bar & Restaurant",
    "types": "restaurant, bar, point_of_interest, food, establishment"
  },
  {
    "place_id": "ChIJS5OEsY6Ha4cRo1xKSgLk41M",
    "name": "Mestizo Brew Cantina",
    "street_address": "6800 West 38th Avenue",
    "city": "Wheat Ridge",
    "state": "CO",
    "zip_code": "80033",
    "latitude": 39.7691009,
    "longitude": -105.072478,
    "website": "http://www.mestizobrewcantina.com/",
    "category": "Bar & Restaurant",
    "types": "restaurant, bar, food, point_of_interest, establishment"
  }
]