[
  {
    "place_id": "ChIJyXBoEzUtO4gRBitcKfuF00Q",
    "name": "Harry's Detroit Bar & Grill",
    "street_address": "2482 Clifford Street",
    "city": "Detroit",
    "state": "MI",
    "zip_code": "48201",
    "latitude": 42.3392838,
    "longitude": -83.05627,
    "website": "https://www.harrysdetroit.com/",
    "category": "Bar & Restaurant",
    "types": "bar, restaurant, food, point_of_interest, establishment"
  },
  {
    "place_id": "ChIJx0HrbAAtO4gRn-futxAj6hw",
    "name": "Union Assembly",
    "street_address": "2131 Woodward Avenue",
    "city": "Detroit",
    "state": "MI",
    "zip_code": "48201",
    "latitude": 42.3381396,
    "longitude": -83.0519159,
    "website": "https://www.unionassembly.com/",
    "category": "Restaurant",
    "types": "restaurant, food, point_of_interest, establishment"
  },
  {
    "place_id": "ChIJ6WfR9C8tO4gRluMzbqxKZM8",
    "name": "Grand Trunk Pub",
    "street_address": "612 Woodward Avenue",
    "city": "Detroit",
    "state": "MI",
    "zip_code": "48226",
    "latitude": 42.3305957,
    "longitude": -83.04562039999999,
    "website": "http://grandtrunkpub.com/",
    "category": "Bar & Restaurant",
    "types": "bar, restaurant, food, point_of_interest, establishment"
  },
  {
    "place_id": "ChIJs4nAZVjNJIgRMESotwiZwec",
    "name": "Woodbridge Pub",
    "street_address": "5169 Trumbull",
    "city": "Detroit",
    "state": "MI",
    "zip_code": "48208",
    "latitude": 42.3540171,
    "longitude": -83.0801359,
    "website": "https://www.woodbridgepubdetroit.com/",
    "category": "Bar & Restaurant",
    "types": "bar, restaurant, food, point_of_interest, establishment"
  },
  {
    "place_id": "ChIJnU2kyqLSJIgRbDqpVFux0PM",
    "name": "Common Pub Detroit",
    "street_address": "5440 Cass Avenue",
    "city": "Detroit",
    "state": "MI",
    "zip_code": "48202",
    "latitude": 42.3599614,
    "longitude": -83.0686162,
    "website": "http://www.commonpub.com/",
    "category": "Bar & Restaurant",
    "types": "bar, restaurant, food, point_of_interest, establishment"
  },
  {
    "place_id": "ChIJUwca7i8tO4gRIQ4MZw3kqEg",
    "name": "Central Kitchen + Bar",
    "street_address": "660 Woodward Avenue",
    "city": "Detroit",
    "state": "MI",
    "zip_code": "48226",
    "latitude": 42.3312678,
    "longitude": -83.0457084,
    "website": "https://centraldetroit.com/",
    "category": "Bar & Restaurant",
    "types": "bar, restaurant, point_of_interest, food, establishment"
  },
  {
    "place_id": "ChIJiYvaqkgtO4gR3FVQRUhdPic",
    "name": "Lager House",
    "street_address": "1254 Michigan Avenue",
    "city": "Detroit",
    "state": "MI",
    "zip_code": "48226",
    "latitude": 42.331725,
    "longitude": -83.0632722,
    "website": "https://thelagerhouse.com/",
    "category": "Bar & Restaurant",
    "types": "night_club, bar, restaurant, food, point_of_interest, establishment"
  },
  {
    "place_id": "ChIJKaniiC4tO4gR5JbBv7nUP0E",
    "name": "The Old Shillelagh - Detroit's #1 Irish Pub Since 1975",
    "street_address": "349 Monroe Street",
    "city": "Detroit",
    "state": "MI",
    "zip_code": "48226",
    "latitude": 42.3344829,
    "longitude": -83.043883,
    "website": "http://www.oldshillelagh.com/",
    "category": "Bar & Restaurant",
    "types": "night_club, bar, meal_takeaway, restaurant, food, store, point_of_interest, establishment"
  },
  {
    "place_id": "ChIJjz7JBcssO4gRIdaC92C518E",
    "name": "Andrews on the Corner",
    "street_address": "201 Joseph Campau Avenue",
    "city": "Detroit",
    "state": "MI",
    "zip_code": "48207",
    "latitude": 42.336483,
    "longitude": -83.01796,
    "website": "http://andrewsonthecorner.com/",
    "category": "Bar & Restaurant",
    "types": "bar, restaurant, point_of_interest, food, establishment"
  },
  {
    "place_id": "ChIJy_JS6HQtO4gR59WS67m-Wbc",
    "name": "The Social Brews",
    "street_address": "211 West Fort Street",
    "city": "Detroit",
    "state": "MI",
    "zip_code": "48226",
    "latitude": 42.3291672,
    "longitude": -83.0490997,
    "website": "https://www.thesocialbrews.com/",
    "category": "Bar & Restaurant",
    "types": "restaurant, cafe, bar, food, point_of_interest, store, establishment"
  },
  {
    "place_id": "ChIJmRpVddEtO4gRreEHG7qDu6s",
    "name": "Tin Roof Detroit",
    "street_address": "47 East Adams Avenue",
    "city": "Detroit",
    "state": "MI",
    "zip_code": "48226",
    "latitude": 42.3375757,
    "longitude": -83.0500236,
    "website": "http://tinroofdetroit.com/",
    "category": "Bar & Restaurant",
    "types": "bar, restaurant, food, point_of_interest, establishment"
  },
  {
    "place_id": "ChIJrdacYUUtO4gRLwQmzHdpp-k",
    "name": "McShane's Irish Pub & Whiskey Bar",
    "street_address": "1460 Michigan Avenue",
    "city": "Detroit",
    "state": "MI",
    "zip_code": "48216",
    "latitude": 42.3316626,
    "longitude": -83.0667533,
    "website": "https://mcshanespub.com/",
    "category": "Bar & Restaurant",
    "types": "bar, restaurant, food, point_of_interest, establishment"
  },
  {
    "place_id": "ChIJ9fb9gdbSJIgRyMS4JkNT5dU",
    "name": "Thomas Magee's Sporting House Whiskey Bar",
    "street_address": "1408 East Fisher Service Drive",
    "city": "Detroit",
    "state": "MI",
    "zip_code": "48207",
    "latitude": 42.344719,
    "longitude": -83.03917969999999,
    "website": "http://www.thomasmagees.com/",
    "category": "Bar & Restaurant",
    "types": "bar, restaurant, food, point_of_interest, establishment"
  },
  {
    "place_id": "ChIJs4AsLQAtO4gRfvdyebY7OHs",
    "name": "Gilly's Clubhouse",
    "street_address": "1550 Woodward Avenue",
    "city": "Detroit",
    "state": "MI",
    "zip_code": "48226",
    "latitude": 42.3357115,
    "longitude": -83.049701,
    "website": "https://www.sevenrooms.com/reservations/gillysclubhouserooftop/goog",
    "category": "Bar & Restaurant",
    "types": "bar, restaurant, food, point_of_interest, establishment"
  },
  {
    "place_id": "ChIJaxf5JDotO4gRqv3ctG8XaQ0",
    "name": "Anchor Bar",
    "street_address": "450 West Fort Street",
    "city": "Detroit",
    "state": "MI",
    "zip_code": "48226",
    "latitude": 42.32911819999999,
    "longitude": -83.0517993,
    "website": "http://www.anchorbardetroit.com/",
    "category": "Bar & Restaurant",
    "types": "bar, restaurant, food, point_of_interest, establishment"
  },
  {
    "place_id": "ChIJueqwBSktO4gRv8j37B6RaS8",
    "name": "Flood's Bar and Grille",
    "street_address": "731 Saint Antoine",
    "city": "Detroit",
    "state": "MI",
    "zip_code": "48226",
    "latitude": 42.3343827,
    "longitude": -83.0402764,
    "website": "http://www.floodsdetroit.com/",
    "category": "Bar & Restaurant",
    "types": "bar, restaurant, point_of_interest, food, establishment"
  },
  {
    "place_id": "ChIJQyoacTEtO4gR8nc8OmJHWAw",
    "name": "Downtown Louie's Grill",
    "street_address": "30 Clifford Street",
    "city": "Detroit",
    "state": "MI",
    "zip_code": "48226",
    "latitude": 42.33477199999999,
    "longitude": -83.0501172,
    "website": "https://downtownlouiesgrill.com/",
    "category": "Bar & Restaurant",
    "types": "restaurant, night_club, bar, food, point_of_interest, establishment"
  },
  {
    "place_id": "ChIJMSuIlbnSJIgRbUFj__-VGdA",
    "name": "HopCat",
    "street_address": "4265 Woodward Avenue",
    "city": "Detroit",
    "state": "MI",
    "zip_code": "48201",
    "latitude": 42.35243860000001,
    "longitude": -83.0616762,
    "website": "https://www.hopcat.com/?olonwp=JjBtp_vMLk25gkYh_bnoiQ",
    "category": "Bar & Restaurant",
    "types": "bar, restaurant, food, point_of_interest, establishment"
  },
  {
    "place_id": "ChIJOVbJ3bMtO4gRoTTLz4RNBQk",
    "name": "Bucharest Bar & Grill",
    "street_address": "436 West Columbia Street",
    "city": "Detroit",
    "state": "MI",
    "zip_code": "48201",
    "latitude": 42.337012,
    "longitude": -83.0567047,
    "website": "http://bucharestgrill.com/",
    "category": "Bar & Restaurant",
    "types": "bar, restaurant, food, point_of_interest, establishment"
  },
  {
    "place_id": "ChIJL1pWHC4tO4gR1aabYUyo6wE",
    "name": "The Skip",
    "street_address": "1234 The Belt",
    "city": "Detroit",
    "state": "MI",
    "zip_code": "48226",
    "latitude": 42.3347059,
    "longitude": -83.046706,
    "website": "https://www.theskipdetroit.com/",
    "category": "Bar & Restaurant",
    "types": "bar, restaurant, food, point_of_interest, establishment"
  },
  {
    "place_id": "ChIJt_uOcS8tO4gR0zy4IYcEbAY",
    "name": "Greenwich Time Pub",
    "street_address": "130 Cadillac Square",
    "city": "Detroit",
    "state": "MI",
    "zip_code": "48226",
    "latitude": 42.3312373,
    "longitude": -83.04387750000001,
    "website": "http://greenwichtimepub.wixsite.com/bargrill",
    "category": "Bar & Restaurant",
    "types": "bar, restaurant, food, point_of_interest, establishment"
  },
  {
    "place_id": "ChIJlwi5TkgtO4gRjzmX82dcTZ8",
    "name": "TAP at MGM Grand Detroit",
    "street_address": "1777 3rd Avenue",
    "city": "Detroit",
    "state": "MI",
    "zip_code": "48226",
    "latitude": 42.333001,
    "longitude": -83.0594,
    "website": "https://mgmgranddetroit.mgmresorts.com/en/restaurants/tap-at-mgm-grand-detroit.html?ecid=GMB_MD_RE",
    "category": "Bar & Restaurant",
    "types": "bar, restaurant, food, point_of_interest, establishment"
  },
  {
    "place_id": "ChIJ-QgBUkvTJIgRGXg4cBYH6pA",
    "name": "Detroit Shipping Company",
    "street_address": "474 Peterboro Street",
    "city": "Detroit",
    "state": "MI",
    "zip_code": "48201",
    "latitude": 42.3440836,
    "longitude": -83.0615332,
    "website": "https://www.detroitshippingcompany.com/",
    "category": "Bar & Restaurant",
    "types": "bar, restaurant, food, point_of_interest, establishment"
  },
  {
    "place_id": "ChIJM11wg7DSJIgRmhtcvi2nOEc",
    "name": "Jolly Pumpkin Pizzeria & Brewery",
    "street_address": "441 West Canfield Street",
    "city": "Detroit",
    "state": "MI",
    "zip_code": "48201",
    "latitude": 42.3512789,
    "longitude": -83.06524619999999,
    "website": "https://detroit.jollypumpkin.com/",
    "category": "Bar & Restaurant",
    "types": "bar, restaurant, food, point_of_interest, establishment"
  },
  {
    "place_id": "ChIJAxD0eLnSJIgR0xfqsuZ13Ts",
    "name": "Starter's Bar and Grill Midtown",
    "street_address": "4501 Woodward Avenue",
    "city": "Detroit",
    "state": "MI",
    "zip_code": "48201",
    "latitude": 42.35396929999999,
    "longitude": -83.0627993,
    "website": "http://www.startersdetroit.com/",
    "category": "Bar & Restaurant",
    "types": "bar, restaurant, food, point_of_interest, establishment"
  },
  {
    "place_id": "ChIJpUou44gtO4gR1bbeGCJH1Ac",
    "name": "Parlay Detroit",
    "street_address": "1260 Washington Boulevard",
    "city": "Detroit",
    "state": "MI",
    "zip_code": "48226",
    "latitude": 42.3334851,
    "longitude": -83.05055,
    "website": "https://www.parlaydetroit.com/",
    "category": "Bar & Restaurant",
    "types": "bar, restaurant, food, point_of_interest, establishment"
  },
  {
    "place_id": "ChIJhYOvaS4tO4gRES7iI4Ec3J8",
    "name": "Baltimore Bar & Grill",
    "street_address": "1234 Randolph Street",
    "city": "Detroit",
    "state": "MI",
    "zip_code": "48226",
    "latitude": 42.3345645,
    "longitude": -83.0448818,
    "website": "https://m.facebook.com/pages/Baltimore-Bar-Grill-1234-Randolph-Detroit-MI-48226/210637208960802",
    "category": "Bar & Restaurant",
    "types": "bar, restaurant, food, point_of_interest, establishment"
  },
  {
    "place_id": "ChIJNdjiIZrSJIgRrFbFIIlHKuY",
    "name": "Z's Villa",
    "street_address": "42 Piquette Avenue",
    "city": "Detroit",
    "state": "MI",
    "zip_code": "48202",
    "latitude": 42.3664743,
    "longitude": -83.0696856,
    "website": "https://www.zsvilla.com/",
    "category": "Bar & Restaurant",
    "types": "bar, restaurant, food, point_of_interest, establishment"
  },
  {
    "place_id": "ChIJBy_ugEUtO4gRTCk8XgORwtI",
    "name": "Nemo's Bar",
    "street_address": "1384 Michigan Avenue",
    "city": "Detroit",
    "state": "MI",
    "zip_code": "48226",
    "latitude": 42.331603,
    "longitude": -83.06544699999999,
    "website": "http://nemosdetroit.com/",
    "category": "Bar & Restaurant",
    "types": "bar, restaurant, food, point_of_interest, establishment"
  },
  {
    "place_id": "ChIJH7l21QDTJIgRY_-S3ShdD5g",
    "name": "Bar Pigalle",
    "street_address": "2915 John R Street",
    "city": "Detroit",
    "state": "MI",
    "zip_code": "48201",
    "latitude": 42.34494939999999,
    "longitude": -83.05399460000001,
    "website": "https://www.barpigalle.com/",
    "category": "Restaurant",
    "types": "restaurant, food, point_of_interest, establishment"
  },
  {
    "place_id": "ChIJW3bFXh4tO4gR-0wfAXQT36o",
    "name": "Treehouse",
    "street_address": "351 Ouellette Avenue",
    "city": "Windsor",
    "state": "ON",
    "zip_code": "N9A 4J1",
    "latitude": 42.3168082,
    "longitude": -83.03874789999999,
    "website": null,
    "category": "Bar & Restaurant",
    "types": "restaurant, night_club, bar, food, point_of_interest, establishment"
  },
  {
    "place_id": "ChIJH_5v7WHNJIgRT6sUJn7PGB0",
    "name": "Northern Lights Lounge",
    "street_address": "660 West Baltimore Street",
    "city": "Detroit",
    "state": "MI",
    "zip_code": "48202",
    "latitude": 42.3668187,
    "longitude": -83.0767079,
    "website": "https://www.facebook.com/share/1AFycgnqMq/?mibextid=wwXIfr",
    "category": "Bar & Restaurant",
    "types": "bar, night_club, restaurant, food, point_of_interest, establishment"
  },
  {
    "place_id": "ChIJZ10pPjktO4gRyCpBNQIJ2GM",
    "name": "Tommy's Detroit Bar & Grill",
    "street_address": "624 3rd Avenue",
    "city": "Detroit",
    "state": "MI",
    "zip_code": "48226",
    "latitude": 42.3272756,
    "longitude": -83.053764,
    "website": "http://tommysdetroit.com/",
    "category": "Bar & Restaurant",
    "types": "bar, restaurant, food, point_of_interest, establishment"
  },
  {
    "place_id": "ChIJA9hMXbXSJIgRV5_q_1BeltQ",
    "name": "Temple Bar",
    "street_address": "2906 Cass Avenue",
    "city": "Detroit",
    "state": "MI",
    "zip_code": "48201",
    "latitude": 42.34219270000001,
    "longitude": -83.05845099999999,
    "website": null,
    "category": "Bar & Restaurant",
    "types": "bar, night_club, restaurant, food, point_of_interest, establishment"
  },
  {
    "place_id": "ChIJadXPOL8sO4gRqlZbL5AcKIw",
    "name": "O'Maggio's Kildare House",
    "street_address": "1880 Wyandotte Street East",
    "city": "Windsor",
    "state": "ON",
    "zip_code": "N8Y 1E3",
    "latitude": 42.32275140000001,
    "longitude": -83.01347779999999,
    "website": "https://www.kildarehouse.com/",
    "category": "Bar & Restaurant",
    "types": "bar, restaurant, food, point_of_interest, establishment"
  },
  {
    "place_id": "ChIJ78uXtkfTJIgRLCXfbC_Qa_w",
    "name": "Shield's Restaurant Bar Pizzeria",
    "street_address": "5057 Woodward Avenue",
    "city": "Detroit",
    "state": "MI",
    "zip_code": "48202",
    "latitude": 42.357446,
    "longitude": -83.065321,
    "website": "https://shieldspizza.com/",
    "category": "Bar & Restaurant",
    "types": "bar, restaurant, food, point_of_interest, establishment"
  },
  {
    "place_id": "ChIJY6ubgmwtO4gRX5h_thl0exk",
    "name": "Corktown Taphouse",
    "street_address": "1611 Michigan Avenue",
    "city": "Detroit",
    "state": "MI",
    "zip_code": "48216",
    "latitude": 42.33126490000001,
    "longitude": -83.06928119999999,
    "website": "https://corktowntaphouse.com/",
    "category": "Bar & Restaurant",
    "types": "bar, restaurant, food, point_of_interest, establishment"
  },
  {
    "place_id": "ChIJ-YCBWmjSJIgRtnEgAOHLVKQ",
    "name": "Kelly's Bar Hamtramck",
    "street_address": "2403 Holbrook",
    "city": "Hamtramck",
    "state": "MI",
    "zip_code": "48212",
    "latitude": 42.3919253,
    "longitude": -83.0597825,
    "website": "https://www.facebook.com/kellysbarinhamtramck",
    "category": "Bar & Restaurant",
    "types": "bar, restaurant, food, point_of_interest, establishment"
  },
  {
    "place_id": "ChIJeSJonp4tO4gRDqQ572zFUp0",
    "name": "The Thirsty Butler Sports Bar & Lounge",
    "street_address": "1585 Wyandotte Street East",
    "city": "Windsor",
    "state": "ON",
    "zip_code": "N9A 3L3",
    "latitude": 42.3214688,
    "longitude": -83.0160966,
    "website": "https://www.thirstybutler.ca/",
    "category": "Restaurant",
    "types": "restaurant, food, point_of_interest, establishment"
  },
  {
    "place_id": "ChIJHdONFB8tO4gROA15doYjTaw",
    "name": "The Loose Goose RestoPub & Lounge",
    "street_address": "126 Ouellette Avenue",
    "city": "Windsor",
    "state": "ON",
    "zip_code": "N9A 1A2",
    "latitude": 42.3192551,
    "longitude": -83.03990399999999,
    "website": "https://www.theloosegoose.ca/",
    "category": "Bar & Restaurant",
    "types": "night_club, bar, restaurant, food, point_of_interest, establishment"
  },
  {
    "place_id": "ChIJq4YDopIsO4gRtahRcK19THY",
    "name": "The Bourbon Tap & Grill",
    "street_address": "1199 Ottawa Street",
    "city": "Windsor",
    "state": "ON",
    "zip_code": "N8X 2E4",
    "latitude": 42.3093487,
    "longitude": -83.0134437,
    "website": "https://www.bourbontapandgrill.com/",
    "category": "Bar & Restaurant",
    "types": "bar, restaurant, food, point_of_interest, establishment"
  },
  {
    "place_id": "ChIJV80q5x0tO4gRENjK85P3OPY",
    "name": "The Manchester Bar",
    "street_address": "546 Ouellette Avenue",
    "city": "Windsor",
    "state": "ON",
    "zip_code": "N9A 1B7",
    "latitude": 42.31471630000001,
    "longitude": -83.0370152,
    "website": null,
    "category": "Bar & Restaurant",
    "types": "bar, restaurant, food, point_of_interest, establishment"
  },
  {
    "place_id": "ChIJpyxksoEtO4gRwDfF2h2KKus",
    "name": "Rock Bottom Bar & Grill",
    "street_address": "3236 Sandwich Street",
    "city": "Windsor",
    "state": "ON",
    "zip_code": "N9C 1A6",
    "latitude": 42.3013142,
    "longitude": -83.0762982,
    "website": "http://www.rockbottom.ca/",
    "category": "Bar & Restaurant",
    "types": "bar, restaurant, food, point_of_interest, establishment"
  },
  {
    "place_id": "ChIJVYHXS1UtO4gRj3ppSf7M9Bk",
    "name": "Erie St GastroPub",
    "street_address": "839 Erie Street East",
    "city": "Windsor",
    "state": "ON",
    "zip_code": "N9A 3Y5",
    "latitude": 42.3130296,
    "longitude": -83.0218266,
    "website": "https://www.eriestgastropub.com/",
    "category": "Bar & Restaurant",
    "types": "bar, restaurant, food, point_of_interest, establishment"
  },
  {
    "place_id": "ChIJwTSBxIEtO4gR3Bw7tk43Rao",
    "name": "The Barrel House",
    "street_address": "3199 Sandwich Street",
    "city": "Windsor",
    "state": "ON",
    "zip_code": "N9C 1A6",
    "latitude": 42.3020806,
    "longitude": -83.07536879999999,
    "website": "https://www.facebook.com/barrelhousedraughtco/",
    "category": "Bar & Restaurant",
    "types": "restaurant, bar, point_of_interest, food, establishment"
  },
  {
    "place_id": "ChIJS_NEXX8tO4gRJEzpEgUB2Jw",
    "name": "Dominion House",
    "street_address": "3140 Sandwich Street",
    "city": "Windsor",
    "state": "ON",
    "zip_code": "N9C 1A7",
    "latitude": 42.3034194,
    "longitude": -83.0750722,
    "website": null,
    "category": "Bar & Restaurant",
    "types": "meal_takeaway, bar, restaurant, food, point_of_interest, establishment"
  },
  {
    "place_id": "ChIJIUGajgAtO4gR88iUavTDMus",
    "name": "Hustle 507 - Windsor",
    "street_address": "507 Ouellette Avenue",
    "city": "Windsor",
    "state": "ON",
    "zip_code": "N9A 4J3",
    "latitude": 42.3149902,
    "longitude": -83.03758619999999,
    "website": "http://www.thehustlegroup.ca/",
    "category": "Bar & Restaurant",
    "types": "bar, restaurant, food, point_of_interest, establishment"
  },
  {
    "place_id": "ChIJ_TrbeuIsO4gREPhqjmRp89I",
    "name": "The Bull & Barrel Urban Saloon",
    "street_address": "670 Ouellette Avenue",
    "city": "Windsor",
    "state": "ON",
    "zip_code": "N9A 1B9",
    "latitude": 42.31324499999999,
    "longitude": -83.0358871,
    "website": "http://www.bullandbarrel.com/",
    "category": "Bar & Restaurant",
    "types": "bar, restaurant, food, point_of_interest, establishment"
  },
  {
    "place_id": "ChIJ9TX5toEtO4gRLB-w6mQ0Rqw",
    "name": "Hurricanes",
    "street_address": "3217 Sandwich Street",
    "city": "Windsor",
    "state": "ON",
    "zip_code": "N9C 1A9",
    "latitude": 42.3014721,
    "longitude": -83.0751666,
    "website": "http://www.hurricanespubandgrill.com/",
    "category": "Bar & Restaurant",
    "types": "bar, restaurant, food, point_of_interest, establishment"
  },
  {
    "place_id": "ChIJW5iSL2ktO4gRcig2c7Zc7AY",
    "name": "MD's SPORTS BAR and SMOKE HOUSE",
    "street_address": "380 Mill Street",
    "city": "Windsor",
    "state": "ON",
    "zip_code": "N9C 2R4",
    "latitude": 42.3018898,
    "longitude": -83.0740969,
    "website": "https://www.eatatmds.com/",
    "category": "Bar & Restaurant",
    "types": "bar, restaurant, food, point_of_interest, establishment"
  },
  {
    "place_id": "ChIJKeHBjussO4gRKRUmcbnmBEU",
    "name": "Kurley's AC",
    "street_address": "1080 Erie Street East",
    "city": "Windsor",
    "state": "ON",
    "zip_code": "N9A 3Z1",
    "latitude": 42.3146181,
    "longitude": -83.0184732,
    "website": "https://www.kurleys-ac.com/",
    "category": "Bar & Restaurant",
    "types": "bar, restaurant, food, point_of_interest, establishment"
  },
  {
    "place_id": "ChIJDcFKU0LSJIgRu4wu0jYHl7g",
    "name": "Motor City Sports Bar",
    "street_address": "9122 Joseph Campau Avenue",
    "city": "Hamtramck",
    "state": "MI",
    "zip_code": "48212",
    "latitude": 42.3925939,
    "longitude": -83.0548972,
    "website": "https://motorcitysportsbars.com/",
    "category": "Bar & Restaurant",
    "types": "bar, restaurant, food, point_of_interest, establishment"
  },
  {
    "place_id": "ChIJuUvcFWEtO4gRgetdB0wyBmE",
    "name": "Side Hustle Lounge",
    "street_address": "1226 Library Street",
    "city": "Detroit",
    "state": "MI",
    "zip_code": "48226",
    "latitude": 42.3343149,
    "longitude": -83.04665109999999,
    "website": "https://sidehustledetroit.com/",
    "category": "Bar & Restaurant",
    "types": "bar, restaurant, food, point_of_interest, establishment"
  },
  {
    "place_id": "ChIJzZEC5uczO4gRyIqS7CMj5QE",
    "name": "The Rock's Bar & Grill",
    "street_address": "3511 Clippert Street",
    "city": "Detroit",
    "state": "MI",
    "zip_code": "48210",
    "latitude": 42.3258333,
    "longitude": -83.12166669999999,
    "website": null,
    "category": "Bar & Restaurant",
    "types": "bar, restaurant, point_of_interest, food, establishment"
  },
  {
    "place_id": "ChIJ4ZqVJjstO4gRxEWAIGEbjDw",
    "name": "Urban Cellars",
    "street_address": "2 Washington Boulevard",
    "city": "Detroit",
    "state": "MI",
    "zip_code": "48226",
    "latitude": 42.3279012,
    "longitude": -83.0479543,
    "website": null,
    "category": "Bar & Restaurant",
    "types": "restaurant, bar, food, point_of_interest, establishment"
  },
  {
    "place_id": "ChIJv3HnLi8tO4gRPBO0NF_tpgY",
    "name": "Jacoby's",
    "street_address": "624 Brush Street",
    "city": "Detroit",
    "state": "MI",
    "zip_code": "48226",
    "latitude": 42.3322677,
    "longitude": -83.04212179999999,
    "website": "https://jacobysbar.com/",
    "category": "Restaurant",
    "types": "restaurant, food, point_of_interest, establishment"
  },
  {
    "place_id": "ChIJnecT0y0tO4gR2yDBV6HD8uI",
    "name": "Basement Burger Bar Detroit",
    "street_address": "1326 Brush Street",
    "city": "Detroit",
    "state": "MI",
    "zip_code": "48226",
    "latitude": 42.3357598,
    "longitude": -83.0443962,
    "website": "http://basementburgerbar.com/",
    "category": "Bar & Restaurant",
    "types": "bar, restaurant, point_of_interest, food, establishment"
  },
  {
    "place_id": "ChIJd6fDd6AzO4gRbHkDHE4kjZ8",
    "name": "Ladder 4 Wine Bar",
    "street_address": "3396 Vinewood Street",
    "city": "Detroit",
    "state": "MI",
    "zip_code": "48208",
    "latitude": 42.3335705,
    "longitude": -83.0980565,
    "website": "https://www.ladder4winebar.com/",
    "category": "Bar & Restaurant",
    "types": "restaurant, bar, food, point_of_interest, establishment"
  },
  {
    "place_id": "ChIJsZibe2ctO4gRXxgCmv1swtk",
    "name": "Green Dot Stables",
    "street_address": "2200 West Lafayette Boulevard",
    "city": "Detroit",
    "state": "MI",
    "zip_code": "48216",
    "latitude": 42.3218948,
    "longitude": -83.0714794,
    "website": "https://www.greendotstables.com/",
    "category": "Bar & Restaurant",
    "types": "bar, restaurant, food, point_of_interest, establishment"
  },
  {
    "place_id": "ChIJidb4-qXTJIgRLCZCNzYf9cU",
    "name": "Stadt Garten",
    "street_address": "3980 2nd Avenue",
    "city": "Detroit",
    "state": "MI",
    "zip_code": "48201",
    "latitude": 42.3486316,
    "longitude": -83.0647664,
    "website": "http://www.stadtgartendetroit.com/",
    "category": "Bar & Restaurant",
    "types": "bar, liquor_store, cafe, store, restaurant, food, point_of_interest, establishment"
  },
  {
    "place_id": "ChIJpdYNJjItO4gR6hdO4tnn79c",
    "name": "Detroit Beer Co",
    "street_address": "1529 Broadway Street",
    "city": "Detroit",
    "state": "MI",
    "zip_code": "48226",
    "latitude": 42.3359222,
    "longitude": -83.0488972,
    "website": "https://www.detroitbeerco.com/",
    "category": "Bar & Restaurant",
    "types": "bar, restaurant, food, point_of_interest, establishment"
  },
  {
    "place_id": "ChIJAedvVMvNJIgRC31ceJyFYjQ",
    "name": "Bash Original Izakaya",
    "street_address": "5069 Trumbull",
    "city": "Detroit",
    "state": "MI",
    "zip_code": "48208",
    "latitude": 42.35301980000001,
    "longitude": -83.079447,
    "website": "http://www.bashdetroit.com/",
    "category": "Bar & Restaurant",
    "types": "meal_takeaway, bar, restaurant, food, point_of_interest, establishment"
  },
  {
    "place_id": "ChIJiyY2a5jSJIgRwDpE4lDbVuQ",
    "name": "Tony V's Tavern",
    "street_address": "5756 Cass Avenue",
    "city": "Detroit",
    "state": "MI",
    "zip_code": "48202",
    "latitude": 42.3622939,
    "longitude": -83.06985829999999,
    "website": null,
    "category": "Bar & Restaurant",
    "types": "bar, restaurant, food, point_of_interest, establishment"
  },
  {
    "place_id": "ChIJ9zhxTLfSJIgRvMViLzKl4O0",
    "name": "\u0418\u0441\u043f\u0430\u043d\u0441\u043a\u0438 \u0440\u0435\u0441\u0442\u043e\u0440\u0430\u043d\u0442 \"\u0424\u0435\u0440\u0438\u044f\u0442\u0430\"",
    "street_address": "4130 Cass Avenue",
    "city": "Detroit",
    "state": "MI",
    "zip_code": "48201",
    "latitude": 42.35006569999999,
    "longitude": -83.0630999,
    "website": "http://laferiadetroit.com/",
    "category": "Bar & Restaurant",
    "types": "bar, restaurant, food, point_of_interest, establishment"
  },
  {
    "place_id": "ChIJzYtqLWgtO4gRb7WSpNrPzAQ",
    "name": "BESA",
    "street_address": "600 Woodward Avenue",
    "city": "Detroit",
    "state": "MI",
    "zip_code": "48226",
    "latitude": 42.3304823,
    "longitude": -83.04543230000002,
    "website": "https://www.besadetroit.com/",
    "category": "Bar & Restaurant",
    "types": "restaurant, bar, food, point_of_interest, establishment"
  },
  {
    "place_id": "ChIJLXhQduHOJIgRiWvNxIN_eE8",
    "name": "The Corner Grill, Bar + Game Room",
    "street_address": "344 West Nine Mile Road",
    "city": "Ferndale",
    "state": "MI",
    "zip_code": "48220",
    "latitude": 42.46062359999999,
    "longitude": -83.13899289999999,
    "website": "http://thecornerferndale.com/?utm_source=GMBlisting&utm_medium=organic",
    "category": "Bar & Restaurant",
    "types": "bar, restaurant, food, point_of_interest, establishment"
  },
  {
    "place_id": "ChIJry7PuIHPJIgRCQgkKXSHfTs",
    "name": "BARREL HOUSE",
    "street_address": "22740 Woodward Avenue",
    "city": "Ferndale",
    "state": "MI",
    "zip_code": "48220",
    "latitude": 42.460227,
    "longitude": -83.133826,
    "website": "http://www.barrelhouseferndale.com/",
    "category": "Bar & Restaurant",
    "types": "bar, restaurant, food, point_of_interest, establishment"
  },
  {
    "place_id": "ChIJBcfnRWHOJIgRIC3H6eRxn-Y",
    "name": "StoneHouse Bar Detroit",
    "street_address": "19803 Ralston Street",
    "city": "Detroit",
    "state": "MI",
    "zip_code": "48203",
    "latitude": 42.4384411,
    "longitude": -83.1173781,
    "website": null,
    "category": "Bar & Restaurant",
    "types": "bar, restaurant, food, point_of_interest, establishment"
  },
  {
    "place_id": "ChIJ_5dBx1TOJIgRYiDLIviD88M",
    "name": "Second Base Pub & Grub",
    "street_address": "1309 East 9 Mile Road",
    "city": "Ferndale",
    "state": "MI",
    "zip_code": "48220",
    "latitude": 42.4611294,
    "longitude": -83.11801299999999,
    "website": "http://www.secondbaseferndale.com/",
    "category": "Bar & Restaurant",
    "types": "bar, restaurant, food, point_of_interest, establishment"
  },
  {
    "place_id": "ChIJMyfRpFHPJIgRQ8RCuI9yfFo",
    "name": "Good Times On The Ave",
    "street_address": "19416 Livernois",
    "city": "Detroit",
    "state": "MI",
    "zip_code": "48221",
    "latitude": 42.4355749,
    "longitude": -83.1412581,
    "website": "http://www.goodtimesontheave.com/",
    "category": "Restaurant",
    "types": "restaurant, food, point_of_interest, establishment"
  },
  {
    "place_id": "ChIJzWJcSb_PJIgRs2PBwSXVFtc",
    "name": "Kozy Lounge",
    "street_address": "150 East 10 Mile Road",
    "city": "Hazel Park",
    "state": "MI",
    "zip_code": "48030",
    "latitude": 42.47594780000001,
    "longitude": -83.10180050000001,
    "website": "http://www.kozylounge.com/",
    "category": "Bar & Restaurant",
    "types": "bar, restaurant, food, point_of_interest, establishment"
  },
  {
    "place_id": "ChIJNTswx1LOJIgRyO0GWN6gTF8",
    "name": "Detroit Fleat",
    "street_address": "1820 East 9 Mile Road",
    "city": "Ferndale",
    "state": "MI",
    "zip_code": "48220",
    "latitude": 42.46086200000001,
    "longitude": -83.11273159999999,
    "website": "http://detroitfleat.com/",
    "category": "Bar & Restaurant",
    "types": "bar, restaurant, food, point_of_interest, establishment"
  },
  {
    "place_id": "ChIJiZMP1j_PJIgRITR4QytR6tk",
    "name": "Ye Olde Saloon",
    "street_address": "1023 South Main Street",
    "city": "Royal Oak",
    "state": "MI",
    "zip_code": "48067",
    "latitude": 42.4809685,
    "longitude": -83.14364619999999,
    "website": "https://m.facebook.com/Ye-Olde-Saloon-65778396241/",
    "category": "Bar & Restaurant",
    "types": "bar, restaurant, point_of_interest, food, establishment"
  },
  {
    "place_id": "ChIJBTvEgOjLJIgRzJGldLHs0po",
    "name": "Teresa's Place",
    "street_address": "14000 West McNichols Road",
    "city": "Detroit",
    "state": "MI",
    "zip_code": "48235",
    "latitude": 42.4167533,
    "longitude": -83.18369919999999,
    "website": null,
    "category": "Bar & Restaurant",
    "types": "bar, restaurant, food, point_of_interest, establishment"
  },
  {
    "place_id": "ChIJaVhPbOjPJIgRs0oxBSdyD3E",
    "name": "Nine Kitchen + Bar",
    "street_address": "22925 Woodward Avenue",
    "city": "Ferndale",
    "state": "MI",
    "zip_code": "48220",
    "latitude": 42.4619091,
    "longitude": -83.1360428,
    "website": "https://ninekitchenbar.com/",
    "category": "Bar & Restaurant",
    "types": "restaurant, bar, food, point_of_interest, establishment"
  },
  {
    "place_id": "ChIJdSM1pOPOJIgRfeJDAuvbWHU",
    "name": "One-Eyed Betty's",
    "street_address": "175 West Troy Street",
    "city": "Ferndale",
    "state": "MI",
    "zip_code": "48220",
    "latitude": 42.4598086,
    "longitude": -83.1357974,
    "website": "https://www.oneeyedbettys.com/",
    "category": "Bar & Restaurant",
    "types": "bar, restaurant, food, point_of_interest, establishment"
  },
  {
    "place_id": "ChIJUX8IRrTPJIgRXO_wUrfDkeM",
    "name": "House of Shamrocks",
    "street_address": "23420 John R Road",
    "city": "Hazel Park",
    "state": "MI",
    "zip_code": "48030",
    "latitude": 42.4646509,
    "longitude": -83.1038533,
    "website": "http://www.houseofshamrocks.com/",
    "category": "Bar & Restaurant",
    "types": "bar, restaurant, food, point_of_interest, establishment"
  },
  {
    "place_id": "ChIJL5u8mh3PJIgRwsy_gDxg7nc",
    "name": "New Way Bar",
    "street_address": "23130 Woodward Avenue",
    "city": "Ferndale",
    "state": "MI",
    "zip_code": "48220",
    "latitude": 42.4638286,
    "longitude": -83.1362103,
    "website": null,
    "category": "Bar & Restaurant",
    "types": "bar, restaurant, food, point_of_interest, establishment"
  },
  {
    "place_id": "ChIJIVVvVZHJJIgR3nC9lKNTNmw",
    "name": "Roseland Bar & Grill",
    "street_address": "18401 Eight Mile West",
    "city": "Detroit",
    "state": "MI",
    "zip_code": "48219",
    "latitude": 42.443836,
    "longitude": -83.2238366,
    "website": "http://www.roselandbar.com/",
    "category": "Bar & Restaurant",
    "types": "bar, restaurant, food, point_of_interest, establishment"
  },
  {
    "place_id": "ChIJSYhwn9u1JIgREAWRitioCBk",
    "name": "Views Bar & Grill",
    "street_address": "24200 Grand River Avenue",
    "city": "Detroit",
    "state": "MI",
    "zip_code": "48219",
    "latitude": 42.4252778,
    "longitude": -83.2786111,
    "website": "http://www.viewsbar.com/",
    "category": "Bar & Restaurant",
    "types": "bar, restaurant, food, point_of_interest, establishment"
  },
  {
    "place_id": "ChIJ2TLOVOHLJIgRFEH29mj6Oxw",
    "name": "Verdell's Lounge",
    "street_address": "14826 Plymouth Road",
    "city": "Detroit",
    "state": "MI",
    "zip_code": "48227",
    "latitude": 42.37298699999999,
    "longitude": -83.190505,
    "website": null,
    "category": "Bar & Restaurant",
    "types": "bar, restaurant, food, point_of_interest, establishment"
  },
  {
    "place_id": "ChIJs7xDmdC1JIgRuMm6vbS1Rgg",
    "name": "City Limits grill 313",
    "street_address": "24501 Grand River Avenue",
    "city": "Detroit",
    "state": "MI",
    "zip_code": "48219",
    "latitude": 42.4262236,
    "longitude": -83.2830019,
    "website": null,
    "category": "Bar & Restaurant",
    "types": "bar, restaurant, food, point_of_interest, establishment"
  },
  {
    "place_id": "ChIJJdEjrenKJIgR4NlajxdCo2g",
    "name": "Starter's Bar & Grill Plymouth Rd",
    "street_address": "18426 Plymouth Road",
    "city": "Detroit",
    "state": "MI",
    "zip_code": "48228",
    "latitude": 42.3723685,
    "longitude": -83.22121159999999,
    "website": "http://www.startersdetroit.com/",
    "category": "Bar & Restaurant",
    "types": "bar, restaurant, food, point_of_interest, establishment"
  },
  {
    "place_id": "ChIJfejKdBu2JIgRX4FAkBD41X4",
    "name": "Friends Cocktail Lounge",
    "street_address": "21633 Eight Mile West",
    "city": "Detroit",
    "state": "MI",
    "zip_code": "48219",
    "latitude": 42.442894,
    "longitude": -83.2570801,
    "website": "http://friends-lounge.edan.io/",
    "category": "Bar & Restaurant",
    "types": "night_club, bar, restaurant, food, point_of_interest, establishment"
  },
  {
    "place_id": "ChIJKX-cysm1JIgRMQ9cb480-Co",
    "name": "Duffy's Den",
    "street_address": "24800 West McNichols Road",
    "city": "Detroit",
    "state": "MI",
    "zip_code": "48219",
    "latitude": 42.41444440000001,
    "longitude": -83.2852778,
    "website": null,
    "category": "Restaurant",
    "types": "restaurant, food, point_of_interest, establishment"
  },
  {
    "place_id": "ChIJj1yh_ZXKJIgRGcMK8k8JAK8",
    "name": "New Bentley Lounge",
    "street_address": "19631 Plymouth Road",
    "city": "Detroit",
    "state": "MI",
    "zip_code": "48228",
    "latitude": 42.37163570000001,
    "longitude": -83.23443139999999,
    "website": null,
    "category": "Bar & Restaurant",
    "types": "night_club, bar, restaurant, food, point_of_interest, establishment"
  },
  {
    "place_id": "ChIJ034_zXq2JIgRIUy85TGoxb4",
    "name": "Opyum Lounge",
    "street_address": "24587 Eight Mile West",
    "city": "Detroit",
    "state": "MI",
    "zip_code": "48219",
    "latitude": 42.442424,
    "longitude": -83.28502399999999,
    "website": null,
    "category": "Bar & Restaurant",
    "types": "night_club, bar, restaurant, point_of_interest, food, establishment"
  },
  {
    "place_id": "ChIJn4kMIYHLJIgR9YjVl90oxcU",
    "name": "Sky Bar & Grill",
    "street_address": "15350 Fenkell Avenue",
    "city": "Detroit",
    "state": "MI",
    "zip_code": "48227",
    "latitude": 42.4017478,
    "longitude": -83.19736689999999,
    "website": null,
    "category": "Bar & Restaurant",
    "types": "bar, restaurant, food, point_of_interest, establishment"
  },
  {
    "place_id": "ChIJAcLWoL7LJIgRMR41ByFQ_Jc",
    "name": "Lovelee Vibes Bar & Grill",
    "street_address": "20551 Grand River Avenue",
    "city": "Detroit",
    "state": "MI",
    "zip_code": "48219",
    "latitude": 42.41084099999999,
    "longitude": -83.2440977,
    "website": "http://loveleevibe.com/",
    "category": "Bar & Restaurant",
    "types": "restaurant, night_club, bar, food, point_of_interest, establishment"
  },
  {
    "place_id": "ChIJYRFjFKzLJIgRptU8qqLDisU",
    "name": "Chita's Nefertiti Bar",
    "street_address": "15942 West Grand River Avenue",
    "city": "Detroit",
    "state": "MI",
    "zip_code": "48227",
    "latitude": 42.3949766,
    "longitude": -83.2034524,
    "website": "https://chitasnefertiti.com/",
    "category": "Bar & Restaurant",
    "types": "bar, restaurant, food, point_of_interest, establishment"
  },
  {
    "place_id": "ChIJt3LvFX7LJIgRqrSBTdoKK8o",
    "name": "Comfort Zone Bar & Grill",
    "street_address": "17139 Schaefer Highway",
    "city": "Detroit",
    "state": "MI",
    "zip_code": "48235",
    "latitude": 42.417273,
    "longitude": -83.180092,
    "website": "https://instagram.com/comfortzone313?igshid=MzRlODBiNWFlZA==",
    "category": "Bar & Restaurant",
    "types": "bar, restaurant, food, point_of_interest, establishment"
  },
  {
    "place_id": "ChIJA7-VeWXVJIgR3g56BS3tUYw",
    "name": "The Charlevoix",
    "street_address": "14927 Charlevoix Street",
    "city": "Grosse Pointe Park",
    "state": "MI",
    "zip_code": "48230",
    "latitude": 42.3849294,
    "longitude": -82.9454481,
    "website": "http://thecharlevoix.com/",
    "category": "Bar & Restaurant",
    "types": "bar, restaurant, point_of_interest, food, establishment"
  },
  {
    "place_id": "ChIJpXI81ufVJIgRik8TEf4P1MU",
    "name": "Cadieux Cafe",
    "street_address": "4300 Cadieux Road",
    "city": "Detroit",
    "state": "MI",
    "zip_code": "48224",
    "latitude": 42.401558,
    "longitude": -82.926465,
    "website": "http://www.cadieuxcafe.com/",
    "category": "Bar & Restaurant",
    "types": "bar, restaurant, food, point_of_interest, establishment"
  },
  {
    "place_id": "ChIJK1K1N07XJIgRz84nOxXA9-E",
    "name": "First Place Lounge",
    "street_address": "16921 Harper Avenue",
    "city": "Detroit",
    "state": "MI",
    "zip_code": "48224",
    "latitude": 42.415827,
    "longitude": -82.9383707,
    "website": null,
    "category": "Bar & Restaurant",
    "types": "bar, restaurant, food, point_of_interest, establishment"
  },
  {
    "place_id": "ChIJHx8kHbHVJIgRzMgStL-qGac",
    "name": "Howlers And Growlers",
    "street_address": "15222 Charlevoix Street",
    "city": "Grosse Pointe Park",
    "state": "MI",
    "zip_code": "48230",
    "latitude": 42.38598289999999,
    "longitude": -82.9416241,
    "website": "http://howlersandgrowlers.com/",
    "category": "Bar & Restaurant",
    "types": "restaurant, bar, food, point_of_interest, establishment"
  },
  {
    "place_id": "ChIJYWUmofQrJYgRLDlADn56uGA",
    "name": "Bronze Door",
    "street_address": "123 Kercheval Avenue",
    "city": "Grosse Pointe Farms",
    "state": "MI",
    "zip_code": "48236",
    "latitude": 42.395933,
    "longitude": -82.9025407,
    "website": "https://www.bronzedoorgp.com/",
    "category": "Restaurant",
    "types": "restaurant, food, point_of_interest, establishment"
  },
  {
    "place_id": "ChIJl9C-RAkqJYgRr8Z64YYoh14",
    "name": "Luxe Bar & Grill",
    "street_address": "115 Kercheval Avenue",
    "city": "Grosse Pointe Farms",
    "state": "MI",
    "zip_code": "48236",
    "latitude": 42.3957405,
    "longitude": -82.902687,
    "website": "http://www.luxebarandgrill.com/",
    "category": "Bar & Restaurant",
    "types": "bar, restaurant, point_of_interest, food, establishment"
  },
  {
    "place_id": "ChIJAYIeHp8rJYgROfOZQlHGX88",
    "name": "High Pointe Burger Jointe",
    "street_address": "369 Fisher Road",
    "city": "Grosse Pointe",
    "state": "MI",
    "zip_code": "48230",
    "latitude": 42.39034549999999,
    "longitude": -82.9039911,
    "website": "https://highpointeburgerjointe.com/",
    "category": "Restaurant",
    "types": "restaurant, food, point_of_interest, establishment"
  },
  {
    "place_id": "ChIJDf4DlK_VJIgRPU6dbREpKVU",
    "name": "Cellar 313",
    "street_address": "15112 Kercheval Avenue",
    "city": "Grosse Pointe Park",
    "state": "MI",
    "zip_code": "48230",
    "latitude": 42.38111900000001,
    "longitude": -82.940747,
    "website": "https://cellar313.com/",
    "category": "Bar & Restaurant",
    "types": "restaurant, bar, food, point_of_interest, establishment"
  },
  {
    "place_id": "ChIJI7KMIGrVJIgRYwA9lqmNo4s",
    "name": "Sidecar Slider Bar - Grosse Pointe",
    "street_address": "17051 Kercheval Avenue",
    "city": "Grosse Pointe",
    "state": "MI",
    "zip_code": "48230",
    "latitude": 42.3904197,
    "longitude": -82.9159923,
    "website": "https://www.sidecarsliderbar.com/grosse-pointe",
    "category": "Bar & Restaurant",
    "types": "bar, restaurant, food, point_of_interest, establishment"
  },
  {
    "place_id": "ChIJadiVLo3VJIgRUBahmo4LbwY",
    "name": "The Whiskey Six",
    "street_address": "646 Saint Clair Avenue",
    "city": "Grosse Pointe",
    "state": "MI",
    "zip_code": "48230",
    "latitude": 42.3907631,
    "longitude": -82.91550810000001,
    "website": "http://www.thewhiskeysix.com/",
    "category": "Bar & Restaurant",
    "types": "bar, restaurant, point_of_interest, food, establishment"
  },
  {
    "place_id": "ChIJOzwMg-7VJIgRshI4zfPGLG4",
    "name": "La Cina",
    "street_address": "17201 Mack Avenue",
    "city": "Detroit",
    "state": "MI",
    "zip_code": "48224",
    "latitude": 42.396518,
    "longitude": -82.92112,
    "website": null,
    "category": "Restaurant",
    "types": "restaurant, food, point_of_interest, establishment"
  },
  {
    "place_id": "ChIJo2BKLwHWJIgRg3Z8BZ0onY4",
    "name": "Irish Coffee Bar and Grill",
    "street_address": "18666 Mack Avenue",
    "city": "Grosse Pointe Farms",
    "state": "MI",
    "zip_code": "48236",
    "latitude": 42.41312199999999,
    "longitude": -82.911772,
    "website": null,
    "category": "Bar & Restaurant",
    "types": "cafe, bar, store, restaurant, food, point_of_interest, establishment"
  },
  {
    "place_id": "ChIJ5dJgu6_VJIgR717fUdHtQao",
    "name": "Park Grill",
    "street_address": "15102 Kercheval Avenue",
    "city": "Grosse Pointe Park",
    "state": "MI",
    "zip_code": "48230",
    "latitude": 42.3810634,
    "longitude": -82.9410659,
    "website": "http://parkgrillandbar.com/",
    "category": "Bar & Restaurant",
    "types": "bar, restaurant, food, point_of_interest, establishment"
  },
  {
    "place_id": "ChIJE6a1ywDWJIgRI5rUFQ3zjLE",
    "name": "Blufin Sushi",
    "street_address": "18584 Mack Avenue",
    "city": "Grosse Pointe Farms",
    "state": "MI",
    "zip_code": "48236",
    "latitude": 42.41179899999999,
    "longitude": -82.912353,
    "website": "http://blufinsushi.com/",
    "category": "Bar & Restaurant",
    "types": "bar, restaurant, food, point_of_interest, establishment"
  },
  {
    "place_id": "ChIJ_emNtO_VJIgRJdqpmSqC0jQ",
    "name": "Bogart\u2019z Food & Spirits",
    "street_address": "17441 Mack Avenue",
    "city": "Detroit",
    "state": "MI",
    "zip_code": "48224",
    "latitude": 42.3988288,
    "longitude": -82.9195091,
    "website": "http://www.bogartzdetroit.com/",
    "category": "Bar & Restaurant",
    "types": "bar, restaurant, food, point_of_interest, establishment"
  },
  {
    "place_id": "ChIJpzSnja_VJIgRyffHHw-Ja8k",
    "name": "Atwater in the Park",
    "street_address": "1175 Lakepointe Street",
    "city": "Grosse Pointe Park",
    "state": "MI",
    "zip_code": "48230",
    "latitude": 42.38120190000001,
    "longitude": -82.9400316,
    "website": "http://www.atwaterbeer.com/",
    "category": "Bar & Restaurant",
    "types": "bar, restaurant, food, point_of_interest, establishment"
  },
  {
    "place_id": "ChIJweGYLnTVJIgRuBzQlJCWWFU",
    "name": "Harbour House Waterfront Eatery",
    "street_address": "9550 Riverside Drive East",
    "city": "Windsor",
    "state": "ON",
    "zip_code": "N8P 1A1",
    "latitude": 42.3392918,
    "longitude": -82.9280125,
    "website": "http://www.harbourhousewindsor.com/",
    "category": "Bar & Restaurant",
    "types": "restaurant, bar, food, point_of_interest, establishment"
  },
  {
    "place_id": "ChIJUXOSS6XVJIgRZvk9s8S64sQ",
    "name": "Red Crown Cantina",
    "street_address": "15301 Kercheval Avenue",
    "city": "Grosse Pointe Park",
    "state": "MI",
    "zip_code": "48230",
    "latitude": 42.38242899999999,
    "longitude": -82.9386128,
    "website": "https://redcrowngp.com/",
    "category": "Bar & Restaurant",
    "types": "bar, restaurant, food, point_of_interest, establishment"
  },
  {
    "place_id": "ChIJj3EZGGjPJIgRhnNLZ34bb-w",
    "name": "the side bar",
    "street_address": "116 West 4th Street",
    "city": "Royal Oak",
    "state": "MI",
    "zip_code": "48067",
    "latitude": 42.48751290000001,
    "longitude": -83.1449861,
    "website": "http://thesidebarroyaloak.com/",
    "category": "Bar & Restaurant",
    "types": "bar, restaurant, food, point_of_interest, establishment"
  },
  {
    "place_id": "ChIJVTwZ8kHPJIgRT5NX6c2eGP4",
    "name": "Ale Mary's Beer Hall",
    "street_address": "316 South Main Street",
    "city": "Royal Oak",
    "state": "MI",
    "zip_code": "48067",
    "latitude": 42.4876295,
    "longitude": -83.1443717,
    "website": "http://www.alemarysbeer.com/",
    "category": "Bar & Restaurant",
    "types": "bar, restaurant, food, point_of_interest, establishment"
  },
  {
    "place_id": "ChIJdf_1WxfJJIgR1r9e0dDGrH0",
    "name": "Oak Park Social",
    "street_address": "14691 West Eleven Mile Road",
    "city": "Oak Park",
    "state": "MI",
    "zip_code": "48237",
    "latitude": 42.4883232,
    "longitude": -83.1943359,
    "website": "http://www.oakparksocial.com/",
    "category": "Bar & Restaurant",
    "types": "bar, restaurant, food, point_of_interest, establishment"
  },
  {
    "place_id": "ChIJITEn5WzJJIgR-m_HkV9uFXA",
    "name": "Oak Parker",
    "street_address": "13621 West Eleven Mile Road",
    "city": "Oak Park",
    "state": "MI",
    "zip_code": "48237",
    "latitude": 42.4884159,
    "longitude": -83.1840622,
    "website": "http://oakparkerbar.com/",
    "category": "Restaurant",
    "types": "restaurant, food, point_of_interest, establishment"
  },
  {
    "place_id": "ChIJW8cE6j7GJIgRzD3voxiV7vk",
    "name": "Duggan's Irish Pub",
    "street_address": "31501 Woodward Avenue",
    "city": "Royal Oak",
    "state": "MI",
    "zip_code": "48073",
    "latitude": 42.5216651,
    "longitude": -83.1905574,
    "website": "https://duggansirishpub.com/",
    "category": "Bar & Restaurant",
    "types": "bar, restaurant, food, point_of_interest, establishment"
  },
  {
    "place_id": "ChIJJUOw87DFJIgRtcYXlY1YBd4",
    "name": "Royal Inn Bar",
    "street_address": "4724 Rochester Road",
    "city": "Royal Oak",
    "state": "MI",
    "zip_code": "48073",
    "latitude": 42.53293910000001,
    "longitude": -83.1357286,
    "website": "http://royalinnbar.com/",
    "category": "Bar & Restaurant",
    "types": "bar, restaurant, food, point_of_interest, establishment"
  },
  {
    "place_id": "ChIJEQ56Rn7HJIgRd2l_o0QbKCg",
    "name": "Brown Iron Brewhouse Royal Oak",
    "street_address": "30955 Woodward Avenue",
    "city": "Royal Oak",
    "state": "MI",
    "zip_code": "48073",
    "latitude": 42.5167271,
    "longitude": -83.1870064,
    "website": "https://browniron.com/",
    "category": "Bar & Restaurant",
    "types": "bar, restaurant, point_of_interest, food, establishment"
  },
  {
    "place_id": "ChIJkSEFmQfFJIgRjRnMWmbKLE0",
    "name": "Madhouse Bar & Grill",
    "street_address": "32787 Stephenson Highway",
    "city": "Madison Heights",
    "state": "MI",
    "zip_code": "48071",
    "latitude": 42.5326852,
    "longitude": -83.12088820000001,
    "website": "http://www.madhousebarandgrill.com/",
    "category": "Bar & Restaurant",
    "types": "bar, restaurant, food, point_of_interest, establishment"
  },
  {
    "place_id": "ChIJXezSkUDPJIgRYgJSSZ8jpjo",
    "name": "Royal Oak Taphouse",
    "street_address": "714 South Washington Avenue",
    "city": "Royal Oak",
    "state": "MI",
    "zip_code": "48067",
    "latitude": 42.4841373,
    "longitude": -83.146844,
    "website": "http://royaloaktaphouse.com/",
    "category": "Bar & Restaurant",
    "types": "bar, restaurant, food, point_of_interest, establishment"
  },
  {
    "place_id": "ChIJeZnnD2rPJIgRv1mp9ITgDzc",
    "name": "The Royal Oak Brewery",
    "street_address": "215 East 4th Street",
    "city": "Royal Oak",
    "state": "MI",
    "zip_code": "48067",
    "latitude": 42.4874642,
    "longitude": -83.142364,
    "website": "https://www.royaloakbrewery.com/",
    "category": "Bar & Restaurant",
    "types": "bar, restaurant, food, point_of_interest, establishment"
  },
  {
    "place_id": "ChIJxaEt1kvPJIgRT7S2hBCoqxU",
    "name": "HopCat Royal Oak",
    "street_address": "430 South Main Street",
    "city": "Royal Oak",
    "state": "MI",
    "zip_code": "48067",
    "latitude": 42.4865429,
    "longitude": -83.14435519999999,
    "website": "https://www.hopcat.com/royal-oak/home",
    "category": "Bar & Restaurant",
    "types": "bar, restaurant, food, point_of_interest, establishment"
  },
  {
    "place_id": "ChIJ6dsGAGLFJIgRsAykgkADuPo",
    "name": "On the Rocks Bar & Grill",
    "street_address": "28167 John R Road",
    "city": "Madison Heights",
    "state": "MI",
    "zip_code": "48071",
    "latitude": 42.5004222,
    "longitude": -83.1060111,
    "website": null,
    "category": "Bar & Restaurant",
    "types": "bar, restaurant, food, point_of_interest, establishment"
  },
  {
    "place_id": "ChIJNeBQW8jFJIgRGjGcvhC8YxI",
    "name": "Old Detroit Burger Bar",
    "street_address": "27 East 14 Mile Road",
    "city": "Clawson",
    "state": "MI",
    "zip_code": "48017",
    "latitude": 42.5338955,
    "longitude": -83.14555659999999,
    "website": "https://www.restaurantlogin.com/api/fb/ygq37",
    "category": "Bar & Restaurant",
    "types": "bar, restaurant, food, point_of_interest, establishment"
  },
  {
    "place_id": "ChIJR2-a1pnFJIgR-a_JCCXMygA",
    "name": "Gus' Snug Irish Pub",
    "street_address": "38 South Main Street",
    "city": "Clawson",
    "state": "MI",
    "zip_code": "48017",
    "latitude": 42.53274599999999,
    "longitude": -83.146463,
    "website": "https://www.gussnug.com/",
    "category": "Bar & Restaurant",
    "types": "bar, restaurant, food, point_of_interest, establishment"
  },
  {
    "place_id": "ChIJa_5AAGrPJIgR-Kr7qeSCQI4",
    "name": "The Rock on 3rd",
    "street_address": "112 East 3rd Street",
    "city": "Royal Oak",
    "state": "MI",
    "zip_code": "48067",
    "latitude": 42.4879869,
    "longitude": -83.1434534,
    "website": "http://rockon3rd.com/",
    "category": "Bar & Restaurant",
    "types": "bar, restaurant, food, point_of_interest, establishment"
  },
  {
    "place_id": "ChIJcQfhSEzPJIgRqDRB_Hf2Oxo",
    "name": "Blarney Stone Pub",
    "street_address": "27253 Woodward Avenue",
    "city": "Berkley",
    "state": "MI",
    "zip_code": "48072",
    "latitude": 42.49088860000001,
    "longitude": -83.1606781,
    "website": "http://www.blarneystonepub.com/",
    "category": "Bar & Restaurant",
    "types": "restaurant, bar, food, point_of_interest, establishment"
  },
  {
    "place_id": "ChIJ235vIMjFJIgRRVqrMqDPyr4",
    "name": "Renshaw Lounge",
    "street_address": "210 East 14 Mile Road",
    "city": "Clawson",
    "state": "MI",
    "zip_code": "48017",
    "latitude": 42.53294619999999,
    "longitude": -83.1436018,
    "website": "http://www.renshawlounge.com/",
    "category": "Bar & Restaurant",
    "types": "bar, restaurant, food, point_of_interest, establishment"
  },
  {
    "place_id": "ChIJf5BrJCLPJIgR2AUhoEwL6ys",
    "name": "Bar Louie",
    "street_address": "510 South Main Street",
    "city": "Royal Oak",
    "state": "MI",
    "zip_code": "48067",
    "latitude": 42.486054,
    "longitude": -83.14433199999999,
    "website": "https://www.barlouie.com/locations/us/mi/royal-oak/royal-oak?utm_source=google&utm_medium=gmb&utm_campaign=listings",
    "category": "Bar & Restaurant",
    "types": "night_club, bar, restaurant, food, point_of_interest, establishment"
  },
  {
    "place_id": "ChIJDf8UfE3FJIgRDR9rFH-I42w",
    "name": "Irish Tavern Madison Heights",
    "street_address": "29028 North Campbell Road",
    "city": "Madison Heights",
    "state": "MI",
    "zip_code": "48071",
    "latitude": 42.5049013,
    "longitude": -83.12402039999999,
    "website": "https://www.itmadisonheights.com/",
    "category": "Bar & Restaurant",
    "types": "restaurant, bar, food, point_of_interest, establishment"
  },
  {
    "place_id": "ChIJJ5lQ0MfFJIgRXZUtLA2-ZtY",
    "name": "Tavern On the Main",
    "street_address": "235 South Main Street",
    "city": "Clawson",
    "state": "MI",
    "zip_code": "48017",
    "latitude": 42.5316769,
    "longitude": -83.14582589999999,
    "website": "http://www.tomclawson.com/",
    "category": "Bar & Restaurant",
    "types": "bar, restaurant, food, point_of_interest, establishment"
  },
  {
    "place_id": "ChIJBV8DZdfFJIgRSMd8AziWBe8",
    "name": "The Hideout",
    "street_address": "1110 West 14 Mile Road",
    "city": "Clawson",
    "state": "MI",
    "zip_code": "48017",
    "latitude": 42.53348159999999,
    "longitude": -83.1616173,
    "website": "https://www.thehideoutclawson.com/",
    "category": "Bar & Restaurant",
    "types": "bar, restaurant, food, point_of_interest, establishment"
  },
  {
    "place_id": "ChIJmwsAVUDPJIgRL1pJZdPN51k",
    "name": "Oak City Grille",
    "street_address": "212 West 6th Street",
    "city": "Royal Oak",
    "state": "MI",
    "zip_code": "48067",
    "latitude": 42.4857229,
    "longitude": -83.1460123,
    "website": "http://oakcitygrille.com/",
    "category": "Bar & Restaurant",
    "types": "bar, restaurant, food, point_of_interest, establishment"
  },
  {
    "place_id": "ChIJcVOX9p7IJIgR5HsOFAQ8J7I",
    "name": "24 Seconds Bar & Grill",
    "street_address": "3071 12 Mile Road",
    "city": "Berkley",
    "state": "MI",
    "zip_code": "48072",
    "latitude": 42.50285239999999,
    "longitude": -83.1901199,
    "website": "http://24secondsbar.com/",
    "category": "Bar & Restaurant",
    "types": "bar, restaurant, food, point_of_interest, establishment"
  },
  {
    "place_id": "ChIJDQYFgbHPJIgRLg88XpJnwcw",
    "name": "Connie's Finish Line",
    "street_address": "23715 South Chrysler Drive",
    "city": "Hazel Park",
    "state": "MI",
    "zip_code": "48030",
    "latitude": 42.46659,
    "longitude": -83.1088176,
    "website": "https://www.facebook.com/eddies.hazelpark",
    "category": "Bar & Restaurant",
    "types": "bar, restaurant, food, point_of_interest, establishment"
  },
  {
    "place_id": "ChIJxSnA_gbFJIgRR9NyvWYpvL8",
    "name": "Twin Peaks",
    "street_address": "1111 West 14 Mile Road",
    "city": "Madison Heights",
    "state": "MI",
    "zip_code": "48071",
    "latitude": 42.533289,
    "longitude": -83.1192579,
    "website": "https://twinpeaksrestaurant.com/locations/madison-heights-mi",
    "category": "Bar & Restaurant",
    "types": "bar, restaurant, food, point_of_interest, establishment"
  },
  {
    "place_id": "ChIJmRZR3k7GJIgRsKmUhUrMy_c",
    "name": "Mt Chalet II",
    "street_address": "32955 Woodward Avenue",
    "city": "Royal Oak",
    "state": "MI",
    "zip_code": "48073",
    "latitude": 42.53155479999999,
    "longitude": -83.1999774,
    "website": "http://www.mtchaletroyaloak.com/",
    "category": "Bar & Restaurant",
    "types": "bar, restaurant, food, point_of_interest, establishment"
  },
  {
    "place_id": "ChIJa-O_a97OJIgRphrrXzl9haM",
    "name": "Buffalo Wild Wings",
    "street_address": "500 South Main Street",
    "city": "Royal Oak",
    "state": "MI",
    "zip_code": "48067",
    "latitude": 42.4862242,
    "longitude": -83.144381,
    "website": "https://www.buffalowildwings.com/locations/us/mi/royal-oak/500-s--main-street/sports-bar-955?utm_source=google%20my%20business&utm_medium=organic&utm_campaign=website%20link",
    "category": "Bar & Restaurant",
    "types": "bar, meal_takeaway, restaurant, food, point_of_interest, establishment"
  },
  {
    "place_id": "ChIJBY2Z-9_PJIgRtKpl0SuVBaM",
    "name": "Applebee's Grill + Bar",
    "street_address": "2111 Eight Mile West",
    "city": "Detroit",
    "state": "MI",
    "zip_code": "48203",
    "latitude": 42.4461248,
    "longitude": -83.1222123,
    "website": "https://restaurants.applebees.com/en-us/mi/detroit/2111-west-eight-mile-rd-78033?utm_source=google&utm_medium=organic&utm_campaign=google_my_business&utm_term=78033&utm_content=website",
    "category": "Bar & Restaurant",
    "types": "restaurant, bar, food, point_of_interest, establishment"
  },
  {
    "place_id": "ChIJw2PCqEHPJIgRfdjq8klQSio",
    "name": "Fifth Avenue",
    "street_address": "215 West Fifth Street",
    "city": "Royal Oak",
    "state": "MI",
    "zip_code": "48067",
    "latitude": 42.4862442,
    "longitude": -83.14598079999999,
    "website": "http://www.fifthaveroyaloak.com/",
    "category": "Bar & Restaurant",
    "types": "bar, night_club, restaurant, food, point_of_interest, establishment"
  },
  {
    "place_id": "ChIJwYULTaDIJIgRy4yv9QM_ORE",
    "name": "O'Mara's Restaurant",
    "street_address": "2555 12 Mile Road",
    "city": "Berkley",
    "state": "MI",
    "zip_code": "48072",
    "latitude": 42.5028019,
    "longitude": -83.1847071,
    "website": "https://www.omarasrestaurant.com/",
    "category": "Bar & Restaurant",
    "types": "bar, restaurant, food, point_of_interest, establishment"
  },
  {
    "place_id": "ChIJ15VxDUHPJIgROjPz5_uUOAU",
    "name": "Lily's Seafood Grill & Brewery",
    "street_address": "410 South Washington Avenue",
    "city": "Royal Oak",
    "state": "MI",
    "zip_code": "48067",
    "latitude": 42.4869365,
    "longitude": -83.146819,
    "website": "http://www.lilysseafood.com/",
    "category": "Bar & Restaurant",
    "types": "bar, restaurant, point_of_interest, food, establishment"
  },
  {
    "place_id": "ChIJd6cv4qjFJIgRHfuPsQW1-CQ",
    "name": "Outback Steakhouse",
    "street_address": "1515 West 14 Mile Road",
    "city": "Madison Heights",
    "state": "MI",
    "zip_code": "48071",
    "latitude": 42.53328199999999,
    "longitude": -83.1257462,
    "website": "https://locations.outback.com/michigan/madison-heights/1515-west-14-mile-road?utm_source=gmb&utm_medium=local_search&utm_campaign=website_cta&y_source=1_MTU1MDIzNjctNzE1LWxvY2F0aW9uLndlYnNpdGU%3D",
    "category": "Bar & Restaurant",
    "types": "meal_takeaway, bar, restaurant, food, point_of_interest, establishment"
  }
]