[
  {
    "place_id": "ChIJ3aMrXZBxToYRS9R2DWLia-8",
    "name": "The Bearded Lady",
    "street_address": "300 South Main Street",
    "city": "Fort Worth",
    "state": "TX",
    "zip_code": "76104",
    "latitude": 32.7419117,
    "longitude": -97.3263685,
    "website": "https://www.thebeardedladyfw.com/",
    "category": "Bar & Restaurant",
    "types": "restaurant, bar, food, point_of_interest, establishment"
  },
  {
    "place_id": "ChIJ17gbFp9zToYRNi5WuTa3x6k",
    "name": "Rogers Roundhouse",
    "street_address": "1616 Rogers Road",
    "city": "Fort Worth",
    "state": "TX",
    "zip_code": "76107",
    "latitude": 32.7273497,
    "longitude": -97.3654565,
    "website": "http://www.rogersroundhouse.com/",
    "category": "Bar & Restaurant",
    "types": "bar, restaurant, food, point_of_interest, establishment"
  },
  {
    "place_id": "ChIJ5_qX_j9xToYRt3XFIr5iwcg",
    "name": "Little Red Wasp",
    "street_address": "808 Main Street",
    "city": "Fort Worth",
    "state": "TX",
    "zip_code": "76102",
    "latitude": 32.75224000000001,
    "longitude": -97.32981199999999,
    "website": "http://www.littleredwasp.com/",
    "category": "Bar & Restaurant",
    "types": "bar, restaurant, food, point_of_interest, establishment"
  },
  {
    "place_id": "ChIJR_oF5xRxToYRUgon4q1eUps",
    "name": "Whiskey & Rye",
    "street_address": "1300 Houston Street",
    "city": "Fort Worth",
    "state": "TX",
    "zip_code": "76102",
    "latitude": 32.74884350000001,
    "longitude": -97.3285399,
    "website": "https://www.omnihotels.com/hotels/fort-worth/dining/whiskey-and-rye?utm_source=gmblisting&utm_medium=organic",
    "category": "Bar & Restaurant",
    "types": "bar, restaurant, food, point_of_interest, establishment"
  },
  {
    "place_id": "ChIJ11HjXedzToYR_BDKDowWFT0",
    "name": "The Social House",
    "street_address": "840 Currie Street",
    "city": "Fort Worth",
    "state": "TX",
    "zip_code": "76107",
    "latitude": 32.75037339999999,
    "longitude": -97.358536,
    "website": "https://www.socialhousefortworth.com/",
    "category": "Bar & Restaurant",
    "types": "bar, restaurant, food, point_of_interest, establishment"
  },
  {
    "place_id": "ChIJ220oV4JxToYRx1MUYfffc9A",
    "name": "Finn MacCool's Pub",
    "street_address": "1700 8th Avenue",
    "city": "Fort Worth",
    "state": "TX",
    "zip_code": "76110",
    "latitude": 32.7265205,
    "longitude": -97.3438949,
    "website": null,
    "category": "Bar & Restaurant",
    "types": "bar, restaurant, food, point_of_interest, establishment"
  },
  {
    "place_id": "ChIJcx25xt1zToYRTb5aah1CK8I",
    "name": "Rodeo Goat",
    "street_address": "2836 Bledsoe Street",
    "city": "Fort Worth",
    "state": "TX",
    "zip_code": "76107",
    "latitude": 32.7487164,
    "longitude": -97.3580514,
    "website": "http://rodeogoat.com/fort-worth/",
    "category": "Bar & Restaurant",
    "types": "bar, restaurant, food, point_of_interest, establishment"
  },
  {
    "place_id": "ChIJ3477A9ZwToYRlhVR2ndryow",
    "name": "Refuel Bar & Grill",
    "street_address": "2616 East Belknap Street",
    "city": "Fort Worth",
    "state": "TX",
    "zip_code": "76111",
    "latitude": 32.7697223,
    "longitude": -97.3081408,
    "website": "https://www.facebook.com/groups/Fuel2.0",
    "category": "Bar & Restaurant",
    "types": "bar, restaurant, food, point_of_interest, establishment"
  },
  {
    "place_id": "ChIJVQXXFshzToYRso1G2QfN2tc",
    "name": "Rex's Bar & Grill",
    "street_address": "1501 South University Drive",
    "city": "Fort Worth",
    "state": "TX",
    "zip_code": "76107",
    "latitude": 32.7306507,
    "longitude": -97.36076109999999,
    "website": "https://rexsftw.com/",
    "category": "Restaurant",
    "types": "restaurant, food, point_of_interest, establishment"
  },
  {
    "place_id": "ChIJ0b6zd3VxToYRCfie07JxT0I",
    "name": "BREWED",
    "street_address": "801 West Magnolia Avenue",
    "city": "Fort Worth",
    "state": "TX",
    "zip_code": "76104",
    "latitude": 32.730439,
    "longitude": -97.33264199999999,
    "website": "http://www.brewedfw.com/",
    "category": "Restaurant",
    "types": "cafe, store, restaurant, food, point_of_interest, establishment"
  },
  {
    "place_id": "ChIJWx6i9PVzToYRLbz_SWauEwA",
    "name": "Little Woodrow's Fort Worth",
    "street_address": "2833 Morton Street",
    "city": "Fort Worth",
    "state": "TX",
    "zip_code": "76107",
    "latitude": 32.74894630000001,
    "longitude": -97.358066,
    "website": "https://littlewoodrows.com/locations/fort-worth/",
    "category": "Bar & Restaurant",
    "types": "bar, restaurant, point_of_interest, food, establishment"
  },
  {
    "place_id": "ChIJMzK7JUtxToYR00VZQoGeFIQ",
    "name": "branch & bird",
    "street_address": "640 Taylor Street",
    "city": "Fort Worth",
    "state": "TX",
    "zip_code": "76102",
    "latitude": 32.7524439,
    "longitude": -97.33299099999999,
    "website": "http://branchbirdfw.com/",
    "category": "Restaurant",
    "types": "restaurant, food, point_of_interest, establishment"
  },
  {
    "place_id": "ChIJddUdiEBxToYRNOui_GGA12Y",
    "name": "Flying Saucer Draught Emporium",
    "street_address": "111 East 3rd Street",
    "city": "Fort Worth",
    "state": "TX",
    "zip_code": "76102",
    "latitude": 32.7554418,
    "longitude": -97.33120009999999,
    "website": "http://www.beerknurd.com/locations/fort-worth-flying-saucer",
    "category": "Bar & Restaurant",
    "types": "bar, restaurant, food, point_of_interest, establishment"
  },
  {
    "place_id": "ChIJ2yJYkYZxToYRRPiq_VPt4XQ",
    "name": "Maggie's RnR",
    "street_address": "1264 West Magnolia Avenue",
    "city": "Fort Worth",
    "state": "TX",
    "zip_code": "76104",
    "latitude": 32.7308745,
    "longitude": -97.33912509999999,
    "website": "https://maggiesrr.com/",
    "category": "Restaurant",
    "types": "restaurant, food, point_of_interest, establishment"
  },
  {
    "place_id": "ChIJLxNW04hzToYR-bXaKcEX0WY",
    "name": "Crystal Springs Hideaway",
    "street_address": "113 Roberts Cut Off Road",
    "city": "Fort Worth",
    "state": "TX",
    "zip_code": "76114",
    "latitude": 32.7612903,
    "longitude": -97.4001816,
    "website": "https://www.crystalspringshideaway.com/",
    "category": "Bar & Restaurant",
    "types": "bar, restaurant, food, point_of_interest, establishment"
  },
  {
    "place_id": "ChIJEV-iQfFyToYRmIYc8hKrtTU",
    "name": "City Works (The Shops at Clearfork - Fort Worth)",
    "street_address": "5288 Monahans Avenue",
    "city": "Fort Worth",
    "state": "TX",
    "zip_code": "76109",
    "latitude": 32.7094031,
    "longitude": -97.4017721,
    "website": "https://www.cityworksrestaurant.com/locations/fortworth/",
    "category": "Bar & Restaurant",
    "types": "bar, restaurant, point_of_interest, food, establishment"
  },
  {
    "place_id": "ChIJ7cX9qL5zToYR9fa5Pak9Vis",
    "name": "Winslow's",
    "street_address": "4101 Camp Bowie Boulevard",
    "city": "Fort Worth",
    "state": "TX",
    "zip_code": "76107",
    "latitude": 32.74386229999999,
    "longitude": -97.37867089999999,
    "website": "http://www.winslowswinecafe.com/",
    "category": "Bar & Restaurant",
    "types": "restaurant, bar, food, point_of_interest, establishment"
  },
  {
    "place_id": "ChIJKx9T-yJyToYRar6m7N03DdY",
    "name": "Buffalo Bros",
    "street_address": "3015 South University Drive",
    "city": "Fort Worth",
    "state": "TX",
    "zip_code": "76109",
    "latitude": 32.707181,
    "longitude": -97.36014229999999,
    "website": "http://www.buffalobrostexas.com/",
    "category": "Bar & Restaurant",
    "types": "bar, restaurant, food, point_of_interest, establishment"
  },
  {
    "place_id": "ChIJHQF3dn1zToYRX77VNsXVPRU",
    "name": "Poop Deck Bar and Grill",
    "street_address": "3505 Blue Bonnet Circle",
    "city": "Fort Worth",
    "state": "TX",
    "zip_code": "76109",
    "latitude": 32.6985864,
    "longitude": -97.3596456,
    "website": "https://www.poopdeckbarandgrill.com/",
    "category": "Bar & Restaurant",
    "types": "bar, restaurant, food, point_of_interest, establishment"
  },
  {
    "place_id": "ChIJt12btFBxToYRWr3bJm4873E",
    "name": "Riverside Lounge - Martin House Brewing Company Taproom",
    "street_address": "220 South Sylvania Avenue",
    "city": "Fort Worth",
    "state": "TX",
    "zip_code": "76111",
    "latitude": 32.7638984,
    "longitude": -97.3098948,
    "website": "https://martinhousebrewing.com/",
    "category": "Bar & Restaurant",
    "types": "bar, restaurant, food, point_of_interest, establishment"
  },
  {
    "place_id": "ChIJjYD42Ph0ToYR05crvkZXtSE",
    "name": "Tricia's Rock House",
    "street_address": "5137 Azle Avenue",
    "city": "Fort Worth",
    "state": "TX",
    "zip_code": "76114",
    "latitude": 32.8089243,
    "longitude": -97.3975219,
    "website": null,
    "category": "Bar & Restaurant",
    "types": "bar, restaurant, food, point_of_interest, establishment"
  },
  {
    "place_id": "ChIJIa77yOBzToYRvwQ09AmFXZ8",
    "name": "Reservoir-Bar, Patio & Kitchen",
    "street_address": "1001 Foch Street",
    "city": "Fort Worth",
    "state": "TX",
    "zip_code": "76107",
    "latitude": 32.7489579,
    "longitude": -97.3561371,
    "website": "http://reservoirfortworth.com/",
    "category": "Bar & Restaurant",
    "types": "bar, restaurant, point_of_interest, food, establishment"
  },
  {
    "place_id": "ChIJzcTvvZ9yToYRdb0Og5n5rtQ",
    "name": "Woody's Tavern",
    "street_address": "4744 Bryant Irvin Road",
    "city": "Fort Worth",
    "state": "TX",
    "zip_code": "76132",
    "latitude": 32.679472,
    "longitude": -97.41728669999999,
    "website": "http://www.woodystaverntexas.com/",
    "category": "Bar & Restaurant",
    "types": "bar, restaurant, food, point_of_interest, establishment"
  },
  {
    "place_id": "ChIJDZBdv51yToYRgMHRM4gUCwo",
    "name": "Twin Peaks",
    "street_address": "5651 Southwest Loop 820",
    "city": "Fort Worth",
    "state": "TX",
    "zip_code": "76132",
    "latitude": 32.6816143,
    "longitude": -97.4098145,
    "website": "https://twinpeaksrestaurant.com/locations/south-fort-worth-tx",
    "category": "Bar & Restaurant",
    "types": "bar, restaurant, food, point_of_interest, establishment"
  },
  {
    "place_id": "ChIJ0RNRdp1yToYRW7V9AArF0pY",
    "name": "Wild Pitch Sports Bar & Grill",
    "street_address": "4701 Citylake Boulevard East",
    "city": "Fort Worth",
    "state": "TX",
    "zip_code": "76132",
    "latitude": 32.6809488,
    "longitude": -97.40826899999999,
    "website": "https://www.wildpitchsportsbar.com/",
    "category": "Bar & Restaurant",
    "types": "bar, restaurant, food, point_of_interest, establishment"
  },
  {
    "place_id": "ChIJZ4pgEVtyToYRgjq70-qGMwY",
    "name": "Tavern",
    "street_address": "2755 South Hulen Street",
    "city": "Fort Worth",
    "state": "TX",
    "zip_code": "76109",
    "latitude": 32.7112091,
    "longitude": -97.3857656,
    "website": "https://www.tavernftworthtx.com/",
    "category": "Restaurant",
    "types": "restaurant, point_of_interest, food, establishment"
  },
  {
    "place_id": "ChIJt3z58CJyToYRVwkLodWdt9E",
    "name": "Dutch's Hamburgers",
    "street_address": "3009 South University Drive",
    "city": "Fort Worth",
    "state": "TX",
    "zip_code": "76109",
    "latitude": 32.7073411,
    "longitude": -97.3600915,
    "website": "http://www.dutchshamburgers.com/",
    "category": "Restaurant",
    "types": "restaurant, food, point_of_interest, establishment"
  },
  {
    "place_id": "ChIJc0wQRCBzToYRhiJbKh1lW4E",
    "name": "Old Texas Brewing Co",
    "street_address": "6333 Camp Bowie Boulevard",
    "city": "Fort Worth",
    "state": "TX",
    "zip_code": "76116",
    "latitude": 32.7262079,
    "longitude": -97.41846129999999,
    "website": "https://www.oldtexasbrewing.com/",
    "category": "Bar & Restaurant",
    "types": "restaurant, bar, food, point_of_interest, establishment"
  },
  {
    "place_id": "ChIJwQJ-u_ZyToYRd1adsZdEHZc",
    "name": "CR\u00da Food & Wine Bar (The Shops at Clearfork - Fort Worth)",
    "street_address": "5188 Marathon Avenue",
    "city": "Fort Worth",
    "state": "TX",
    "zip_code": "76109",
    "latitude": 32.7097115,
    "longitude": -97.39925389999999,
    "website": "https://cruwinebar.com/",
    "category": "Bar & Restaurant",
    "types": "bar, restaurant, food, point_of_interest, establishment"
  },
  {
    "place_id": "ChIJ30UyRa5zToYRwxl86LufA5o",
    "name": "Lot 12 Rooftop Bar",
    "street_address": "2512 West Berry Street",
    "city": "Fort Worth",
    "state": "TX",
    "zip_code": "76109",
    "latitude": 32.70622029999999,
    "longitude": -97.35360879999999,
    "website": "https://www.lot12tcu.com/",
    "category": "Bar & Restaurant",
    "types": "bar, restaurant, food, point_of_interest, establishment"
  },
  {
    "place_id": "ChIJk0IhE3ZxToYRHIUbzyMeJIM",
    "name": "Shaw's Patio Bar & Grill",
    "street_address": "1051 West Magnolia Avenue",
    "city": "Fort Worth",
    "state": "TX",
    "zip_code": "76104",
    "latitude": 32.7304719,
    "longitude": -97.3362157,
    "website": "https://www.shawspatio.com/",
    "category": "Bar & Restaurant",
    "types": "bar, restaurant, food, point_of_interest, establishment"
  },
  {
    "place_id": "ChIJB9b3YB1xToYRu6qdQ77ZmJg",
    "name": "Wild Acre Restaurant & Beer Garden",
    "street_address": "1734 East El Paso Street",
    "city": "Fort Worth",
    "state": "TX",
    "zip_code": "76102",
    "latitude": 32.7436834,
    "longitude": -97.3086294,
    "website": "https://www.wildacrebrewing.com/",
    "category": "Bar & Restaurant",
    "types": "restaurant, bar, food, point_of_interest, establishment"
  },
  {
    "place_id": "ChIJKwwnXl1zToYRkgEyMsX1Fcw",
    "name": "Birdie's Social Club",
    "street_address": "2735 West 5th Street",
    "city": "Fort Worth",
    "state": "TX",
    "zip_code": "76107",
    "latitude": 32.7523328,
    "longitude": -97.35633329999999,
    "website": "https://www.birdiessocialclub.com/",
    "category": "Bar & Restaurant",
    "types": "bar, restaurant, food, point_of_interest, establishment"
  },
  {
    "place_id": "ChIJE7vrjOBzToYR5AjReQqwnOE",
    "name": "Poag Mahone's",
    "street_address": "700 Carroll Street",
    "city": "Fort Worth",
    "state": "TX",
    "zip_code": "76107",
    "latitude": 32.7519444,
    "longitude": -97.35499999999999,
    "website": "https://www.facebook.com/poagmahones/",
    "category": "Bar & Restaurant",
    "types": "night_club, bar, restaurant, food, point_of_interest, establishment"
  },
  {
    "place_id": "ChIJuS8fxnlzToYR89orJrnjOXc",
    "name": "Wonder Bar",
    "street_address": "910 Currie Street",
    "city": "Fort Worth",
    "state": "TX",
    "zip_code": "76107",
    "latitude": 32.74939799999999,
    "longitude": -97.3586251,
    "website": "https://wonderbarfortworth.com/",
    "category": "Bar & Restaurant",
    "types": "bar, restaurant, food, point_of_interest, establishment"
  },
  {
    "place_id": "ChIJn2eQhiJ1ToYRPeacwm8FduI",
    "name": "McFly's Pub",
    "street_address": "6104 LTjg Barnett Road",
    "city": "Fort Worth",
    "state": "TX",
    "zip_code": "76114",
    "latitude": 32.7749503,
    "longitude": -97.41493009999999,
    "website": "https://www.facebook.com/mcflyspub/",
    "category": "Bar & Restaurant",
    "types": "bar, restaurant, food, point_of_interest, establishment"
  },
  {
    "place_id": "ChIJUUl38SJyToYRXIXBFOmjzGY",
    "name": "University Pub",
    "street_address": "3019 South University Drive",
    "city": "Fort Worth",
    "state": "TX",
    "zip_code": "76109",
    "latitude": 32.7071306,
    "longitude": -97.3601544,
    "website": "http://theuniversitypub.com/",
    "category": "Bar & Restaurant",
    "types": "bar, restaurant, food, point_of_interest, establishment"
  },
  {
    "place_id": "ChIJJQrV83F8ToYRPgyBSi0LLQc",
    "name": "No Frills Grill & Sports Bar - Fort Worth",
    "street_address": "1550 Eastchase Parkway",
    "city": "Fort Worth",
    "state": "TX",
    "zip_code": "76120",
    "latitude": 32.756649,
    "longitude": -97.16976299999999,
    "website": "http://www.nofrillsgrill.com/",
    "category": "Bar & Restaurant",
    "types": "bar, restaurant, food, point_of_interest, establishment"
  },
  {
    "place_id": "ChIJtYl0rg19ToYRTUxS8dBj5ZM",
    "name": "Sport Spot Bar & Grill",
    "street_address": "1308 South Cooper Street",
    "city": "Arlington",
    "state": "TX",
    "zip_code": "76013",
    "latitude": 32.7237413,
    "longitude": -97.1150347,
    "website": "https://arlingtonsportsbar.com/",
    "category": "Bar & Restaurant",
    "types": "bar, restaurant, food, point_of_interest, establishment"
  },
  {
    "place_id": "ChIJb7_AXXN9ToYRCB-Z-M-3FyM",
    "name": "Old School Pizza Tavern",
    "street_address": "603 West Abram Street",
    "city": "Arlington",
    "state": "TX",
    "zip_code": "76010",
    "latitude": 32.7359552,
    "longitude": -97.1132356,
    "website": "https://oldschoolpizzatavern.org/",
    "category": "Bar & Restaurant",
    "types": "meal_delivery, meal_takeaway, bar, restaurant, food, point_of_interest, establishment"
  },
  {
    "place_id": "ChIJU5FJtsV8ToYRfK0A6BRXOyM",
    "name": "Mr. B's Burger Pub",
    "street_address": "2578 West Pioneer Parkway",
    "city": "Pantego",
    "state": "TX",
    "zip_code": "76013",
    "latitude": 32.7081868,
    "longitude": -97.1500552,
    "website": "http://www.mrbsburgerpub.net/",
    "category": "Restaurant",
    "types": "restaurant, food, point_of_interest, establishment"
  },
  {
    "place_id": "ChIJ-xVnKHV7ToYRDqkKSXOFWEw",
    "name": "Tastebuds Live",
    "street_address": "709 East Loop 820",
    "city": "Fort Worth",
    "state": "TX",
    "zip_code": "76120",
    "latitude": 32.76940389999999,
    "longitude": -97.2119645,
    "website": "https://tastebudslive.com/",
    "category": "Bar & Restaurant",
    "types": "bar, restaurant, food, point_of_interest, establishment"
  },
  {
    "place_id": "ChIJSwJoOHZxToYRnZH4YCyo8qs",
    "name": "Heim Barbecue",
    "street_address": "1109 West Magnolia Avenue",
    "city": "Fort Worth",
    "state": "TX",
    "zip_code": "76104",
    "latitude": 32.73050560000001,
    "longitude": -97.3373898,
    "website": "https://heimbbq.com/",
    "category": "Bar & Restaurant",
    "types": "bar, restaurant, food, point_of_interest, establishment"
  }
]