[
  {
    "place_id": "ChIJHbXyn_ZtAHwRCicn7yIx__k",
    "name": "Harbor Pub & Pizza",
    "street_address": "1765 Ala Moana Boulevard",
    "city": "Honolulu",
    "state": "HI",
    "zip_code": "96815",
    "latitude": 21.285199,
    "longitude": -157.8396886,
    "website": "https://harborpubhawaii.us/",
    "category": "Bar & Restaurant",
    "types": "bar, restaurant, food, point_of_interest, establishment"
  },
  {
    "place_id": "ChIJpeekwXByAHwRmkqRkpULgRM",
    "name": "Tikis Grill & Bar",
    "street_address": "2570 Kal\u0101kaua Avenue",
    "city": "Honolulu",
    "state": "HI",
    "zip_code": "96815",
    "latitude": 21.27243859999999,
    "longitude": -157.822561,
    "website": "http://www.tikisgrill.com/",
    "category": "Bar & Restaurant",
    "types": "night_club, bar, restaurant, food, point_of_interest, establishment"
  },
  {
    "place_id": "ChIJca0BWC5zAHwRnlGZ99CSTzY",
    "name": "Skybox Taphouse: Sports Bar",
    "street_address": "2330 Kal\u0101kaua Avenue",
    "city": "Honolulu",
    "state": "HI",
    "zip_code": "96815",
    "latitude": 21.2778633,
    "longitude": -157.8270186,
    "website": "https://skyboxtaphouse.com/?utm_source=google",
    "category": "Bar & Restaurant",
    "types": "bar, restaurant, food, point_of_interest, establishment"
  },
  {
    "place_id": "ChIJ0zgno3ByAHwRTctl9GVdzCE",
    "name": "Lulu's Waikiki",
    "street_address": "2586 Kal\u0101kaua Avenue",
    "city": "Honolulu",
    "state": "HI",
    "zip_code": "96815",
    "latitude": 21.2719238,
    "longitude": -157.8226832,
    "website": "http://www.luluswaikiki.com/",
    "category": "Bar & Restaurant",
    "types": "restaurant, bar, food, point_of_interest, establishment"
  },
  {
    "place_id": "ChIJrYMbMQBtAHwRnUlFWCYOkZA",
    "name": "Waikiki Brew Co.",
    "street_address": "2155 Kal\u0101kaua Avenue",
    "city": "Honolulu",
    "state": "HI",
    "zip_code": "96815",
    "latitude": 21.280418,
    "longitude": -157.8302567,
    "website": "https://www.waikikibrewing.com/",
    "category": "Bar & Restaurant",
    "types": "bar, restaurant, food, point_of_interest, establishment"
  },
  {
    "place_id": "ChIJE2HQNkRzAHwR4h2YhJjJA4g",
    "name": "Splash Bar",
    "street_address": "120 Ka\u02bbiulani Avenue",
    "city": "Honolulu",
    "state": "HI",
    "zip_code": "96815",
    "latitude": 21.2773632,
    "longitude": -157.8259769,
    "website": "https://www.splashbarwaikiki.com/",
    "category": "Bar & Restaurant",
    "types": "restaurant, bar, food, point_of_interest, establishment"
  },
  {
    "place_id": "ChIJBT_xcIptAHwRqiYl33DFJWU",
    "name": "Kelley O'Neil's",
    "street_address": "311 Lewers Street",
    "city": "Honolulu",
    "state": "HI",
    "zip_code": "96815",
    "latitude": 21.2803805,
    "longitude": -157.8293347,
    "website": "https://www.kelleyoneils.com/",
    "category": "Bar & Restaurant",
    "types": "bar, restaurant, food, point_of_interest, establishment"
  },
  {
    "place_id": "ChIJx9yme3VyAHwRe_ohxznO4aQ",
    "name": "Yard House",
    "street_address": "226 Lewers Street",
    "city": "Honolulu",
    "state": "HI",
    "zip_code": "96815",
    "latitude": 21.279084,
    "longitude": -157.831264,
    "website": "https://www.yardhouse.com/locations/hi/honolulu/waikiki-waikiki-beach-walk/8316?cmpid=br:yh_ag:ie_ch:loc_ca:YHGMB_sn:gmb_gt:honolulu-hi-8316_pl:locurl_rd:1015",
    "category": "Bar & Restaurant",
    "types": "bar, meal_takeaway, restaurant, food, point_of_interest, establishment"
  },
  {
    "place_id": "ChIJ83dV_XZyAHwR_NWHm2EOL7E",
    "name": "Shorefyre Beach Bar + Grill",
    "street_address": "2446 Koa Avenue",
    "city": "Honolulu",
    "state": "HI",
    "zip_code": "96815",
    "latitude": 21.2758305,
    "longitude": -157.824176,
    "website": "https://shorefyre.com/locations/beach-bar-honolulu/?utm_source=google&utm_medium=gbp&utm_campaign=beach_bar",
    "category": "Bar & Restaurant",
    "types": "bar, restaurant, point_of_interest, food, establishment"
  },
  {
    "place_id": "ChIJVYfD9MtvAHwR1H-Gz8gN0bQ",
    "name": "Black Shamrock Tavern",
    "street_address": "902 Nuuanu Avenue",
    "city": "Honolulu",
    "state": "HI",
    "zip_code": "96817",
    "latitude": 21.3104023,
    "longitude": -157.8635687,
    "website": "http://www.blackshamrocktavern.com/",
    "category": "Bar & Restaurant",
    "types": "bar, restaurant, food, point_of_interest, establishment"
  },
  {
    "place_id": "ChIJhYH2reFtAHwRzmGmfwSr4g4",
    "name": "TJ's Sports Bar & Grill",
    "street_address": "600 Kapiolani Boulevard",
    "city": "Honolulu",
    "state": "HI",
    "zip_code": "96813",
    "latitude": 21.3033221,
    "longitude": -157.8551685,
    "website": "http://www.tjshawaii.com/",
    "category": "Bar & Restaurant",
    "types": "restaurant, bar, food, point_of_interest, establishment"
  },
  {
    "place_id": "ChIJq2YK2wxzAHwRjqwRHpz1zv0",
    "name": "DECK. at Queen Kapi\u02bbolani Hotel",
    "street_address": "150 Kapahulu Avenue",
    "city": "Honolulu",
    "state": "HI",
    "zip_code": "96815",
    "latitude": 21.271852,
    "longitude": -157.8210635,
    "website": "https://www.deckwaikiki.com/",
    "category": "Bar & Restaurant",
    "types": "restaurant, bar, food, point_of_interest, establishment"
  },
  {
    "place_id": "ChIJewbK33VyAHwR-Q9SxtLubow",
    "name": "Maui Brewing Co. Waikiki",
    "street_address": "2300 Kal\u0101kaua Avenue",
    "city": "Honolulu",
    "state": "HI",
    "zip_code": "96815",
    "latitude": 21.2778605,
    "longitude": -157.8272253,
    "website": "https://www.mbcrestaurants.com/waikiki/",
    "category": "Bar & Restaurant",
    "types": "bar, restaurant, food, point_of_interest, establishment"
  },
  {
    "place_id": "ChIJpYp-DpNtAHwR2XRnd3qzbVA",
    "name": "Pint and Jigger",
    "street_address": "410 Atkinson Drive",
    "city": "Honolulu",
    "state": "HI",
    "zip_code": "96814",
    "latitude": 21.2901175,
    "longitude": -157.8394807,
    "website": "http://pintandjigger.com/",
    "category": "Bar & Restaurant",
    "types": "bar, restaurant, food, point_of_interest, establishment"
  },
  {
    "place_id": "ChIJ_19zwxRzAHwRKg6LHnzCRg8",
    "name": "Leahi Bar & Grill",
    "street_address": "2446 Koa Avenue",
    "city": "Honolulu",
    "state": "HI",
    "zip_code": "96815",
    "latitude": 21.275838,
    "longitude": -157.8240839,
    "website": "http://leahigrill.com/",
    "category": "Bar & Restaurant",
    "types": "bar, restaurant, point_of_interest, food, establishment"
  },
  {
    "place_id": "ChIJQZUPXPNtAHwR1oqro-ILs5I",
    "name": "Irish Rose Saloon",
    "street_address": "478 Ena Road",
    "city": "Honolulu",
    "state": "HI",
    "zip_code": "96815",
    "latitude": 21.286631,
    "longitude": -157.83416,
    "website": null,
    "category": "Bar & Restaurant",
    "types": "bar, restaurant, food, point_of_interest, establishment"
  },
  {
    "place_id": "ChIJm07-kcFzAHwR-UyfcAwjGOg",
    "name": "Shorefyre Fresh Grill & Bar at International Market Place",
    "street_address": "2330 Kal\u0101kaua Avenue",
    "city": "Honolulu",
    "state": "HI",
    "zip_code": "96815",
    "latitude": 21.2777546,
    "longitude": -157.8266548,
    "website": "https://www.shorefyre.com/locations/shorefyre-fresh-grill-bar-at-international-market-place/?utm_source=google&utm_medium=gbp&utm_campaign=intl_marketplace",
    "category": "Bar & Restaurant",
    "types": "bar, restaurant, food, point_of_interest, establishment"
  },
  {
    "place_id": "ChIJ__-vPfRtAHwRynZGgIQaN7E",
    "name": "Tropics Waikiki Tacos & Tequila",
    "street_address": "1778 Ala Moana Boulevard",
    "city": "Honolulu",
    "state": "HI",
    "zip_code": "96815",
    "latitude": 21.2851401,
    "longitude": -157.8380928,
    "website": "http://www.tropicswaikiki.com/",
    "category": "Bar & Restaurant",
    "types": "restaurant, bar, food, point_of_interest, establishment"
  },
  {
    "place_id": "ChIJicmVgnNuAHwRq06VzB6dudU",
    "name": "Murphy's Bar & Grill",
    "street_address": "2 Merchant Street",
    "city": "Honolulu",
    "state": "HI",
    "zip_code": "96813",
    "latitude": 21.310186,
    "longitude": -157.8635252,
    "website": "http://murphyshawaii.com/",
    "category": "Bar & Restaurant",
    "types": "bar, restaurant, food, point_of_interest, establishment"
  },
  {
    "place_id": "ChIJc3STwHVyAHwRI0sZMqJSn_o",
    "name": "Island Vintage Wine Bar",
    "street_address": "2301 Kal\u0101kaua Avenue",
    "city": "Honolulu",
    "state": "HI",
    "zip_code": "96815",
    "latitude": 21.27823679999999,
    "longitude": -157.8286301,
    "website": "http://www.islandvintagewinebar.com/",
    "category": "Bar & Restaurant",
    "types": "bar, store, restaurant, food, point_of_interest, establishment"
  },
  {
    "place_id": "ChIJWYnYqgxuAHwRDthmoVUUJBk",
    "name": "Ferguson's Irish Pub",
    "street_address": "729 Bishop Street",
    "city": "Honolulu",
    "state": "HI",
    "zip_code": "96813",
    "latitude": 21.3071847,
    "longitude": -157.8630797,
    "website": "http://www.fergusonspub.com/",
    "category": "Bar & Restaurant",
    "types": "bar, restaurant, food, point_of_interest, establishment"
  },
  {
    "place_id": "ChIJO3--yHttAHwRkL4Al8__Gq4",
    "name": "BREW'd craft pub",
    "street_address": "3441 Waialae Avenue",
    "city": "Honolulu",
    "state": "HI",
    "zip_code": "96816",
    "latitude": 21.2842361,
    "longitude": -157.8022493,
    "website": "http://www.brewdcraftpub.com/",
    "category": "Restaurant",
    "types": "restaurant, food, point_of_interest, establishment"
  },
  {
    "place_id": "ChIJRxmMI5NtAHwRpatpWfdtVXg",
    "name": "Osoyami Bar and Grill",
    "street_address": "1820 Algaroba Street",
    "city": "Honolulu",
    "state": "HI",
    "zip_code": "96826",
    "latitude": 21.2949467,
    "longitude": -157.8319873,
    "website": null,
    "category": "Bar & Restaurant",
    "types": "bar, restaurant, point_of_interest, food, establishment"
  },
  {
    "place_id": "ChIJFWbqawVtAHwRRdNZjdpv_Yw",
    "name": "Off The Wall Craft Beer & Wine",
    "street_address": "1170 Auahi Street",
    "city": "Honolulu",
    "state": "HI",
    "zip_code": "96814",
    "latitude": 21.2932046,
    "longitude": -157.8505033,
    "website": "https://offthewallhawaii.com/",
    "category": "Bar & Restaurant",
    "types": "bar, meal_takeaway, restaurant, food, point_of_interest, establishment"
  },
  {
    "place_id": "ChIJcWKjRfBtAHwRmJmJjqjhkFY",
    "name": "Mai Tai's",
    "street_address": "1450 Ala Moana Boulevard",
    "city": "Honolulu",
    "state": "HI",
    "zip_code": "96814",
    "latitude": 21.2905355,
    "longitude": -157.8426199,
    "website": "https://www.maitaishawaii.com/",
    "category": "Bar & Restaurant",
    "types": "restaurant, bar, food, point_of_interest, establishment"
  },
  {
    "place_id": "ChIJf9g7zkdtAHwRXN0uAUWwT88",
    "name": "The Grove Restaurant & Bar",
    "street_address": "1775 Ala Moana Boulevard",
    "city": "Honolulu",
    "state": "HI",
    "zip_code": "96815",
    "latitude": 21.28475389999999,
    "longitude": -157.8390477,
    "website": "https://www.themodernhonolulu.com/waikiki-restaurants",
    "category": "Restaurant",
    "types": "restaurant, food, point_of_interest, establishment"
  },
  {
    "place_id": "ChIJM-b8YpBtAHwRO-pFxY5uAE8",
    "name": "RB Sports Bar & Grill (Rock Bottom)",
    "street_address": "1019 University Avenue",
    "city": "Honolulu",
    "state": "HI",
    "zip_code": "96826",
    "latitude": 21.2925389,
    "longitude": -157.8212954,
    "website": "http://rbhawaii.com/",
    "category": "Bar & Restaurant",
    "types": "bar, restaurant, food, point_of_interest, establishment"
  },
  {
    "place_id": "ChIJ3z2YGAluAHwRNzWzWciCOew",
    "name": "Bevy",
    "street_address": "675 Auahi Street",
    "city": "Honolulu",
    "state": "HI",
    "zip_code": "96813",
    "latitude": 21.2988003,
    "longitude": -157.8613781,
    "website": "https://bevyhawaii.com/",
    "category": "Bar & Restaurant",
    "types": "bar, restaurant, food, point_of_interest, establishment"
  },
  {
    "place_id": "ChIJBzfsc3ZyAHwRcBOjm3eRBQ0",
    "name": "Herringbone Waikiki",
    "street_address": "2330 Kal\u0101kaua Avenue",
    "city": "Honolulu",
    "state": "HI",
    "zip_code": "96815",
    "latitude": 21.2788833,
    "longitude": -157.8267778,
    "website": "https://aokigroup.com/herringbonewaikiki/",
    "category": "Bar & Restaurant",
    "types": "bar, restaurant, food, point_of_interest, establishment"
  },
  {
    "place_id": "ChIJK1T2CoptAHwRceh_RRYdAiU",
    "name": "Cuckoo Coconuts",
    "street_address": "333 Royal Hawaiian Avenue",
    "city": "Honolulu",
    "state": "HI",
    "zip_code": "96815",
    "latitude": 21.2799776,
    "longitude": -157.8284408,
    "website": "http://www.cuckoococonutswaikiki.com/",
    "category": "Bar & Restaurant",
    "types": "bar, restaurant, food, point_of_interest, establishment"
  },
  {
    "place_id": "ChIJzyVahnZyAHwRK9NmorJSir8",
    "name": "Beachhouse at the Moana",
    "street_address": "2365 Kal\u0101kaua Avenue",
    "city": "Honolulu",
    "state": "HI",
    "zip_code": "96815",
    "latitude": 21.276454,
    "longitude": -157.8266079,
    "website": "https://www.beachhousewaikiki.com/",
    "category": "Bar & Restaurant",
    "types": "restaurant, bar, food, point_of_interest, establishment"
  },
  {
    "place_id": "ChIJKYHruLxtAHwRI4yLmetuU1c",
    "name": "Ali'i Bar and Grill",
    "street_address": "444 Niu Street",
    "city": "Honolulu",
    "state": "HI",
    "zip_code": "96815",
    "latitude": 21.2869649,
    "longitude": -157.8327139,
    "website": "https://aliibarandgrill.com/",
    "category": "Bar & Restaurant",
    "types": "bar, restaurant, food, point_of_interest, establishment"
  },
  {
    "place_id": "ChIJ277_8HZyAHwRjrWz9VnOsm8",
    "name": "SWIM Restaurant & Bar",
    "street_address": "2424 Kal\u0101kaua Avenue",
    "city": "Honolulu",
    "state": "HI",
    "zip_code": "96815",
    "latitude": 21.2760834,
    "longitude": -157.8253554,
    "website": "https://waikiki.regency.hyatt.com/en/hotel/dining/Swim.html",
    "category": "Bar & Restaurant",
    "types": "bar, restaurant, food, point_of_interest, establishment"
  },
  {
    "place_id": "ChIJ-9sxbeltAHwRtUMHFEYm_nM",
    "name": "8 Fat Fat 8 Bar & Grille",
    "street_address": "1327 South Beretania Street",
    "city": "Honolulu",
    "state": "HI",
    "zip_code": "96814",
    "latitude": 21.300483,
    "longitude": -157.84057,
    "website": "https://www.8fatfat8hawaii.com/",
    "category": "Bar & Restaurant",
    "types": "bar, restaurant, food, point_of_interest, establishment"
  },
  {
    "place_id": "ChIJiyeETHRuAHwRimIpCd10TKU",
    "name": "Proof Social Club",
    "street_address": "1154 Fort Street Mall",
    "city": "Honolulu",
    "state": "HI",
    "zip_code": "96813",
    "latitude": 21.3109772,
    "longitude": -157.8601379,
    "website": "http://www.proofsocialclub.com/",
    "category": "Bar & Restaurant",
    "types": "bar, restaurant, food, point_of_interest, establishment"
  },
  {
    "place_id": "ChIJ93ZgNJNtAHwRiYHpdcqYMv8",
    "name": "Y's Sports Bar & Grill",
    "street_address": "1775 South King Street",
    "city": "Honolulu",
    "state": "HI",
    "zip_code": "96826",
    "latitude": 21.2955685,
    "longitude": -157.8330075,
    "website": null,
    "category": "Bar & Restaurant",
    "types": "bar, restaurant, food, point_of_interest, establishment"
  },
  {
    "place_id": "ChIJ0TrxA71vAHwRvKj1j1x92fU",
    "name": "The Nighthawk",
    "street_address": "12 South King Street",
    "city": "Honolulu",
    "state": "HI",
    "zip_code": "96813",
    "latitude": 21.3103621,
    "longitude": -157.8626372,
    "website": "https://www.thenighthawkhi.com/",
    "category": "Bar & Restaurant",
    "types": "bar, restaurant, food, point_of_interest, establishment"
  },
  {
    "place_id": "ChIJEQSm4whuAHwRuXbHUJ2rbVA",
    "name": "PITCH SPORTS BAR",
    "street_address": "685 Auahi Street",
    "city": "Honolulu",
    "state": "HI",
    "zip_code": "96813",
    "latitude": 21.2982049,
    "longitude": -157.8611601,
    "website": "https://www.pitchsportsbar.com/",
    "category": "Bar & Restaurant",
    "types": "bar, restaurant, food, point_of_interest, establishment"
  },
  {
    "place_id": "ChIJ8fiQbXVyAHwRSOWC3zxu1K0",
    "name": "Giovanni Pastrami",
    "street_address": "227 Lewers Street",
    "city": "Honolulu",
    "state": "HI",
    "zip_code": "96815",
    "latitude": 21.2790924,
    "longitude": -157.8308957,
    "website": "https://www.giovannipastrami.com/",
    "category": "Bar & Restaurant",
    "types": "bar, restaurant, food, point_of_interest, store, establishment"
  },
  {
    "place_id": "ChIJX5iEoJptAHwRuFPHiHg6Qpw",
    "name": "Oahu Mexican Grill (OMG)",
    "street_address": "2520 Kal\u0101kaua Avenue",
    "city": "Honolulu",
    "state": "HI",
    "zip_code": "96815",
    "latitude": 21.2735155,
    "longitude": -157.8234972,
    "website": "https://www.omg.menu/",
    "category": "Bar & Restaurant",
    "types": "meal_takeaway, bar, restaurant, food, point_of_interest, establishment"
  },
  {
    "place_id": "ChIJ9RGi3XVyAHwRj9kLmAZv3a8",
    "name": "Hawaiian Aroma Caffe At Beachcomber Waikiki",
    "street_address": "2300 Kal\u0101kaua Avenue",
    "city": "Honolulu",
    "state": "HI",
    "zip_code": "96815",
    "latitude": 21.2781873,
    "longitude": -157.827324,
    "website": "http://www.hawaiianaromacaffe.com/",
    "category": "Bar & Restaurant",
    "types": "cafe, bar, store, restaurant, food, point_of_interest, establishment"
  },
  {
    "place_id": "ChIJbakTym5uAHwROh-CqN6QFl0",
    "name": "La Tour Cafe Iwilei",
    "street_address": "888 North Nimitz Highway",
    "city": "Honolulu",
    "state": "HI",
    "zip_code": "96817",
    "latitude": 21.316019,
    "longitude": -157.8742692,
    "website": "http://www.latourcafe.com/",
    "category": "Restaurant",
    "types": "cafe, bakery, restaurant, food, store, point_of_interest, establishment"
  },
  {
    "place_id": "ChIJ-1b5_optAHwR_p8socrvDfE",
    "name": "DEAN & DELUCA HAWAII - RITZ-CARLTON STORE",
    "street_address": "383 Kalaimoku Street",
    "city": "Honolulu",
    "state": "HI",
    "zip_code": "96815",
    "latitude": 21.2826146,
    "longitude": -157.8302305,
    "website": "https://www.deandeluca-hawaii.com/",
    "category": "Restaurant",
    "types": "bakery, cafe, furniture_store, home_goods_store, store, restaurant, food, point_of_interest, establishment"
  },
  {
    "place_id": "ChIJ0_uBivBtAHwRKHt3aXXlJc0",
    "name": "Island Brew Coffeehouse",
    "street_address": "1450 Ala Moana Boulevard",
    "city": "Honolulu",
    "state": "HI",
    "zip_code": "96814",
    "latitude": 21.2917685,
    "longitude": -157.8458799,
    "website": "http://www.islandbrewcoffeehouse.com/",
    "category": "Restaurant",
    "types": "cafe, store, restaurant, food, point_of_interest, establishment"
  },
  {
    "place_id": "ChIJzeGZFdhvAHwRCq04xPoktqc",
    "name": "Aloha Krew",
    "street_address": "521 Ala Moana Boulevard",
    "city": "Honolulu",
    "state": "HI",
    "zip_code": "96813",
    "latitude": 21.3005736,
    "longitude": -157.8656544,
    "website": null,
    "category": "Restaurant",
    "types": "restaurant, food, point_of_interest, establishment"
  },
  {
    "place_id": "ChIJjZZUhIptAHwRe6LV41_xgc4",
    "name": "Hard Rock Cafe",
    "street_address": "280 Beach Walk",
    "city": "Honolulu",
    "state": "HI",
    "zip_code": "96815",
    "latitude": 21.2809413,
    "longitude": -157.8307348,
    "website": "https://cafe.hardrock.com/honolulu/#utm_source=Google&utm_medium=Yext&utm_campaign=Listings",
    "category": "Restaurant",
    "types": "restaurant, food, point_of_interest, establishment"
  },
  {
    "place_id": "ChIJcy8PDXRuAHwRs68tt_54NkI",
    "name": "The Manifest",
    "street_address": "32 North Hotel Street",
    "city": "Honolulu",
    "state": "HI",
    "zip_code": "96817",
    "latitude": 21.3115082,
    "longitude": -157.8622659,
    "website": "http://manifesthawaii.com/",
    "category": "Bar & Restaurant",
    "types": "bar, cafe, meal_takeaway, night_club, restaurant, food, point_of_interest, establishment"
  },
  {
    "place_id": "ChIJeRjBxXByAHwR4SHJntWsvFQ",
    "name": "Kuhio Beach Grill",
    "street_address": "2552 Kal\u0101kaua Avenue",
    "city": "Honolulu",
    "state": "HI",
    "zip_code": "96815",
    "latitude": 21.2732058,
    "longitude": -157.8223747,
    "website": "https://www.marriott.com/en-us/hotels/hnlmc-waikiki-beach-marriott-resort-and-spa/dining/?scid=feed67b0-9a2f-4de1-8df6-114544116108",
    "category": "Restaurant",
    "types": "restaurant, food, point_of_interest, establishment"
  },
  {
    "place_id": "ChIJj7ONrPFtAHwRgN1e9dXd1vg",
    "name": "Mahaloha Burger Ala Moana",
    "street_address": "1450 Ala Moana Boulevard",
    "city": "Honolulu",
    "state": "HI",
    "zip_code": "96814",
    "latitude": 21.2906564,
    "longitude": -157.8419713,
    "website": "https://www.alamoanacenter.com/ja/directory/mahaloha-burger-21932.html",
    "category": "Restaurant",
    "types": "restaurant, point_of_interest, food, establishment"
  },
  {
    "place_id": "ChIJO8hmFXZuAHwRjF1BgSOw6pU",
    "name": "Tio's Tamales",
    "street_address": "1329 Nuuanu Avenue",
    "city": "Honolulu",
    "state": "HI",
    "zip_code": "96817",
    "latitude": 21.313604,
    "longitude": -157.858359,
    "website": "https://www.facebook.com/tiostamales/",
    "category": "Restaurant",
    "types": "restaurant, food, point_of_interest, store, establishment"
  },
  {
    "place_id": "ChIJk-c8M6dtAHwR8XlRgsTf-I8",
    "name": "The Gatsby Hawai'i",
    "street_address": "814 Ilaniwai Street",
    "city": "Honolulu",
    "state": "HI",
    "zip_code": "96813",
    "latitude": 21.2989212,
    "longitude": -157.8560238,
    "website": "https://thegatsbyhawaii.com/",
    "category": "Bar & Restaurant",
    "types": "bar, night_club, restaurant, food, point_of_interest, establishment"
  },
  {
    "place_id": "ChIJW0tI4XZvAHwReNML_Kkilt4",
    "name": "Sharks Den Bar and Grill",
    "street_address": "3401 North Nimitz Highway",
    "city": "Honolulu",
    "state": "HI",
    "zip_code": "96819",
    "latitude": 21.336974,
    "longitude": -157.9177195,
    "website": "http://www.sharksdenbarandgrill.com/",
    "category": "Restaurant",
    "types": "restaurant, food, point_of_interest, establishment"
  },
  {
    "place_id": "ChIJX1V0aqFvAHwRJCMlmBIjuqY",
    "name": "Stinger Rays Tropical Bar and Grill",
    "street_address": "300 Rodgers Boulevard",
    "city": "Honolulu",
    "state": "HI",
    "zip_code": "96819",
    "latitude": 21.3337003,
    "longitude": -157.9240807,
    "website": null,
    "category": "Bar & Restaurant",
    "types": "bar, restaurant, food, point_of_interest, establishment"
  },
  {
    "place_id": "ChIJcw9EIKRvAHwRK4XqVNZ8OuQ",
    "name": "The Local",
    "street_address": "300 Rodgers Boulevard",
    "city": "Honolulu",
    "state": "HI",
    "zip_code": "96819",
    "latitude": 21.3313509,
    "longitude": -157.9197851,
    "website": "http://airports.hawaii.gov/hnl/shop-dine/shops-restaurants/",
    "category": "Restaurant",
    "types": "restaurant, food, point_of_interest, establishment"
  },
  {
    "place_id": "ChIJ680KPqFvAHwRdfoDbsvQfhI",
    "name": "Island Brews",
    "street_address": "300 Rodgers Boulevard",
    "city": "Honolulu",
    "state": "HI",
    "zip_code": "96819",
    "latitude": 21.3343058,
    "longitude": -157.9239861,
    "website": null,
    "category": "Bar & Restaurant",
    "types": "bar, restaurant, food, point_of_interest, establishment"
  },
  {
    "place_id": "ChIJtTkIwghuAHwRUgZh90UZaTU",
    "name": "Highway Inn Kaka'ako",
    "street_address": "680 Ala Moana Boulevard",
    "city": "Honolulu",
    "state": "HI",
    "zip_code": "96813",
    "latitude": 21.2976929,
    "longitude": -157.8614776,
    "website": "https://www.myhighwayinn.com/",
    "category": "Restaurant",
    "types": "restaurant, food, point_of_interest, establishment"
  },
  {
    "place_id": "ChIJ0dWDa-xuAHwR8T4kB1bOVx4",
    "name": "Mulligan's Bar & Grill",
    "street_address": "711 Morton Drive",
    "city": "Honolulu",
    "state": "HI",
    "zip_code": "96819",
    "latitude": 21.3486615,
    "longitude": -157.8850961,
    "website": null,
    "category": "Bar & Restaurant",
    "types": "bar, restaurant, food, point_of_interest, establishment"
  },
  {
    "place_id": "ChIJ0XvxnKNvAHwRwnh-YWvZHUI",
    "name": "Sammy's Beach Bar and Grill",
    "street_address": "304 Rodgers Boulevard",
    "city": "Honolulu",
    "state": "HI",
    "zip_code": "96819",
    "latitude": 21.3299176,
    "longitude": -157.9234542,
    "website": "https://www.sammysbeachbarandgrill.com/locations/honolulu/",
    "category": "Bar & Restaurant",
    "types": "bar, restaurant, food, point_of_interest, establishment"
  },
  {
    "place_id": "ChIJuTn5C2NuAHwRC-s53ivYI9U",
    "name": "ARISU Bar & Grill",
    "street_address": "1350 Mookaula Street",
    "city": "Honolulu",
    "state": "HI",
    "zip_code": "96817",
    "latitude": 21.3270626,
    "longitude": -157.8713684,
    "website": null,
    "category": "Bar & Restaurant",
    "types": "bar, restaurant, food, point_of_interest, establishment"
  },
  {
    "place_id": "ChIJmbYMzu5tAHwRuRa_pPjmfNw",
    "name": "Back Alley Cafe",
    "street_address": "920 Sheridan Street",
    "city": "Honolulu",
    "state": "HI",
    "zip_code": "96814",
    "latitude": 21.2981,
    "longitude": -157.8413083,
    "website": null,
    "category": "Bar & Restaurant",
    "types": "bar, restaurant, food, point_of_interest, establishment"
  },
  {
    "place_id": "ChIJ12zC_Q9tAHwRX28RXZVW0zo",
    "name": "20.Twelve Honolulu",
    "street_address": "2012 South Beretania Street",
    "city": "Honolulu",
    "state": "HI",
    "zip_code": "96826",
    "latitude": 21.2967306,
    "longitude": -157.8290621,
    "website": null,
    "category": "Bar & Restaurant",
    "types": "restaurant, bar, food, point_of_interest, establishment"
  },
  {
    "place_id": "ChIJ58xlymZtAHwRc-dijzCos-A",
    "name": "Waikiki Brewing Company - Waikiki",
    "street_address": "1945 Kal\u0101kaua Avenue",
    "city": "Honolulu",
    "state": "HI",
    "zip_code": "96815",
    "latitude": 21.2858727,
    "longitude": -157.8335814,
    "website": "https://www.waikikibrewing.com/",
    "category": "Restaurant",
    "types": "restaurant, food, point_of_interest, establishment"
  },
  {
    "place_id": "ChIJP71dO5NtAHwRDqXah4jomeE",
    "name": "Blue Ribbon Bar & Grill",
    "street_address": "1831 South King Street",
    "city": "Honolulu",
    "state": "HI",
    "zip_code": "96826",
    "latitude": 21.2951869,
    "longitude": -157.8320893,
    "website": null,
    "category": "Bar & Restaurant",
    "types": "bar, restaurant, food, point_of_interest, establishment"
  },
  {
    "place_id": "ChIJ6zOzsPZtAHwRUtumMpM0-zY",
    "name": "100 Sails Restaurant & Bar",
    "street_address": "100 Holomoana Street",
    "city": "Honolulu",
    "state": "HI",
    "zip_code": "96815",
    "latitude": 21.2861916,
    "longitude": -157.8402999,
    "website": "http://100sails.com/",
    "category": "Bar & Restaurant",
    "types": "bar, restaurant, food, point_of_interest, establishment"
  },
  {
    "place_id": "ChIJBUC3b3dyAHwRNu9h5TJugBg",
    "name": "M.A.C. 24/7 Restaurant and Bar",
    "street_address": "2500 K\u016bhi\u014d Avenue",
    "city": "Honolulu",
    "state": "HI",
    "zip_code": "96815",
    "latitude": 21.2754125,
    "longitude": -157.8221522,
    "website": "http://mac247waikiki.com/",
    "category": "Bar & Restaurant",
    "types": "bar, restaurant, food, point_of_interest, establishment"
  },
  {
    "place_id": "ChIJzcmuZPVtAHwR6hXKIQ5uLOs",
    "name": "Happy's Snack Bar",
    "street_address": "2055 K\u0101lia Road",
    "city": "Honolulu",
    "state": "HI",
    "zip_code": "96815",
    "latitude": 21.28089499999999,
    "longitude": -157.8356788,
    "website": null,
    "category": "Restaurant",
    "types": "restaurant, food, point_of_interest, establishment"
  },
  {
    "place_id": "ChIJUWG4fOltAHwRKI-YzONqFTU",
    "name": "Itchy Butt",
    "street_address": "1229 Ke\u2019eaumoku Street",
    "city": "Honolulu",
    "state": "HI",
    "zip_code": "96814",
    "latitude": 21.3009679,
    "longitude": -157.8389701,
    "website": null,
    "category": "Restaurant",
    "types": "meal_takeaway, restaurant, food, point_of_interest, establishment"
  },
  {
    "place_id": "ChIJSRWNc-NzAHwRdFM_cX_z_EU",
    "name": "Swell Restaurant and Pool Bar",
    "street_address": "2490 Kal\u0101kaua Avenue",
    "city": "Honolulu",
    "state": "HI",
    "zip_code": "96815",
    "latitude": 21.2746557,
    "longitude": -157.8232359,
    "website": "https://www.alohilaniresort.com/dining/swell-bar/",
    "category": "Bar & Restaurant",
    "types": "restaurant, night_club, bar, food, point_of_interest, establishment"
  },
  {
    "place_id": "ChIJoVPE6sVtAHwRglbxeQW4lCI",
    "name": "Off the Hook Poke Market",
    "street_address": "2908 East Manoa Road",
    "city": "Honolulu",
    "state": "HI",
    "zip_code": "96822",
    "latitude": 21.3099589,
    "longitude": -157.8102055,
    "website": "https://www.offthehookpokemarket.com/",
    "category": "Restaurant",
    "types": "meal_takeaway, restaurant, food, point_of_interest, establishment"
  },
  {
    "place_id": "ChIJfZ68LX9yAHwRTaiqGwmivjM",
    "name": "House Of Wong Restaurant",
    "street_address": "477 Kapahulu Avenue",
    "city": "Honolulu",
    "state": "HI",
    "zip_code": "96815",
    "latitude": 21.2758251,
    "longitude": -157.8150091,
    "website": "http://www.houseofwonghawaii.com/",
    "category": "Restaurant",
    "types": "restaurant, food, point_of_interest, establishment"
  },
  {
    "place_id": "ChIJHbXyn_ZtAHwR0bXObB4Tcn8",
    "name": "Chart House Waikiki",
    "street_address": "1765 Ala Moana Boulevard",
    "city": "Honolulu",
    "state": "HI",
    "zip_code": "96815",
    "latitude": 21.2852752,
    "longitude": -157.8397623,
    "website": "https://charthousewaikiki.com/?utm_source=google_profile&utm_medium=google_profile&utm_campaign=google_profile&utm_content=website",
    "category": "Bar & Restaurant",
    "types": "bar, restaurant, food, point_of_interest, establishment"
  },
  {
    "place_id": "ChIJCeuE8nxyAHwR-5hvIcOe6mQ",
    "name": "Bogart's Caf\u00e9",
    "street_address": "3045 Monsarrat Avenue",
    "city": "Honolulu",
    "state": "HI",
    "zip_code": "96815",
    "latitude": 21.268804,
    "longitude": -157.8137181,
    "website": "http://bogartscafe.com/",
    "category": "Restaurant",
    "types": "restaurant, cafe, store, food, point_of_interest, establishment"
  },
  {
    "place_id": "ChIJn0kYyHttAHwRCrQawQFljf0",
    "name": "Champs Hawaii",
    "street_address": "3457 Waialae Avenue",
    "city": "Honolulu",
    "state": "HI",
    "zip_code": "96816",
    "latitude": 21.2840226,
    "longitude": -157.8018048,
    "website": "https://www.champshawaii.com/",
    "category": "Bar & Restaurant",
    "types": "bar, restaurant, food, point_of_interest, establishment"
  },
  {
    "place_id": "ChIJYZ4srGUSAHwRrB_zomMbSF4",
    "name": "Kona Brewing Hawaii Kai",
    "street_address": "7192 Kalaniana\u02bbole Highway",
    "city": "Honolulu",
    "state": "HI",
    "zip_code": "96825",
    "latitude": 21.2780639,
    "longitude": -157.7057234,
    "website": "http://www.konabrewinghawaii.com/",
    "category": "Bar & Restaurant",
    "types": "bar, restaurant, food, point_of_interest, establishment"
  },
  {
    "place_id": "ChIJYZ4srGUSAHwRVRERhJ_y7IA",
    "name": "Loco Moco Drive Inn",
    "street_address": "7192 Kalaniana\u02bbole Highway",
    "city": "Honolulu",
    "state": "HI",
    "zip_code": "96825",
    "latitude": 21.2769394,
    "longitude": -157.7053266,
    "website": "https://www.locomocodriveinnhonolulu.com/",
    "category": "Restaurant",
    "types": "restaurant, food, point_of_interest, establishment"
  },
  {
    "place_id": "ChIJbYGGcNsUAHwRCrLb4l6OTKo",
    "name": "Kailua Town Pub and Grill",
    "street_address": "26 Hoolai Street",
    "city": "Kailua",
    "state": "HI",
    "zip_code": "96734",
    "latitude": 21.3945518,
    "longitude": -157.744477,
    "website": "http://kailuatownpub.com/",
    "category": "Bar & Restaurant",
    "types": "bar, restaurant, food, point_of_interest, establishment"
  },
  {
    "place_id": "ChIJz287d9sUAHwRNllbjvce1ro",
    "name": "Gaslamp",
    "street_address": "26 Ho'olai St",
    "city": "Kailua",
    "state": "HI",
    "zip_code": "96734",
    "latitude": 21.3946399,
    "longitude": -157.7443808,
    "website": "http://gaslamphi.com/",
    "category": "Bar & Restaurant",
    "types": "restaurant, night_club, bar, food, point_of_interest, establishment"
  },
  {
    "place_id": "ChIJhRe_X5YVAHwR5uLZM3th6I0",
    "name": "BANYANS Craft Kitchen and Lounge",
    "street_address": "32 Maluniu Avenue",
    "city": "Kailua",
    "state": "HI",
    "zip_code": "96734",
    "latitude": 21.3969826,
    "longitude": -157.7412387,
    "website": "http://banyanskailua.com/",
    "category": "Bar & Restaurant",
    "types": "restaurant, night_club, bar, food, point_of_interest, establishment"
  },
  {
    "place_id": "ChIJXyGOA9cVAHwRlYAXKo9Bgt4",
    "name": "The Boardroom",
    "street_address": "44 Kainehe Street",
    "city": "Kailua",
    "state": "HI",
    "zip_code": "96734",
    "latitude": 21.39463,
    "longitude": -157.745834,
    "website": "https://www.theboardroomkailua.com/",
    "category": "Bar & Restaurant",
    "types": "restaurant, bar, point_of_interest, food, establishment"
  },
  {
    "place_id": "ChIJZ5u9VJQVAHwR8_yvlKOR-oM",
    "name": "The Garden at Boardroom",
    "street_address": "44 Kainehe Street",
    "city": "Kailua",
    "state": "HI",
    "zip_code": "96734",
    "latitude": 21.39463,
    "longitude": -157.745834,
    "website": "https://www.instagram.com/thegarden.atboardroom/",
    "category": "Bar & Restaurant",
    "types": "cafe, bar, restaurant, food, store, point_of_interest, establishment"
  },
  {
    "place_id": "ChIJXTpJ5eMUAHwRLKpwyE1FAEk",
    "name": "K and K Bar B-Que Inn",
    "street_address": "130 Kailua Road",
    "city": "Kailua",
    "state": "HI",
    "zip_code": "96734",
    "latitude": 21.3968269,
    "longitude": -157.7311846,
    "website": "https://www.facebook.com/pages/K-and-K-Barbeque-Inn-Inc/111480558885831",
    "category": "Restaurant",
    "types": "restaurant, food, point_of_interest, establishment"
  },
  {
    "place_id": "ChIJNVJOef4VAHwRAzYUMU30eKw",
    "name": "Maui Brewing Co. Kailua",
    "street_address": "573 Kailua Road",
    "city": "Kailua",
    "state": "HI",
    "zip_code": "96734",
    "latitude": 21.393658,
    "longitude": -157.741273,
    "website": "https://www.mbcrestaurants.com/kailua/",
    "category": "Bar & Restaurant",
    "types": "restaurant, bar, food, point_of_interest, establishment"
  },
  {
    "place_id": "ChIJjbu_s9wUAHwRBHgGkjUGAJU",
    "name": "Kono's Northshore",
    "street_address": "131 Hekili Street",
    "city": "Kailua",
    "state": "HI",
    "zip_code": "96734",
    "latitude": 21.3922043,
    "longitude": -157.7426403,
    "website": "https://konosnorthshore.com/konos-northshorekailua?utm_source=google",
    "category": "Restaurant",
    "types": "restaurant, food, point_of_interest, establishment"
  },
  {
    "place_id": "ChIJB5R5vnsTAHwRXRJM0fD2IXw",
    "name": "Ohana Karaoke Grill & Bar",
    "street_address": "41-1537 Kalaniana\u02bbole Highway",
    "city": "Waimanalo",
    "state": "HI",
    "zip_code": "96795",
    "latitude": 21.3483371,
    "longitude": -157.7211456,
    "website": null,
    "category": "Bar & Restaurant",
    "types": "bar, restaurant, point_of_interest, food, establishment"
  },
  {
    "place_id": "ChIJ__8_59wUAHwRMD-kUuc35Jo",
    "name": "GOEN Dining + Bar",
    "street_address": "573 Kailua Road",
    "city": "Kailua",
    "state": "HI",
    "zip_code": "96734",
    "latitude": 21.39330349999999,
    "longitude": -157.7415153,
    "website": "https://www.royyamaguchi.com/goen-kailua",
    "category": "Restaurant",
    "types": "restaurant, food, point_of_interest, establishment"
  },
  {
    "place_id": "ChIJJYWCU1xtAHwRYy1XUYm2594",
    "name": "Vietnam Deli by The Ripple of Smiles",
    "street_address": "573 Kailua Road",
    "city": "Kailua",
    "state": "HI",
    "zip_code": "96734",
    "latitude": 21.3933961,
    "longitude": -157.741186,
    "website": "https://www.instagram.com/therippleofsmileshawaii?igsh=NmkwNGRsb2o0NHU2&utm_source=qr",
    "category": "Restaurant",
    "types": "store, restaurant, food, point_of_interest, establishment"
  },
  {
    "place_id": "ChIJ-4AXfdwUAHwR_LaVGoOOAsc",
    "name": "Over Easy",
    "street_address": "418 Kuulei Road",
    "city": "Kailua",
    "state": "HI",
    "zip_code": "96734",
    "latitude": 21.3950809,
    "longitude": -157.7431179,
    "website": "http://www.overeasyhi.com/",
    "category": "Restaurant",
    "types": "restaurant, food, point_of_interest, establishment"
  },
  {
    "place_id": "ChIJwV5OQdsUAHwRDWPAK6RigXQ",
    "name": "Kalapawai Cafe & Deli",
    "street_address": "750 Kailua Road",
    "city": "Kailua",
    "state": "HI",
    "zip_code": "96734",
    "latitude": 21.393561,
    "longitude": -157.744973,
    "website": "http://www.kalapawaimarket.com/",
    "category": "Restaurant",
    "types": "cafe, bakery, restaurant, food, point_of_interest, store, establishment"
  },
  {
    "place_id": "ChIJJweXctsUAHwRYKv9_vgRsK0",
    "name": "Timmy T's Gourmet Grinders Sandwich Shop",
    "street_address": "60 Kihapai Street",
    "city": "Kailua",
    "state": "HI",
    "zip_code": "96734",
    "latitude": 21.3949454,
    "longitude": -157.7462067,
    "website": "https://www.timmytsgourmetgrinders.com/?utm_source=google&utm_medium=gbp&utm_campaign=gpb&utm_term=kailua",
    "category": "Restaurant",
    "types": "meal_delivery, meal_takeaway, store, restaurant, food, point_of_interest, establishment"
  },
  {
    "place_id": "ChIJw1aGVtsUAHwRd_ekwGPV4-8",
    "name": "Big City Diner",
    "street_address": "108 Hekili Street",
    "city": "Kailua",
    "state": "HI",
    "zip_code": "96734",
    "latitude": 21.3925137,
    "longitude": -157.7443106,
    "website": "http://www.bigcitydinerhawaii.com/",
    "category": "Restaurant",
    "types": "restaurant, food, point_of_interest, establishment"
  },
  {
    "place_id": "ChIJ43IXOzoVAHwRzOclQzXBQMM",
    "name": "Nico's Kailua",
    "street_address": "970 North Kalaheo Avenue",
    "city": "Kailua",
    "state": "HI",
    "zip_code": "96734",
    "latitude": 21.42033799999999,
    "longitude": -157.74772,
    "website": "https://nicoskailua.com/",
    "category": "Restaurant",
    "types": "restaurant, food, point_of_interest, establishment"
  },
  {
    "place_id": "ChIJseeDytwUAHwRFE-z7S5bj4M",
    "name": "Uahi Island Grill",
    "street_address": "33 Aulike Street",
    "city": "Kailua",
    "state": "HI",
    "zip_code": "96734",
    "latitude": 21.396138,
    "longitude": -157.742975,
    "website": "http://www.uahiislandgrill.com/",
    "category": "Bar & Restaurant",
    "types": "restaurant, bar, food, point_of_interest, establishment"
  },
  {
    "place_id": "ChIJ38rSZ_xqAHwRff9smpqatQ4",
    "name": "Mo Joe's Bar & Grill",
    "street_address": "45-1034 Kamehameha Highway",
    "city": "Kaneohe",
    "state": "HI",
    "zip_code": "96744",
    "latitude": 21.4157743,
    "longitude": -157.8012685,
    "website": null,
    "category": "Bar & Restaurant",
    "types": "bar, restaurant, point_of_interest, food, establishment"
  },
  {
    "place_id": "ChIJ3UqCap9rAHwRrIUqGrt7FgM",
    "name": "East Side Bar & Grill",
    "street_address": "46-047 Kamehameha Highway",
    "city": "Kaneohe",
    "state": "HI",
    "zip_code": "96744",
    "latitude": 21.4212925,
    "longitude": -157.8024878,
    "website": "https://eastsidebarngrill.com/",
    "category": "Restaurant",
    "types": "restaurant, food, point_of_interest, establishment"
  },
  {
    "place_id": "ChIJ2VEuqVVrAHwR71aecYwyHnw",
    "name": "Caf\u00e9 Kalawe",
    "street_address": "45-270 William Henry Road",
    "city": "Kaneohe",
    "state": "HI",
    "zip_code": "96744",
    "latitude": 21.4148082,
    "longitude": -157.7996474,
    "website": "http://cafekalawe.com/",
    "category": "Restaurant",
    "types": "restaurant, food, point_of_interest, establishment"
  },
  {
    "place_id": "ChIJo8VKqPlqAHwRxP7a3GkR-L0",
    "name": "Ruby Tuesday",
    "street_address": "46-056 Kamehameha Highway",
    "city": "Kaneohe",
    "state": "HI",
    "zip_code": "96744",
    "latitude": 21.42027779999999,
    "longitude": -157.8047222,
    "website": "http://www.rubytuesdayhawaii.com/",
    "category": "Bar & Restaurant",
    "types": "bar, restaurant, food, point_of_interest, establishment"
  },
  {
    "place_id": "ChIJ3cLyFPlqAHwRztDfD6F3i_0",
    "name": "Buffalo Wild Wings",
    "street_address": "46-056 Kamehameha Highway",
    "city": "Kaneohe",
    "state": "HI",
    "zip_code": "96744",
    "latitude": 21.4200373,
    "longitude": -157.8044668,
    "website": "https://www.buffalowildwings.com/locations/us/hi/kaneohe/46-056-kamehameha-hwy,/sports-bar-1489?utm_source=google%20my%20business&utm_medium=organic&utm_campaign=website%20link",
    "category": "Bar & Restaurant",
    "types": "meal_takeaway, bar, restaurant, point_of_interest, food, establishment"
  },
  {
    "place_id": "ChIJl6ZGWwVrAHwRyBTFRTbF3so",
    "name": "Kozo Sushi",
    "street_address": "45-480 Kaneohe Bay Drive",
    "city": "Kaneohe",
    "state": "HI",
    "zip_code": "96744",
    "latitude": 21.4017952,
    "longitude": -157.7987509,
    "website": null,
    "category": "Restaurant",
    "types": "restaurant, food, point_of_interest, establishment"
  },
  {
    "place_id": "ChIJT35wqRxnAHwRk3h5BeTACrQ",
    "name": "Uncle Troy's Bar and Grill",
    "street_address": "803 Kamehameha Highway",
    "city": "Pearl City",
    "state": "HI",
    "zip_code": "96782",
    "latitude": 21.3926785,
    "longitude": -157.9678258,
    "website": "https://www.facebook.com/uncletroysbarandgrill",
    "category": "Bar & Restaurant",
    "types": "bar, restaurant, food, point_of_interest, establishment"
  },
  {
    "place_id": "ChIJSaDOMAlmAHwRuzaSE0UEMqE",
    "name": "eight50",
    "street_address": "850 Kamehameha Highway",
    "city": "Pearl City",
    "state": "HI",
    "zip_code": "96782",
    "latitude": 21.3942741,
    "longitude": -157.9675918,
    "website": "http://eight50hi.com/",
    "category": "Bar & Restaurant",
    "types": "bar, restaurant, food, point_of_interest, establishment"
  },
  {
    "place_id": "ChIJx-guUgFnAHwRjk8WneIYSQY",
    "name": "Hangry Mama Bar & Kitchen",
    "street_address": "803 Kamehameha Highway",
    "city": "Pearl City",
    "state": "HI",
    "zip_code": "96782",
    "latitude": 21.3925953,
    "longitude": -157.9678014,
    "website": "https://www.facebook.com/hangrymamabarandkitchen",
    "category": "Bar & Restaurant",
    "types": "bar, night_club, restaurant, food, point_of_interest, establishment"
  },
  {
    "place_id": "ChIJZTIrmU1vAHwR6KUG4K2C0-s",
    "name": "Big City Diner",
    "street_address": "98-211 Pali Momi Street",
    "city": "Aiea",
    "state": "HI",
    "zip_code": "96701",
    "latitude": 21.3825045,
    "longitude": -157.9389137,
    "website": "http://www.bigcitydinerhawaii.com/",
    "category": "Bar & Restaurant",
    "types": "bar, restaurant, food, point_of_interest, establishment"
  },
  {
    "place_id": "ChIJF_CLT6lvAHwR8LFXy69XG_E",
    "name": "Beer Lab Hawaii",
    "street_address": "98-1005 Moanalua Road",
    "city": "Aiea",
    "state": "HI",
    "zip_code": "96701",
    "latitude": 21.3850683,
    "longitude": -157.9410832,
    "website": "http://www.beerlabhi.com/",
    "category": "Bar & Restaurant",
    "types": "restaurant, bar, food, point_of_interest, establishment"
  },
  {
    "place_id": "ChIJ62RRaFNvAHwRpedoSmJoTsE",
    "name": "Chez Sports Bar & Grill",
    "street_address": "98-150 Kaonohi Street",
    "city": "Aiea",
    "state": "HI",
    "zip_code": "96701",
    "latitude": 21.3843724,
    "longitude": -157.9456585,
    "website": "https://www.chezsportsbarandgrill.com/",
    "category": "Bar & Restaurant",
    "types": "bar, restaurant, food, point_of_interest, establishment"
  },
  {
    "place_id": "ChIJT9NJkWFmAHwR28Aq77CsDBU",
    "name": "Nancy's Kitchen",
    "street_address": "94-1040 Waipio Uka Street",
    "city": "Waipahu",
    "state": "HI",
    "zip_code": "96797",
    "latitude": 21.4127402,
    "longitude": -157.9990194,
    "website": null,
    "category": "Bar & Restaurant",
    "types": "bar, restaurant, food, point_of_interest, establishment"
  },
  {
    "place_id": "ChIJ0YqIpwxmAHwRTmUqRvEbyQE",
    "name": "Buffalo Wild Wings",
    "street_address": "1000 Kamehameha Highway",
    "city": "Pearl City",
    "state": "HI",
    "zip_code": "96782",
    "latitude": 21.396363,
    "longitude": -157.9761642,
    "website": "https://www.buffalowildwings.com/locations/us/hi/pearl-city/1000-kamehameha-hwy/sports-bar-1351?utm_source=google%20my%20business&utm_medium=organic&utm_campaign=website%20link",
    "category": "Bar & Restaurant",
    "types": "meal_takeaway, bar, restaurant, food, point_of_interest, establishment"
  },
  {
    "place_id": "ChIJ4dq05ZdvAHwRwM3d9EAPFKg",
    "name": "KOROMO katsu & curry bistro",
    "street_address": "Moanalua Road",
    "city": "Aiea",
    "state": "HI",
    "zip_code": "96701",
    "latitude": 21.3828014,
    "longitude": -157.9401585,
    "website": "https://www.koromohawaii.com/",
    "category": "Restaurant",
    "types": "restaurant, point_of_interest, food, establishment"
  },
  {
    "place_id": "ChIJ62RRaFNvAHwRWjhuYyZ4UJ0",
    "name": "Ichiriki Aiea",
    "street_address": "98-150 Kaonohi Street",
    "city": "Aiea",
    "state": "HI",
    "zip_code": "96701",
    "latitude": 21.3845478,
    "longitude": -157.9455164,
    "website": "https://www.ichirikinabe.com/",
    "category": "Restaurant",
    "types": "restaurant, food, point_of_interest, establishment"
  },
  {
    "place_id": "ChIJJavEcwBmAHwROJrn3TfItsE",
    "name": "Gyotaku Japanese Restaurant",
    "street_address": "98-1226 Ka\u02bbahumanu Street",
    "city": "Pearl City",
    "state": "HI",
    "zip_code": "96782",
    "latitude": 21.3880323,
    "longitude": -157.9543031,
    "website": "https://www.gyotakuhawaii.com/",
    "category": "Restaurant",
    "types": "meal_takeaway, restaurant, food, point_of_interest, establishment"
  },
  {
    "place_id": "ChIJW0FORVZvAHwRC_t20k6vBGM",
    "name": "TEX 808 BBQ + Brews",
    "street_address": "930 Valkenburgh Street",
    "city": "Honolulu",
    "state": "HI",
    "zip_code": "96818",
    "latitude": 21.3442687,
    "longitude": -157.9287404,
    "website": "https://www.tex808.com/",
    "category": "Restaurant",
    "types": "restaurant, food, point_of_interest, establishment"
  },
  {
    "place_id": "ChIJtU17pwBvAHwRAlnT2C1_b-A",
    "name": "Joe's Grill Express",
    "street_address": "3131 North Nimitz Highway",
    "city": "Honolulu",
    "state": "HI",
    "zip_code": "96819",
    "latitude": 21.3357439,
    "longitude": -157.9096178,
    "website": "https://www.instagram.com/joesgrillexpress/",
    "category": "Restaurant",
    "types": "restaurant, food, point_of_interest, establishment"
  },
  {
    "place_id": "ChIJpfOaQoNvAHwRLoOcNcGsc3U",
    "name": "Tradewinds",
    "street_address": "150 McClelland Street",
    "city": "Joint Base Pearl Harbor Hickam",
    "state": "HI",
    "zip_code": "96853",
    "latitude": 21.3356056,
    "longitude": -157.9416961,
    "website": "https://jbphh.greatlifehawaii.com/dining-retail/bars-clubs/tradewinds",
    "category": "Bar & Restaurant",
    "types": "bar, restaurant, food, point_of_interest, establishment"
  },
  {
    "place_id": "ChIJR9YU2nVnAHwRc2S4nbScK0Y",
    "name": "Taps & Apps Brewpub",
    "street_address": "95-1830 Meheula Parkway",
    "city": "Mililani",
    "state": "HI",
    "zip_code": "96789",
    "latitude": 21.4670758,
    "longitude": -158.0023278,
    "website": "http://www.tapsandappsbrewpub.com/",
    "category": "Bar & Restaurant",
    "types": "night_club, bar, restaurant, food, point_of_interest, establishment"
  },
  {
    "place_id": "ChIJb5yMaH9hAHwRJf-VUJ0UaMY",
    "name": "The Turn at Stella's Restaurant and Bar",
    "street_address": "94-1211 Kunia Road",
    "city": "Wahiawa",
    "state": "HI",
    "zip_code": "96786",
    "latitude": 21.4335635,
    "longitude": -158.0568725,
    "website": null,
    "category": "Restaurant",
    "types": "restaurant, food, point_of_interest, establishment"
  },
  {
    "place_id": "ChIJhXMV5vJdAHwRYP9E8s0ghDA",
    "name": "Taqueria El Ranchero",
    "street_address": "823 California Avenue",
    "city": "Wahiawa",
    "state": "HI",
    "zip_code": "96786",
    "latitude": 21.4971101,
    "longitude": -158.0255454,
    "website": "http://www.elrancherohawaii.com/",
    "category": "Restaurant",
    "types": "restaurant, food, point_of_interest, establishment"
  },
  {
    "place_id": "ChIJy59i1g5nAHwRx6JGwPKa-hI",
    "name": "Chili's Grill & Bar",
    "street_address": "95-1249 Meheula Parkway",
    "city": "Mililani",
    "state": "HI",
    "zip_code": "96789",
    "latitude": 21.451846,
    "longitude": -158.0071755,
    "website": "https://www.chilis.com/locations/us/hawaii/mililani/mililani?utm_source=google&utm_medium=local&utm_campaign=Chilis",
    "category": "Bar & Restaurant",
    "types": "restaurant, bar, point_of_interest, food, establishment"
  },
  {
    "place_id": "ChIJqYdUNoFmAHwRzDeG-gRu0fc",
    "name": "Chili's Grill & Bar",
    "street_address": "94-797 Lumiaina Street",
    "city": "Waipahu",
    "state": "HI",
    "zip_code": "96797",
    "latitude": 21.400094,
    "longitude": -158.008162,
    "website": "https://www.chilis.com/locations/us/hawaii/waipahu-oahu?utm_source=google&utm_medium=local&utm_campaign=Chilis",
    "category": "Bar & Restaurant",
    "types": "restaurant, bar, food, point_of_interest, establishment"
  },
  {
    "place_id": "ChIJZ69k8WhlAHwRGgoYhE8G79g",
    "name": "60Fore Bar & Grill",
    "street_address": "2249 Essex Road",
    "city": "Kapolei",
    "state": "HI",
    "zip_code": "96707",
    "latitude": 21.3247574,
    "longitude": -158.0389246,
    "website": "https://www.60fore.com/",
    "category": "Restaurant",
    "types": "restaurant, food, point_of_interest, establishment"
  },
  {
    "place_id": "ChIJmUf78W9jAHwRA_wHWDT3UGc",
    "name": "Kapolei Golf Club Restaurant",
    "street_address": "91-701 Farrington Highway",
    "city": "Kapolei",
    "state": "HI",
    "zip_code": "96707",
    "latitude": 21.344544,
    "longitude": -158.0603184,
    "website": "http://www.kapoleigolf.com/",
    "category": "Restaurant",
    "types": "restaurant, point_of_interest, food, establishment"
  },
  {
    "place_id": "ChIJOxH0bt9jAHwRqfgYZL9bmVk",
    "name": "Moani Island Bistro and Bar",
    "street_address": "91-5431 Kapolei Parkway",
    "city": "Kapolei",
    "state": "HI",
    "zip_code": "96707",
    "latitude": 21.3326252,
    "longitude": -158.052525,
    "website": "https://www.moanikapolei.com/",
    "category": "Restaurant",
    "types": "restaurant, food, point_of_interest, establishment"
  },
  {
    "place_id": "ChIJcReWFfB7AHwRqxetTPfrckA",
    "name": "The LookOut Food & Drink",
    "street_address": "91-1621 Keone'ula Blvd",
    "city": "Ewa Beach",
    "state": "HI",
    "zip_code": "96706",
    "latitude": 21.3086823,
    "longitude": -158.0408272,
    "website": "https://waikai.com/",
    "category": "Restaurant",
    "types": "restaurant, food, point_of_interest, establishment"
  },
  {
    "place_id": "ChIJu6LERsBkAHwRR90giEI8YqE",
    "name": "Buffalo Wild Wings",
    "street_address": "91-1061 Keaunui Drive",
    "city": "Ewa Beach",
    "state": "HI",
    "zip_code": "96706",
    "latitude": 21.3282644,
    "longitude": -158.0205283,
    "website": "https://www.buffalowildwings.com/locations/us/hi/ewa-beach/91-1061-keaunui-dr/sports-bar-1402?utm_source=google%20my%20business&utm_medium=organic&utm_campaign=website%20link",
    "category": "Bar & Restaurant",
    "types": "meal_takeaway, bar, restaurant, food, point_of_interest, establishment"
  },
  {
    "place_id": "ChIJ4dDogD5lAHwRm9c0CrvaaNQ",
    "name": "Bird of Paradise Restaurant",
    "street_address": "Keaunui Drive",
    "city": "Ewa Beach",
    "state": "HI",
    "zip_code": "96706",
    "latitude": 21.3283002,
    "longitude": -158.0089773,
    "website": "https://www.hawaiiprincegolf.com/bird-of-paradise/",
    "category": "Restaurant",
    "types": "restaurant, food, point_of_interest, establishment"
  },
  {
    "place_id": "ChIJ0Z8Y0jxjAHwRN21r4o8bwfQ",
    "name": "West Side Bar & Grill",
    "street_address": "590 Farrington Highway",
    "city": "Kapolei",
    "state": "HI",
    "zip_code": "96707",
    "latitude": 21.3372263,
    "longitude": -158.0805839,
    "website": "http://westsidebarngrill.com/",
    "category": "Restaurant",
    "types": "restaurant, point_of_interest, food, establishment"
  },
  {
    "place_id": "ChIJ_WawoL5iAHwR3SAH0dwnMVQ",
    "name": "Waterman",
    "street_address": "92-1001 Olani Street",
    "city": "Kapolei",
    "state": "HI",
    "zip_code": "96707",
    "latitude": 21.3393597,
    "longitude": -158.1257641,
    "website": "https://www.fourseasons.com/oahu/dining/restaurants/waterman/?utm_source=google&utm_medium=organicsearch&utm_campaign=tor-oah-fab-mid-seo-na&utm_content=na-na&utm_term=na",
    "category": "Bar & Restaurant",
    "types": "bar, night_club, restaurant, food, point_of_interest, establishment"
  },
  {
    "place_id": "ChIJHwgdJLhiAHwRrbC5ZUryQ0Y",
    "name": "Longhi's Ko Olina",
    "street_address": "92-161 Waipahe Place",
    "city": "Kapolei",
    "state": "HI",
    "zip_code": "96707",
    "latitude": 21.33200069999999,
    "longitude": -158.1213869,
    "website": "http://www.longhis.com/",
    "category": "Restaurant",
    "types": "restaurant, food, point_of_interest, establishment"
  },
  {
    "place_id": "ChIJsz6km21jAHwRudxdfZR3xDM",
    "name": "808 Craft House",
    "street_address": "92-1047 Olani Street",
    "city": "Kapolei",
    "state": "HI",
    "zip_code": "96707",
    "latitude": 21.3422578,
    "longitude": -158.1240756,
    "website": "https://www.808craft.com/",
    "category": "Bar & Restaurant",
    "types": "restaurant, bar, food, point_of_interest, establishment"
  },
  {
    "place_id": "ChIJFYTc7SRjAHwRmCCZaYo0u4Q",
    "name": "PHO & Co",
    "street_address": "590 Farrington Highway",
    "city": "Kapolei",
    "state": "HI",
    "zip_code": "96707",
    "latitude": 21.3378009,
    "longitude": -158.0811308,
    "website": "http://www.phoandcompany.com/",
    "category": "Restaurant",
    "types": "restaurant, food, point_of_interest, establishment"
  }
]