[
  {
    "place_id": "ChIJaW0A7C6_QIYRd8bMr5EgMI0",
    "name": "Winnie's",
    "street_address": "3622 Main Street",
    "city": "Houston",
    "state": "TX",
    "zip_code": "77002",
    "latitude": 29.7388085,
    "longitude": -95.3795356,
    "website": "https://www.winnieshouston.com/?utm_source=gmb&utm_medium=organic",
    "category": "Bar & Restaurant",
    "types": "bar, restaurant, food, point_of_interest, establishment"
  },
  {
    "place_id": "ChIJ8b12Ex2_QIYRMTefkQiQQPk",
    "name": "Social Beer Garden HTX",
    "street_address": "3101 San Jacinto Street",
    "city": "Houston",
    "state": "TX",
    "zip_code": "77004",
    "latitude": 29.7409154,
    "longitude": -95.3746556,
    "website": "https://www.socialbeergardenhtx.com/",
    "category": "Bar & Restaurant",
    "types": "bar, restaurant, point_of_interest, food, establishment"
  },
  {
    "place_id": "ChIJj5VCGsO5QIYRgFl0OyZ2Bgk",
    "name": "Trash Panda Drinking Club",
    "street_address": "515 Patton Street",
    "city": "Houston",
    "state": "TX",
    "zip_code": "77009",
    "latitude": 29.7983638,
    "longitude": -95.3630809,
    "website": "http://trashpandahtx.com/",
    "category": "Bar & Restaurant",
    "types": "bar, restaurant, food, point_of_interest, establishment"
  },
  {
    "place_id": "ChIJnVDnNCC_QIYRBtecKlQmv70",
    "name": "Pitch 25",
    "street_address": "2120 Walker Street",
    "city": "Houston",
    "state": "TX",
    "zip_code": "77003",
    "latitude": 29.7516331,
    "longitude": -95.35463209999999,
    "website": "http://pitch25.com/",
    "category": "Bar & Restaurant",
    "types": "bar, restaurant, food, point_of_interest, establishment"
  },
  {
    "place_id": "ChIJnZ2b0Dq_QIYRD_Cn_lhWq8c",
    "name": "Flying Saucer Draught Emporium",
    "street_address": "705 Main Street",
    "city": "Houston",
    "state": "TX",
    "zip_code": "77002",
    "latitude": 29.7588934,
    "longitude": -95.3631059,
    "website": "http://www.beerknurd.com/locations/houston-flying-saucer",
    "category": "Bar & Restaurant",
    "types": "restaurant, bar, food, point_of_interest, establishment"
  },
  {
    "place_id": "ChIJ85qUDry_QIYRJxnYO-tVqOQ",
    "name": "Underground Hall",
    "street_address": "1010 Prairie Street",
    "city": "Houston",
    "state": "TX",
    "zip_code": "77002",
    "latitude": 29.7603754,
    "longitude": -95.3615923,
    "website": "http://www.undergroundhall.com/",
    "category": "Bar & Restaurant",
    "types": "bakery, bar, store, restaurant, food, point_of_interest, establishment"
  },
  {
    "place_id": "ChIJp9QUfoLAQIYRjJjGCThjXfc",
    "name": "The Patio At The Pit Room",
    "street_address": "1205 Richmond Avenue",
    "city": "Houston",
    "state": "TX",
    "zip_code": "77006",
    "latitude": 29.7341339,
    "longitude": -95.394224,
    "website": "https://thepitroombbq.com/the-patio/",
    "category": "Bar & Restaurant",
    "types": "bar, restaurant, food, point_of_interest, establishment"
  },
  {
    "place_id": "ChIJWWCbzZbAQIYR3ikAkE1IC94",
    "name": "Phoenix on Westheimer",
    "street_address": "1915 Westheimer Road",
    "city": "Houston",
    "state": "TX",
    "zip_code": "77098",
    "latitude": 29.7425755,
    "longitude": -95.4077241,
    "website": "http://www.phoenixow.com/",
    "category": "Bar & Restaurant",
    "types": "bar, restaurant, food, point_of_interest, establishment"
  },
  {
    "place_id": "ChIJUZauQSO_QIYR7iczAGkAbAg",
    "name": "MKT Bar",
    "street_address": "1001 Austin Street",
    "city": "Houston",
    "state": "TX",
    "zip_code": "77010",
    "latitude": 29.7545754,
    "longitude": -95.3613563,
    "website": "http://www.mktbar.com/",
    "category": "Bar & Restaurant",
    "types": "bar, restaurant, food, point_of_interest, establishment"
  },
  {
    "place_id": "ChIJL9NUWW6_QIYRPjl6Fjk6yzM",
    "name": "Solarium",
    "street_address": "820 Holman Street",
    "city": "Houston",
    "state": "TX",
    "zip_code": "77002",
    "latitude": 29.7402553,
    "longitude": -95.3797981,
    "website": "http://www.solariumhouston.com/",
    "category": "Bar & Restaurant",
    "types": "restaurant, bar, point_of_interest, food, establishment"
  },
  {
    "place_id": "ChIJDVq9HXO_QIYRAwpe106KY9w",
    "name": "Axelrad Beer Garden",
    "street_address": "1517 Alabama Street",
    "city": "Houston",
    "state": "TX",
    "zip_code": "77004",
    "latitude": 29.7349733,
    "longitude": -95.3747763,
    "website": "http://www.axelradhouston.com/?utm_source=local&utm_medium=organic&utm_campaign=gmb",
    "category": "Bar & Restaurant",
    "types": "bar, restaurant, food, point_of_interest, establishment"
  },
  {
    "place_id": "ChIJ_zGgJRm_QIYRRyErm6DvsDw",
    "name": "Around the Corner",
    "street_address": "1510 Hutchins Street",
    "city": "Houston",
    "state": "TX",
    "zip_code": "77003",
    "latitude": 29.74674749999999,
    "longitude": -95.3580764,
    "website": "https://www.aroundthecornerhouston.com/",
    "category": "Bar & Restaurant",
    "types": "bar, restaurant, food, point_of_interest, establishment"
  },
  {
    "place_id": "ChIJO2UE9Ki4QIYRjxtJzROLhMc",
    "name": "Onion Creek",
    "street_address": "3106 White Oak Drive",
    "city": "Houston",
    "state": "TX",
    "zip_code": "77007",
    "latitude": 29.7817991,
    "longitude": -95.39104239999999,
    "website": "https://www.onioncreekcafe.com/",
    "category": "Bar & Restaurant",
    "types": "bar, restaurant, food, point_of_interest, establishment"
  },
  {
    "place_id": "ChIJ210pNaDAQIYRscZ9a_tToyo",
    "name": "Rudyard's",
    "street_address": "2010 Waugh Drive",
    "city": "Houston",
    "state": "TX",
    "zip_code": "77006",
    "latitude": 29.7499735,
    "longitude": -95.396559,
    "website": "http://rudyardshtx.com/",
    "category": "Bar & Restaurant",
    "types": "bar, restaurant, food, point_of_interest, establishment"
  },
  {
    "place_id": "ChIJA2RiCFu-QIYRzW2WQTvZ4OA",
    "name": "The Den",
    "street_address": "4835 Calhoun Road",
    "city": "Houston",
    "state": "TX",
    "zip_code": "77004",
    "latitude": 29.71880479999999,
    "longitude": -95.33780519999999,
    "website": "https://www.uhdenbar.com/",
    "category": "Bar & Restaurant",
    "types": "bar, restaurant, food, point_of_interest, establishment"
  },
  {
    "place_id": "ChIJ5Vw3VvG_QIYRSh8pxc8UXsk",
    "name": "Saint Bernard's Pub",
    "street_address": "3907 Canal Street",
    "city": "Houston",
    "state": "TX",
    "zip_code": "77003",
    "latitude": 29.750379,
    "longitude": -95.3338838,
    "website": null,
    "category": "Bar & Restaurant",
    "types": "bar, restaurant, food, point_of_interest, establishment"
  },
  {
    "place_id": "ChIJ3_klEk2_QIYRt6sw5DosA0U",
    "name": "Sawyer Ice House",
    "street_address": "1420 Sawyer Street",
    "city": "Houston",
    "state": "TX",
    "zip_code": "77007",
    "latitude": 29.7709609,
    "longitude": -95.38256009999999,
    "website": "https://www.sawyericehouse.com/",
    "category": "Bar & Restaurant",
    "types": "bar, restaurant, point_of_interest, food, establishment"
  },
  {
    "place_id": "ChIJ5Z25ERu_QIYRjlojcnitfpA",
    "name": "Riverhouse restaurant",
    "street_address": "65 Hirsch Road",
    "city": "Houston",
    "state": "TX",
    "zip_code": "77020",
    "latitude": 29.76187869999999,
    "longitude": -95.3317199,
    "website": "https://riverhousehouston.com/",
    "category": "Bar & Restaurant",
    "types": "bar, restaurant, food, point_of_interest, establishment"
  },
  {
    "place_id": "ChIJJ3uvMq-4QIYRh9GNviXnj-s",
    "name": "Bobcat Teddy's Icehouse",
    "street_address": "2803 White Oak Drive",
    "city": "Houston",
    "state": "TX",
    "zip_code": "77007",
    "latitude": 29.78137180000001,
    "longitude": -95.3887405,
    "website": "https://bobcat-teddys-icehouse.business.site/",
    "category": "Bar & Restaurant",
    "types": "bar, restaurant, food, point_of_interest, establishment"
  },
  {
    "place_id": "ChIJ_56wQVy_QIYROUvbQxFi5X0",
    "name": "Midtown Bar & Grill",
    "street_address": "415 West Gray Street",
    "city": "Houston",
    "state": "TX",
    "zip_code": "77019",
    "latitude": 29.753179,
    "longitude": -95.387216,
    "website": "https://midtownbandg.com/",
    "category": "Restaurant",
    "types": "restaurant, food, point_of_interest, establishment"
  },
  {
    "place_id": "ChIJN4xS92LBQIYR4SQUYDckIeg",
    "name": "Velvet Oak Tavern",
    "street_address": "2221 West Alabama Street",
    "city": "Houston",
    "state": "TX",
    "zip_code": "77098",
    "latitude": 29.7383099,
    "longitude": -95.41363430000001,
    "website": "http://velvetoaktavern.com/",
    "category": "Bar & Restaurant",
    "types": "bar, restaurant, food, point_of_interest, establishment"
  },
  {
    "place_id": "ChIJ4SovtpXAQIYRDojXKe_T7qE",
    "name": "The Red Lion Houston",
    "street_address": "2316 South Shepherd Drive",
    "city": "Houston",
    "state": "TX",
    "zip_code": "77019",
    "latitude": 29.7456361,
    "longitude": -95.4110216,
    "website": "https://theredlionhouston.com/",
    "category": "Bar & Restaurant",
    "types": "bar, restaurant, food, point_of_interest, establishment"
  },
  {
    "place_id": "ChIJvU1nthzHQIYRw91N6pAzwOU",
    "name": "Highline Park",
    "street_address": "600 North Shepherd Drive",
    "city": "Houston",
    "state": "TX",
    "zip_code": "77007",
    "latitude": 29.7829998,
    "longitude": -95.40809089999999,
    "website": "https://www.highlineparkhtx.com/",
    "category": "Bar & Restaurant",
    "types": "bar, restaurant, food, point_of_interest, establishment"
  },
  {
    "place_id": "ChIJkb9IcfPAQIYRZYhbga0yxTw",
    "name": "Twin Peaks",
    "street_address": "4527 Lomitas Street",
    "city": "Houston",
    "state": "TX",
    "zip_code": "77098",
    "latitude": 29.7315509,
    "longitude": -95.4172416,
    "website": "https://twinpeaksrestaurant.com/locations/kirby-tx",
    "category": "Bar & Restaurant",
    "types": "bar, restaurant, food, point_of_interest, establishment"
  },
  {
    "place_id": "ChIJRQCg0i_HQIYRLUEDzGiOAtA",
    "name": "Down the Street",
    "street_address": "5746 Larkin Street",
    "city": "Houston",
    "state": "TX",
    "zip_code": "77007",
    "latitude": 29.7792969,
    "longitude": -95.4260876,
    "website": "http://downthestreethouston.com/",
    "category": "Bar & Restaurant",
    "types": "bar, restaurant, food, point_of_interest, establishment"
  },
  {
    "place_id": "ChIJn7YCPuDBQIYRn2_oknao7F8",
    "name": "Ducky McShweeney\u2019s Pub",
    "street_address": "2025 Post Oak Boulevard",
    "city": "Houston",
    "state": "TX",
    "zip_code": "77056",
    "latitude": 29.7452227,
    "longitude": -95.4601062,
    "website": "https://duckymcshweeneyspub.com/",
    "category": "Bar & Restaurant",
    "types": "restaurant, bar, food, point_of_interest, establishment"
  },
  {
    "place_id": "ChIJI6SQcqbAQIYRTZE-Fy5DNBw",
    "name": "Pimlico",
    "street_address": "810 Waugh Drive",
    "city": "Houston",
    "state": "TX",
    "zip_code": "77019",
    "latitude": 29.7584457,
    "longitude": -95.3985771,
    "website": "https://pubhouston.com/",
    "category": "Bar & Restaurant",
    "types": "bar, restaurant, food, point_of_interest, establishment"
  },
  {
    "place_id": "ChIJCZ-1rUzHQIYRM89Wmd8k01M",
    "name": "FM Kitchen & Bar",
    "street_address": "1112 Shepherd Drive",
    "city": "Houston",
    "state": "TX",
    "zip_code": "77007",
    "latitude": 29.7713277,
    "longitude": -95.409247,
    "website": "https://www.fmkitchenandbar.com/?y_source=1_MjM2NDM3NTktNzE1LWxvY2F0aW9uLndlYnNpdGU%3D",
    "category": "Bar & Restaurant",
    "types": "bar, restaurant, food, point_of_interest, establishment"
  },
  {
    "place_id": "ChIJGTr7BfPAQIYRrzOZiA4tzEs",
    "name": "McGonigel's Mucky Duck",
    "street_address": "2425 Norfolk Street",
    "city": "Houston",
    "state": "TX",
    "zip_code": "77098",
    "latitude": 29.732643,
    "longitude": -95.4171002,
    "website": "https://www.mcgonigels.com/",
    "category": "Bar & Restaurant",
    "types": "bar, restaurant, food, point_of_interest, establishment"
  },
  {
    "place_id": "ChIJI5avyy3HQIYRBEWWSyn-3Sk",
    "name": "Canyon Creek",
    "street_address": "6603 Westcott Street",
    "city": "Houston",
    "state": "TX",
    "zip_code": "77007",
    "latitude": 29.775005,
    "longitude": -95.4277807,
    "website": "https://www.canyoncreekcafe.com/",
    "category": "Bar & Restaurant",
    "types": "cafe, bar, restaurant, food, point_of_interest, establishment"
  },
  {
    "place_id": "ChIJ38naad_GQIYRxQwlTgqn5lo",
    "name": "Cactus Cove",
    "street_address": "3333 West 11th Street",
    "city": "Houston",
    "state": "TX",
    "zip_code": "77008",
    "latitude": 29.7888909,
    "longitude": -95.4367096,
    "website": "https://www.cactuscovehouston.com/",
    "category": "Bar & Restaurant",
    "types": "bar, restaurant, food, point_of_interest, establishment"
  },
  {
    "place_id": "ChIJT38uPg_BQIYRZpvIOg-do9I",
    "name": "Southern Yankee Crafthouse",
    "street_address": "1312 West Alabama Street",
    "city": "Houston",
    "state": "TX",
    "zip_code": "77006",
    "latitude": 29.7389636,
    "longitude": -95.3952829,
    "website": "https://www.crafthousehtx.com/",
    "category": "Bar & Restaurant",
    "types": "bar, restaurant, food, point_of_interest, establishment"
  },
  {
    "place_id": "ChIJb3UeCi-_QIYRVAs2g8y3Vfg",
    "name": "Lilly & Bloom",
    "street_address": "110 Main Street",
    "city": "Houston",
    "state": "TX",
    "zip_code": "77002",
    "latitude": 29.7635334,
    "longitude": -95.3600175,
    "website": "https://instagram.com/kingsmancirclehtx",
    "category": "Bar & Restaurant",
    "types": "bar, night_club, restaurant, food, point_of_interest, establishment"
  },
  {
    "place_id": "ChIJp-WjNPTAQIYReWfUx1VMzSY",
    "name": "On The Kirb",
    "street_address": "5004 Kirby Drive",
    "city": "Houston",
    "state": "TX",
    "zip_code": "77098",
    "latitude": 29.72754849999999,
    "longitude": -95.4191331,
    "website": "https://www.onthekirb.com/",
    "category": "Bar & Restaurant",
    "types": "bar, restaurant, food, point_of_interest, establishment"
  },
  {
    "place_id": "ChIJFxUuWFfHQIYROuX2jeQKPUE",
    "name": "Postino Heights",
    "street_address": "642 Yale Street",
    "city": "Houston",
    "state": "TX",
    "zip_code": "77007",
    "latitude": 29.7829896,
    "longitude": -95.39856449999999,
    "website": "https://www.postinowinecafe.com/locations/postino-heights",
    "category": "Bar & Restaurant",
    "types": "restaurant, bar, food, point_of_interest, establishment"
  },
  {
    "place_id": "ChIJX_V8CaXAQIYRrE3IRh2eSfQ",
    "name": "Piggy's Kitchen & Bar",
    "street_address": "3412 West Lamar Street",
    "city": "Houston",
    "state": "TX",
    "zip_code": "77019",
    "latitude": 29.7579296,
    "longitude": -95.4019988,
    "website": "https://www.piggyskitchen.com/",
    "category": "Bar & Restaurant",
    "types": "bar, restaurant, food, point_of_interest, establishment"
  },
  {
    "place_id": "ChIJC925MFfHQIYRI9-2Xgc_im8",
    "name": "Better Luck Tomorrow",
    "street_address": "544 Yale Street",
    "city": "Houston",
    "state": "TX",
    "zip_code": "77007",
    "latitude": 29.7813244,
    "longitude": -95.39857719999999,
    "website": "http://betterlucktomorrowhou.com/",
    "category": "Bar & Restaurant",
    "types": "bar, restaurant, food, point_of_interest, establishment"
  },
  {
    "place_id": "ChIJs1xxRSW_QIYRvgzsZIJbctw",
    "name": "The Moonshiners Southern Table + Bar",
    "street_address": "1000 Prairie Street",
    "city": "Houston",
    "state": "TX",
    "zip_code": "77002",
    "latitude": 29.7605011,
    "longitude": -95.3618188,
    "website": "http://www.themoonshinershouston.com/",
    "category": "Bar & Restaurant",
    "types": "bar, restaurant, food, point_of_interest, establishment"
  },
  {
    "place_id": "ChIJTTa8mme_QIYR1A4t9h5_n7I",
    "name": "Cuchara",
    "street_address": "214 Fairview Street",
    "city": "Houston",
    "state": "TX",
    "zip_code": "77006",
    "latitude": 29.7484777,
    "longitude": -95.3854167,
    "website": "http://www.cuchararestaurant.com/",
    "category": "Bar & Restaurant",
    "types": "bar, restaurant, food, point_of_interest, establishment"
  },
  {
    "place_id": "ChIJg6bIbzy_QIYRl1m1Wy1rPkM",
    "name": "McCormick & Schmick's Seafood & Steaks",
    "street_address": "1201 Fannin Street",
    "city": "Houston",
    "state": "TX",
    "zip_code": "77002",
    "latitude": 29.7546086,
    "longitude": -95.3651814,
    "website": "https://www.mccormickandschmicks.com/location/mccormick-schmicks-downtown-houston/",
    "category": "Bar & Restaurant",
    "types": "restaurant, meal_takeaway, bar, food, point_of_interest, establishment"
  },
  {
    "place_id": "ChIJW5tVh2fAQIYRuMHPnDF7_NI",
    "name": "Little Woodrow's Rice Village",
    "street_address": "5611 Morningside Drive",
    "city": "Houston",
    "state": "TX",
    "zip_code": "77005",
    "latitude": 29.7157171,
    "longitude": -95.41459329999999,
    "website": "https://littlewoodrows.com/locations/rice-village/",
    "category": "Bar & Restaurant",
    "types": "bar, restaurant, food, point_of_interest, establishment"
  },
  {
    "place_id": "ChIJeXAOyzy_QIYRpeBCXW_Vzdw",
    "name": "Bayou & Bottle",
    "street_address": "1300 Lamar Street",
    "city": "Houston",
    "state": "TX",
    "zip_code": "77010",
    "latitude": 29.7539137,
    "longitude": -95.3632445,
    "website": "https://www.bayouandbottle.com/?utm_source=google&utm_medium=organicsearch&utm_campaign=tor-hfs-fab-mid-seo-na&utm_content=na-na&utm_term=na",
    "category": "Bar & Restaurant",
    "types": "bar, cafe, restaurant, food, point_of_interest, store, establishment"
  },
  {
    "place_id": "ChIJTeRJv4G_QIYR-AWswId7qlA",
    "name": "Monarch",
    "street_address": "5701 Main Street",
    "city": "Houston",
    "state": "TX",
    "zip_code": "77005",
    "latitude": 29.7245993,
    "longitude": -95.3901582,
    "website": "https://www.hotelzaza.com/houston-museum-district/dining/monarch",
    "category": "Bar & Restaurant",
    "types": "bar, restaurant, food, point_of_interest, establishment"
  },
  {
    "place_id": "ChIJ0zue6qbAQIYRAYpEx01Bb-E",
    "name": "Johnny McElroys",
    "street_address": "1223 Waugh Drive",
    "city": "Houston",
    "state": "TX",
    "zip_code": "77019",
    "latitude": 29.755796,
    "longitude": -95.3977987,
    "website": "http://www.johnnymcelroys.com/",
    "category": "Bar & Restaurant",
    "types": "bar, restaurant, food, point_of_interest, establishment"
  },
  {
    "place_id": "ChIJs9oVGK-4QIYRT6gl89HepL4",
    "name": "Little Woodrow's Heights",
    "street_address": "2631 White Oak Drive",
    "city": "Houston",
    "state": "TX",
    "zip_code": "77009",
    "latitude": 29.7814053,
    "longitude": -95.38729529999999,
    "website": "https://littlewoodrows.com/locations/heights/",
    "category": "Bar & Restaurant",
    "types": "bar, restaurant, food, point_of_interest, establishment"
  },
  {
    "place_id": "ChIJRyX63UG_QIYRBqWqUtl5rZU",
    "name": "Little Woodrow's Midtown",
    "street_address": "2306 Brazos Street",
    "city": "Houston",
    "state": "TX",
    "zip_code": "77006",
    "latitude": 29.7497448,
    "longitude": -95.3772901,
    "website": "https://littlewoodrows.com/locations/midtown/",
    "category": "Bar & Restaurant",
    "types": "bar, restaurant, food, point_of_interest, establishment"
  },
  {
    "place_id": "ChIJ3bwxJl7AQIYRMSQRLqF_0C0",
    "name": "Brasil",
    "street_address": "2604 Dunlavy Street",
    "city": "Houston",
    "state": "TX",
    "zip_code": "77006",
    "latitude": 29.7426451,
    "longitude": -95.40225860000001,
    "website": "http://www.brasilcafehouston.com/",
    "category": "Bar & Restaurant",
    "types": "cafe, bar, restaurant, food, point_of_interest, establishment"
  },
  {
    "place_id": "ChIJG6jxKUzBQIYR6JKYQo4G84c",
    "name": "Mr. Washington",
    "street_address": "4901 Washington Avenue",
    "city": "Houston",
    "state": "TX",
    "zip_code": "77007",
    "latitude": 29.7702213,
    "longitude": -95.4108443,
    "website": null,
    "category": "Bar & Restaurant",
    "types": "night_club, bar, restaurant, food, point_of_interest, establishment"
  },
  {
    "place_id": "ChIJHQUiXa3AQIYR9jeqd_QWTww",
    "name": "Ninja Ramen",
    "street_address": "4219 Washington Avenue",
    "city": "Houston",
    "state": "TX",
    "zip_code": "77007",
    "latitude": 29.77010019999999,
    "longitude": -95.4038707,
    "website": "http://www.ninjaramen.com/",
    "category": "Bar & Restaurant",
    "types": "bar, restaurant, food, point_of_interest, establishment"
  },
  {
    "place_id": "ChIJ0_nCSxO_QIYR7iWlLvf4844",
    "name": "Weights + Measures",
    "street_address": "2808 Caroline Street",
    "city": "Houston",
    "state": "TX",
    "zip_code": "77004",
    "latitude": 29.7426757,
    "longitude": -95.3726154,
    "website": "https://weights-measures.com/",
    "category": "Bar & Restaurant",
    "types": "bar, restaurant, food, point_of_interest, establishment"
  },
  {
    "place_id": "ChIJNeE4ZpPHQIYRfYZYcO8XWIE",
    "name": "The Upside Pub",
    "street_address": "3402 North Shepherd Drive",
    "city": "Houston",
    "state": "TX",
    "zip_code": "77018",
    "latitude": 29.8175847,
    "longitude": -95.4098372,
    "website": "http://www.upsidepub.com/",
    "category": "Bar & Restaurant",
    "types": "bar, restaurant, food, point_of_interest, establishment"
  },
  {
    "place_id": "ChIJAcs08hzHQIYRLIEsrEOC5O8",
    "name": "T-Bones Sports Pub",
    "street_address": "1971 West T C Jester Boulevard",
    "city": "Houston",
    "state": "TX",
    "zip_code": "77008",
    "latitude": 29.802534,
    "longitude": -95.43214139999999,
    "website": "https://www.facebook.com/TBONES-SPORTS-PUB-186742067779/",
    "category": "Bar & Restaurant",
    "types": "bar, night_club, restaurant, food, point_of_interest, establishment"
  },
  {
    "place_id": "ChIJC91_RRLHQIYRoXAB7CsdNOA",
    "name": "Bungalow Heights",
    "street_address": "1919 Beall Street",
    "city": "Houston",
    "state": "TX",
    "zip_code": "77008",
    "latitude": 29.8029798,
    "longitude": -95.41832439999999,
    "website": "https://bungalowheights.com/",
    "category": "Bar & Restaurant",
    "types": "bar, restaurant, food, point_of_interest, establishment"
  },
  {
    "place_id": "ChIJBSsqF0y_QIYRjV5JHLPHIs0",
    "name": "Henderson Heights",
    "street_address": "908 Henderson Street",
    "city": "Houston",
    "state": "TX",
    "zip_code": "77007",
    "latitude": 29.7675315,
    "longitude": -95.37921709999999,
    "website": "https://www.hendoshtx.com/",
    "category": "Bar & Restaurant",
    "types": "bar, restaurant, food, point_of_interest, establishment"
  },
  {
    "place_id": "ChIJ32hjHZHHQIYR6QFVo1Ue3CI",
    "name": "Heights & Co.",
    "street_address": "1343 Yale Street",
    "city": "Houston",
    "state": "TX",
    "zip_code": "77008",
    "latitude": 29.7960636,
    "longitude": -95.3992344,
    "website": "http://www.heightsandco.com/",
    "category": "Bar & Restaurant",
    "types": "bar, restaurant, food, point_of_interest, establishment"
  },
  {
    "place_id": "ChIJH2lpsvHHQIYRRT3XI8EFjKE",
    "name": "Shady Acres Saloon",
    "street_address": "1115 West 19th Street",
    "city": "Houston",
    "state": "TX",
    "zip_code": "77008",
    "latitude": 29.8028843,
    "longitude": -95.41874399999999,
    "website": "http://shadyacressaloon.com/",
    "category": "Bar & Restaurant",
    "types": "bar, restaurant, food, point_of_interest, establishment"
  },
  {
    "place_id": "ChIJt3nonWe_QIYRqe-SjPkbxgo",
    "name": "Boheme",
    "street_address": "307 Fairview Street",
    "city": "Houston",
    "state": "TX",
    "zip_code": "77006",
    "latitude": 29.7479948,
    "longitude": -95.38606180000001,
    "website": "https://www.barboheme.com/?utm_source=local&utm_medium=organic&utm_campaign=gmb",
    "category": "Bar & Restaurant",
    "types": "bar, night_club, restaurant, food, point_of_interest, establishment"
  },
  {
    "place_id": "ChIJnZloaR-_QIYRhAfg-qYr9HI",
    "name": "8th Wonder Brewery + Cannabis",
    "street_address": "2202 Dallas Street",
    "city": "Houston",
    "state": "TX",
    "zip_code": "77003",
    "latitude": 29.7485989,
    "longitude": -95.356127,
    "website": "http://8thwonder.com/",
    "category": "Bar & Restaurant",
    "types": "bar, store, restaurant, food, point_of_interest, establishment"
  },
  {
    "place_id": "ChIJibOgL8O-QIYRf_jeTuo2DlM",
    "name": "Moon Tower Inn",
    "street_address": "3004 Canal Street",
    "city": "Houston",
    "state": "TX",
    "zip_code": "77003",
    "latitude": 29.7543037,
    "longitude": -95.34093449999999,
    "website": "http://www.moontowerinn.com/",
    "category": "Bar & Restaurant",
    "types": "liquor_store, bar, store, restaurant, food, point_of_interest, establishment"
  },
  {
    "place_id": "ChIJnx9AlPy_QIYRKzh-nNJnzPs",
    "name": "Neighbors",
    "street_address": "3401 Harrisburg Boulevard",
    "city": "Houston",
    "state": "TX",
    "zip_code": "77003",
    "latitude": 29.7483538,
    "longitude": -95.3410088,
    "website": "http://www.neighborspizzabar.com/",
    "category": "Bar & Restaurant",
    "types": "bar, cafe, meal_takeaway, store, restaurant, food, point_of_interest, establishment"
  },
  {
    "place_id": "ChIJJzcxOI6_QIYRJyKB7kZqNi0",
    "name": "Eight Row Flint East End",
    "street_address": "3501 Harrisburg Boulevard",
    "city": "Houston",
    "state": "TX",
    "zip_code": "77003",
    "latitude": 29.7478684,
    "longitude": -95.3401135,
    "website": "https://www.agricolehospitality.com/eight-row-flint-east",
    "category": "Bar & Restaurant",
    "types": "bar, restaurant, food, point_of_interest, establishment"
  },
  {
    "place_id": "ChIJvWr52iO_QIYRmaCfxN6IeyA",
    "name": "Biggio's",
    "street_address": "1777 Walker Street",
    "city": "Houston",
    "state": "TX",
    "zip_code": "77010",
    "latitude": 29.75405149999999,
    "longitude": -95.3578421,
    "website": "https://www.biggioshouston.com/",
    "category": "Bar & Restaurant",
    "types": "bar, restaurant, food, point_of_interest, establishment"
  },
  {
    "place_id": "ChIJj0IgVgDBQIYRIR6bDY6DN0o",
    "name": "Beer and Grill",
    "street_address": "2712 Richmond Avenue",
    "city": "Houston",
    "state": "TX",
    "zip_code": "77098",
    "latitude": 29.7342633,
    "longitude": -95.42055789999999,
    "website": "http://www.beerandgrillusa.com/",
    "category": "Bar & Restaurant",
    "types": "bar, restaurant, food, point_of_interest, establishment"
  },
  {
    "place_id": "ChIJCQqZlrTAQIYRoIlgDGLrDBs",
    "name": "Fuego's",
    "street_address": "817 Durham Drive",
    "city": "Houston",
    "state": "TX",
    "zip_code": "77007",
    "latitude": 29.769412,
    "longitude": -95.4109567,
    "website": "http://instagram.com/fuegos.htx",
    "category": "Bar & Restaurant",
    "types": "bar, restaurant, food, point_of_interest, establishment"
  },
  {
    "place_id": "ChIJ-7QcTNvBQIYRHOgU2_polx0",
    "name": "Texas Taphouse",
    "street_address": "3055 Sage Road",
    "city": "Houston",
    "state": "TX",
    "zip_code": "77056",
    "latitude": 29.73513999999999,
    "longitude": -95.466155,
    "website": "http://txtaphouse.com/",
    "category": "Bar & Restaurant",
    "types": "bar, restaurant, food, point_of_interest, establishment"
  },
  {
    "place_id": "ChIJdVfqu2LBQIYRCK0xOYJeG1w",
    "name": "Jake's Sports Bar",
    "street_address": "2944 Chimney Rock Road",
    "city": "Houston",
    "state": "TX",
    "zip_code": "77056",
    "latitude": 29.7347621,
    "longitude": -95.4770084,
    "website": "https://jakessportsbar.com/",
    "category": "Bar & Restaurant",
    "types": "bar, restaurant, food, point_of_interest, establishment"
  },
  {
    "place_id": "ChIJ2ZSKMq_DQIYRHgg_UQu93SY",
    "name": "The Hideaway On Dunvale",
    "street_address": "3122 Dunvale Road",
    "city": "Houston",
    "state": "TX",
    "zip_code": "77063",
    "latitude": 29.7300919,
    "longitude": -95.51446519999999,
    "website": "https://hideaway-texas.com/",
    "category": "Bar & Restaurant",
    "types": "bar, restaurant, point_of_interest, food, establishment"
  },
  {
    "place_id": "ChIJO-1Z97nBQIYRqg_fbBUadI8",
    "name": "Little Woodrow's Bellaire",
    "street_address": "4235 Bellaire Boulevard",
    "city": "Houston",
    "state": "TX",
    "zip_code": "77025",
    "latitude": 29.705629,
    "longitude": -95.446984,
    "website": "https://littlewoodrows.com/locations/bellaire/",
    "category": "Bar & Restaurant",
    "types": "bar, restaurant, food, point_of_interest, establishment"
  },
  {
    "place_id": "ChIJa9mg9hbCQIYR0MNg4XeD6co",
    "name": "Bongo's Sports Bar & Cafe",
    "street_address": "6253 Bissonnet Street",
    "city": "Houston",
    "state": "TX",
    "zip_code": "77081",
    "latitude": 29.69472219999999,
    "longitude": -95.4919444,
    "website": null,
    "category": "Bar & Restaurant",
    "types": "bar, restaurant, food, point_of_interest, establishment"
  },
  {
    "place_id": "ChIJ05WyCmrBQIYR2s2XNrj9rLQ",
    "name": "Loch Bar",
    "street_address": "4444 Westheimer Road",
    "city": "Houston",
    "state": "TX",
    "zip_code": "77027",
    "latitude": 29.741657,
    "longitude": -95.45285249999999,
    "website": "https://lochbar.com/houston/",
    "category": "Bar & Restaurant",
    "types": "bar, restaurant, food, point_of_interest, establishment"
  },
  {
    "place_id": "ChIJ48I5hnvBQIYRNdjz219pjUI",
    "name": "JOEY Uptown",
    "street_address": "5045 Westheimer Road",
    "city": "Houston",
    "state": "TX",
    "zip_code": "77056",
    "latitude": 29.740299,
    "longitude": -95.46291629999999,
    "website": "https://joeyrestaurants.com/location/joey-uptown",
    "category": "Bar & Restaurant",
    "types": "restaurant, bar, food, point_of_interest, establishment"
  },
  {
    "place_id": "ChIJQ4ZIk9DDQIYReNdPQTnUQmk",
    "name": "Prospect Park",
    "street_address": "3100 Fountain View Drive",
    "city": "Houston",
    "state": "TX",
    "zip_code": "77057",
    "latitude": 29.7327432,
    "longitude": -95.484645,
    "website": "https://www.prospectparkrestaurants.com/",
    "category": "Bar & Restaurant",
    "types": "night_club, bar, restaurant, food, point_of_interest, establishment"
  },
  {
    "place_id": "ChIJa6cIJU3bQIYR2Qweu_MwgRs",
    "name": "Yard House",
    "street_address": "800 Sorella Court",
    "city": "Houston",
    "state": "TX",
    "zip_code": "77024",
    "latitude": 29.77999,
    "longitude": -95.56125,
    "website": "https://www.yardhouse.com/locations/tx/houston/houston-citycentre/8325?cmpid=br:yh_ag:ie_ch:loc_ca:YHGMB_sn:gmb_gt:houston-tx-8325_pl:locurl_rd:1023",
    "category": "Bar & Restaurant",
    "types": "meal_takeaway, bar, restaurant, food, point_of_interest, establishment"
  },
  {
    "place_id": "ChIJS2m-W-DbQIYRwpwJ6weMjwA",
    "name": "Watson's House of Ales",
    "street_address": "14656 Grisby Road",
    "city": "Houston",
    "state": "TX",
    "zip_code": "77079",
    "latitude": 29.7827699,
    "longitude": -95.6434556,
    "website": "https://www.watsonshouseofales.com/",
    "category": "Bar & Restaurant",
    "types": "bar, restaurant, food, point_of_interest, establishment"
  },
  {
    "place_id": "ChIJ5et6-VfbQIYR9wE5EzLbKkg",
    "name": "Monarch Bar and Lounge",
    "street_address": "14129 Memorial Drive",
    "city": "Houston",
    "state": "TX",
    "zip_code": "77079",
    "latitude": 29.7694713,
    "longitude": -95.5927055,
    "website": "http://4monarch.com/",
    "category": "Bar & Restaurant",
    "types": "bar, restaurant, food, point_of_interest, establishment"
  },
  {
    "place_id": "ChIJh9RgliPbQIYRMGrrDsjBn4Y",
    "name": "Finn MacCool\u2019s Irish Bar",
    "street_address": "1127 Eldridge Parkway",
    "city": "Houston",
    "state": "TX",
    "zip_code": "77077",
    "latitude": 29.7672408,
    "longitude": -95.6230424,
    "website": "https://finnmaccoolshtx.com/",
    "category": "Bar & Restaurant",
    "types": "bar, restaurant, food, point_of_interest, establishment"
  },
  {
    "place_id": "ChIJZdiRG5bbQIYRAtX5F-n_vRE",
    "name": "Nikki's Irish Pub",
    "street_address": "10885 Katy Freeway",
    "city": "Houston",
    "state": "TX",
    "zip_code": "77079",
    "latitude": 29.7836743,
    "longitude": -95.5693951,
    "website": null,
    "category": "Bar & Restaurant",
    "types": "bar, restaurant, food, point_of_interest, establishment"
  },
  {
    "place_id": "ChIJLaLZFcbcQIYRWV64L1zBeQw",
    "name": "Molly's Pub",
    "street_address": "11128 Westheimer Road",
    "city": "Houston",
    "state": "TX",
    "zip_code": "77042",
    "latitude": 29.7376257,
    "longitude": -95.5729825,
    "website": null,
    "category": "Bar & Restaurant",
    "types": "bar, restaurant, food, point_of_interest, establishment"
  },
  {
    "place_id": "ChIJzR_gfmHcQIYRkL5ecyYnvyo",
    "name": "Mr. C's Irish Pub",
    "street_address": "1570 South Dairy Ashford Road",
    "city": "Houston",
    "state": "TX",
    "zip_code": "77077",
    "latitude": 29.7521035,
    "longitude": -95.6066707,
    "website": "http://www.mrcsirishpub.com/",
    "category": "Bar & Restaurant",
    "types": "bar, restaurant, food, point_of_interest, establishment"
  },
  {
    "place_id": "ChIJWZVjTOzcQIYRwKSZNF3UvYQ",
    "name": "Bull and Bear Tavr'n & Table",
    "street_address": "11980 Westheimer Road",
    "city": "Houston",
    "state": "TX",
    "zip_code": "77077",
    "latitude": 29.7377048,
    "longitude": -95.5913617,
    "website": "https://thebullandbear-houston.com/",
    "category": "Bar & Restaurant",
    "types": "restaurant, bar, food, point_of_interest, establishment"
  },
  {
    "place_id": "ChIJix-icu_cQIYRJZEwo8pszYs",
    "name": "Packard's Pub",
    "street_address": "12001 Richmond Avenue",
    "city": "Houston",
    "state": "TX",
    "zip_code": "77082",
    "latitude": 29.7305322,
    "longitude": -95.5900461,
    "website": "https://www.facebook.com/PackardsPub/",
    "category": "Bar & Restaurant",
    "types": "bar, restaurant, food, point_of_interest, establishment"
  },
  {
    "place_id": "ChIJcRecvZbcQIYRAPB16cUMTm8",
    "name": "Three Sheets Bar & Grill",
    "street_address": "1900 South Kirkwood Road",
    "city": "Houston",
    "state": "TX",
    "zip_code": "77077",
    "latitude": 29.74703089999999,
    "longitude": -95.5873067,
    "website": "https://www.facebook.com/3SheetsBarHouston/",
    "category": "Bar & Restaurant",
    "types": "night_club, bar, restaurant, point_of_interest, food, establishment"
  },
  {
    "place_id": "ChIJ93cBWxnbQIYRUbpuqpgm8JM",
    "name": "Blue Agave Cantina",
    "street_address": "14555 Grisby Road",
    "city": "Houston",
    "state": "TX",
    "zip_code": "77079",
    "latitude": 29.7822849,
    "longitude": -95.64259949999999,
    "website": "https://blueagavehouston.com/",
    "category": "Bar & Restaurant",
    "types": "bar, restaurant, food, point_of_interest, establishment"
  },
  {
    "place_id": "ChIJy2pn00zbQIYRggBKRcw7s5A",
    "name": "The General Public",
    "street_address": "797 Sorella Court",
    "city": "Houston",
    "state": "TX",
    "zip_code": "77024",
    "latitude": 29.7787886,
    "longitude": -95.56182489999999,
    "website": "https://thegenpublic.com/",
    "category": "Restaurant",
    "types": "restaurant, point_of_interest, food, establishment"
  },
  {
    "place_id": "ChIJVw8UemrbQIYR8pnpfqG1MlI",
    "name": "Twin Peaks",
    "street_address": "11335 Katy Freeway",
    "city": "Houston",
    "state": "TX",
    "zip_code": "77079",
    "latitude": 29.7836882,
    "longitude": -95.583034,
    "website": "https://twinpeaksrestaurant.com/locations/i-10-kirkwood-tx",
    "category": "Bar & Restaurant",
    "types": "bar, restaurant, food, point_of_interest, establishment"
  },
  {
    "place_id": "ChIJnZNCaKLdQIYRzcNgG5zlpT4",
    "name": "The Fox Trap Restaurant & Lounge",
    "street_address": "11470 Westheimer Road",
    "city": "Houston",
    "state": "TX",
    "zip_code": "77077",
    "latitude": 29.737168,
    "longitude": -95.5792046,
    "website": "http://thefoxtrap.com/",
    "category": "Restaurant",
    "types": "restaurant, food, point_of_interest, establishment"
  },
  {
    "place_id": "ChIJnyPDpN_bQIYR34jdicnu9Eo",
    "name": "Christian's Tailgate Bar & Grill",
    "street_address": "1010 Highway 6",
    "city": "Houston",
    "state": "TX",
    "zip_code": "77079",
    "latitude": 29.7867182,
    "longitude": -95.6440868,
    "website": "http://www.christianstailgate.com/",
    "category": "Bar & Restaurant",
    "types": "night_club, bar, restaurant, food, point_of_interest, establishment"
  },
  {
    "place_id": "ChIJ4WtrWGTbQIYRI6qnhBDLE0Q",
    "name": "Urban American Kitchen",
    "street_address": "14008 Memorial Drive",
    "city": "Houston",
    "state": "TX",
    "zip_code": "77079",
    "latitude": 29.7714812,
    "longitude": -95.59081060000001,
    "website": "http://www.urbanamericankitchen.com/",
    "category": "Restaurant",
    "types": "restaurant, food, point_of_interest, establishment"
  },
  {
    "place_id": "ChIJiarfyevcQIYRy5-NG7rl6b4",
    "name": "Buffalo Wild Wings",
    "street_address": "11803 Westheimer Road",
    "city": "Houston",
    "state": "TX",
    "zip_code": "77077",
    "latitude": 29.7351559,
    "longitude": -95.58521429999999,
    "website": "https://www.buffalowildwings.com/locations/us/tx/houston/11803-westheimer/sports-bar-906?utm_source=google%20my%20business&utm_medium=organic&utm_campaign=website%20link",
    "category": "Bar & Restaurant",
    "types": "meal_takeaway, bar, restaurant, food, point_of_interest, establishment"
  },
  {
    "place_id": "ChIJZR7xulTFQIYRPkogWPRhQ6Q",
    "name": "Postino Town & Country",
    "street_address": "791 Town and Country Boulevard",
    "city": "Houston",
    "state": "TX",
    "zip_code": "77024",
    "latitude": 29.7779024,
    "longitude": -95.5610111,
    "website": "https://www.postinowinecafe.com/locations/postino-town-and-country",
    "category": "Bar & Restaurant",
    "types": "restaurant, bar, food, point_of_interest, establishment"
  },
  {
    "place_id": "ChIJq-t2u6QhQYYRBcrWo8h2_G8",
    "name": "Bar Louie - Katy",
    "street_address": "2707 Commercial Center Boulevard",
    "city": "Katy",
    "state": "TX",
    "zip_code": "77494",
    "latitude": 29.7397373,
    "longitude": -95.77411629999999,
    "website": "https://www.barlouie.com/locations/us/tx/katy/katy?utm_source=google&utm_medium=gmb&utm_campaign=listings",
    "category": "Bar & Restaurant",
    "types": "night_club, bar, restaurant, point_of_interest, food, establishment"
  },
  {
    "place_id": "ChIJ_8UpGt0gQYYRpyp3IMP2A6k",
    "name": "The Local Bar Katy",
    "street_address": "24033 Cinco Ranch Boulevard",
    "city": "Katy",
    "state": "TX",
    "zip_code": "77494",
    "latitude": 29.7398819,
    "longitude": -95.7800658,
    "website": null,
    "category": "Bar & Restaurant",
    "types": "bar, restaurant, food, point_of_interest, establishment"
  },
  {
    "place_id": "ChIJk3sFX7YhQYYR90xLcWYlmww",
    "name": "Beer and Grill",
    "street_address": "25810 Westheimer Parkway",
    "city": "Katy",
    "state": "TX",
    "zip_code": "77494",
    "latitude": 29.75174659999999,
    "longitude": -95.79950160000001,
    "website": "http://beerandgrillusa.com/",
    "category": "Bar & Restaurant",
    "types": "bar, restaurant, food, point_of_interest, establishment"
  },
  {
    "place_id": "ChIJI0rInkwlQYYRH9Z_7eZpLk0",
    "name": "Scholars and Scoundrels",
    "street_address": "25140 Kingsland Boulevard",
    "city": "Katy",
    "state": "TX",
    "zip_code": "77494",
    "latitude": 29.7725516,
    "longitude": -95.8061608,
    "website": "https://www.scholarsandscoundrelsbarandgrill.com/",
    "category": "Bar & Restaurant",
    "types": "bar, restaurant, food, point_of_interest, establishment"
  },
  {
    "place_id": "ChIJGwmQd3EkQYYRLRnmxIT-IJw",
    "name": "The Social Pub & Grill",
    "street_address": "1721 Spring Green Boulevard",
    "city": "Katy",
    "state": "TX",
    "zip_code": "77494",
    "latitude": 29.7613589,
    "longitude": -95.84136269999999,
    "website": "https://socialpubkaty.com/",
    "category": "Bar & Restaurant",
    "types": "bar, restaurant, food, point_of_interest, establishment"
  },
  {
    "place_id": "ChIJldibhprYQIYRvwZUS7ZsKu0",
    "name": "Texas Borders Bar & Grill",
    "street_address": "1251 Pin Oak Road",
    "city": "Katy",
    "state": "TX",
    "zip_code": "77494",
    "latitude": 29.7732065,
    "longitude": -95.81695460000002,
    "website": "https://www.bordersbarandgrillkatytx.com/",
    "category": "Bar & Restaurant",
    "types": "bar, restaurant, food, point_of_interest, establishment"
  },
  {
    "place_id": "ChIJo9yqchwnQYYR_GY_uPPfWHk",
    "name": "Walk-On's Sports Bistreaux - Katy Restaurant",
    "street_address": "23213 Grand Circle Boulevard",
    "city": "Katy",
    "state": "TX",
    "zip_code": "77449",
    "latitude": 29.7868662,
    "longitude": -95.7733148,
    "website": "https://locate.walk-ons.com/tx/katy/restaurants-424.html",
    "category": "Bar & Restaurant",
    "types": "restaurant, bar, food, point_of_interest, establishment"
  },
  {
    "place_id": "ChIJTaSvdG4kQYYRNtlb07BKbhI",
    "name": "Crafted Kitchen and Taps",
    "street_address": "1443 Farm to Market 1463",
    "city": "Katy",
    "state": "TX",
    "zip_code": "77494",
    "latitude": 29.7652985,
    "longitude": -95.8405619,
    "website": "http://craftedkt.com/",
    "category": "Bar & Restaurant",
    "types": "liquor_store, bar, store, restaurant, food, point_of_interest, establishment"
  },
  {
    "place_id": "ChIJPbZpk8ghQYYRBHBY1R3cIls",
    "name": "Midpoint Bar and Eatery",
    "street_address": "25600 Westheimer Parkway",
    "city": "Katy",
    "state": "TX",
    "zip_code": "77494",
    "latitude": 29.7510025,
    "longitude": -95.7980238,
    "website": "https://midpointbartx.com/",
    "category": "Bar & Restaurant",
    "types": "bar, restaurant, food, point_of_interest, establishment"
  },
  {
    "place_id": "ChIJxzNTVHAlQYYRX2QKCbVvOco",
    "name": "Southland Bar & Grill",
    "street_address": "5990 Stockdick Road",
    "city": "Katy",
    "state": "TX",
    "zip_code": "77494",
    "latitude": 29.7794458,
    "longitude": -95.8253582,
    "website": "https://www.southlandbg.com/",
    "category": "Bar & Restaurant",
    "types": "bar, restaurant, point_of_interest, food, establishment"
  },
  {
    "place_id": "ChIJCR3zDHohQYYRDS1KuZnOywY",
    "name": "Postino Cinco Ranch",
    "street_address": "23501 Cinco Ranch Boulevard",
    "city": "Katy",
    "state": "TX",
    "zip_code": "77494",
    "latitude": 29.7424509,
    "longitude": -95.7755514,
    "website": "https://www.postinowinecafe.com/locations/postino-cinco-ranch",
    "category": "Bar & Restaurant",
    "types": "restaurant, bar, food, point_of_interest, establishment"
  },
  {
    "place_id": "ChIJVSpOl-YmQYYR08WtCC8mgVY",
    "name": "Mo's Irish Pub",
    "street_address": "23511 Katy Freeway",
    "city": "Katy",
    "state": "TX",
    "zip_code": "77494",
    "latitude": 29.7836474,
    "longitude": -95.77894339999999,
    "website": "https://mosirishpub.com/katy/",
    "category": "Bar & Restaurant",
    "types": "bar, restaurant, food, point_of_interest, establishment"
  },
  {
    "place_id": "ChIJL3LuLdwmQYYR9MQAFv3wDqg",
    "name": "BB's Cajun Cantina",
    "street_address": "406 West Grand Parkway South",
    "city": "Katy",
    "state": "TX",
    "zip_code": "77494",
    "latitude": 29.7763183,
    "longitude": -95.7785117,
    "website": "https://bbstexorleans.com/locations/katy/",
    "category": "Bar & Restaurant",
    "types": "meal_takeaway, bar, restaurant, food, point_of_interest, establishment"
  },
  {
    "place_id": "ChIJ2YbAP_onQYYR2BErPRnsU-8",
    "name": "Federal American Grill",
    "street_address": "727 West Grand Parkway South",
    "city": "Katy",
    "state": "TX",
    "zip_code": "77494",
    "latitude": 29.77000989999999,
    "longitude": -95.7756196,
    "website": "https://www.thefederalgrill.com/",
    "category": "Restaurant",
    "types": "restaurant, food, point_of_interest, establishment"
  },
  {
    "place_id": "ChIJ2VQXMecmQYYRHuae-WFo-nQ",
    "name": "Stars Sports Bar & Grill",
    "street_address": "414 West Grand Parkway South",
    "city": "Katy",
    "state": "TX",
    "zip_code": "77494",
    "latitude": 29.7754534,
    "longitude": -95.77936919999999,
    "website": "https://www.starssportsbar.com/",
    "category": "Bar & Restaurant",
    "types": "night_club, bar, restaurant, food, point_of_interest, establishment"
  },
  {
    "place_id": "ChIJo30WXF4lQYYRTJF5h0KblpU",
    "name": "1836 Republic Bar and Grill",
    "street_address": "27252 Katy Freeway",
    "city": "Katy",
    "state": "TX",
    "zip_code": "77494",
    "latitude": 29.7785786,
    "longitude": -95.84436790000001,
    "website": "https://www.1836republicbarandgrill.com/",
    "category": "Bar & Restaurant",
    "types": "bar, restaurant, food, point_of_interest, establishment"
  },
  {
    "place_id": "ChIJSaiYruznQIYRkJ-coCH1w7k",
    "name": "The Pub Fountains",
    "street_address": "12720 U.S. 59",
    "city": "Stafford",
    "state": "TX",
    "zip_code": "77477",
    "latitude": 29.63748249999999,
    "longitude": -95.5849882,
    "website": "http://www.pubfountains.com/",
    "category": "Bar & Restaurant",
    "types": "bar, restaurant, point_of_interest, food, establishment"
  },
  {
    "place_id": "ChIJGWFds83mQIYR88SvA_ln8ho",
    "name": "Big Ben Tavern",
    "street_address": "636 Highway 6",
    "city": "Sugar Land",
    "state": "TX",
    "zip_code": "77478",
    "latitude": 29.60707349999999,
    "longitude": -95.6425496,
    "website": "https://www.thebigbentavern.com/",
    "category": "Bar & Restaurant",
    "types": "bar, restaurant, food, point_of_interest, establishment"
  },
  {
    "place_id": "ChIJaeU0eljnQIYRLev1HGn-0Ew",
    "name": "Spectators Bar & Grill - Lake Pointe",
    "street_address": "1525 Lake Pointe Parkway",
    "city": "Sugar Land",
    "state": "TX",
    "zip_code": "77478",
    "latitude": 29.602933,
    "longitude": -95.620172,
    "website": "https://spectatorsbargrill.com/",
    "category": "Bar & Restaurant",
    "types": "bar, restaurant, food, point_of_interest, establishment"
  },
  {
    "place_id": "ChIJswdnVHTmQIYRPmfiiiXS5YA",
    "name": "Gridiron Bar & Grill",
    "street_address": "4524 Highway 6",
    "city": "Sugar Land",
    "state": "TX",
    "zip_code": "77478",
    "latitude": 29.5810929,
    "longitude": -95.58610929999999,
    "website": "https://gridironbarandgrilltx.com/",
    "category": "Bar & Restaurant",
    "types": "night_club, bar, restaurant, food, point_of_interest, establishment"
  },
  {
    "place_id": "ChIJEzgT5bjnQIYRgSZcocuUP9E",
    "name": "Brewskis",
    "street_address": "11303 Fountain Lake Drive",
    "city": "Stafford",
    "state": "TX",
    "zip_code": "77477",
    "latitude": 29.639944,
    "longitude": -95.583771,
    "website": null,
    "category": "Bar & Restaurant",
    "types": "bar, restaurant, food, point_of_interest, establishment"
  },
  {
    "place_id": "ChIJVaD9RZTmQIYRj1eQego0HNQ",
    "name": "Baker St Pub",
    "street_address": "15970 City Walk",
    "city": "Sugar Land",
    "state": "TX",
    "zip_code": "77479",
    "latitude": 29.59672290000001,
    "longitude": -95.62167790000001,
    "website": "https://www.bakerstreetpub.com/",
    "category": "Bar & Restaurant",
    "types": "bar, restaurant, food, point_of_interest, establishment"
  },
  {
    "place_id": "ChIJawsdDJTmQIYRsk6_q_zQ7XM",
    "name": "The Rouxpour - Sugar Land",
    "street_address": "2298 Texas Drive",
    "city": "Sugar Land",
    "state": "TX",
    "zip_code": "77479",
    "latitude": 29.59615239999999,
    "longitude": -95.62029129999999,
    "website": "http://www.therouxpour.com/",
    "category": "Bar & Restaurant",
    "types": "bar, restaurant, food, point_of_interest, establishment"
  },
  {
    "place_id": "ChIJExeDNpTmQIYRLRv4MyRH-Zs",
    "name": "Bar Louie - Sugarland",
    "street_address": "16089 City Walk",
    "city": "Sugar Land",
    "state": "TX",
    "zip_code": "77479",
    "latitude": 29.5960619,
    "longitude": -95.62168899999999,
    "website": "https://www.barlouie.com/locations/us/tx/sugar-land/sugar-land?utm_source=google&utm_medium=gmb&utm_campaign=listings",
    "category": "Bar & Restaurant",
    "types": "night_club, bar, restaurant, food, point_of_interest, establishment"
  },
  {
    "place_id": "ChIJc9ahJwvnQIYRs-cCfSrdOU4",
    "name": "Lazy Dog Restaurant & Bar",
    "street_address": "12223 Southwest Freeway",
    "city": "Stafford",
    "state": "TX",
    "zip_code": "77477",
    "latitude": 29.6425548,
    "longitude": -95.5766664,
    "website": "https://www.lazydogrestaurants.com/locations/stafford-tx",
    "category": "Bar & Restaurant",
    "types": "bar, restaurant, food, point_of_interest, establishment"
  },
  {
    "place_id": "ChIJtyjsEgvmQIYRudVo8rpJg28",
    "name": "Bogie's Pub & Grill",
    "street_address": "2803 Dulles Avenue",
    "city": "Missouri City",
    "state": "TX",
    "zip_code": "77459",
    "latitude": 29.5832369,
    "longitude": -95.5804051,
    "website": "http://www.bogiespubandgrill.com/",
    "category": "Bar & Restaurant",
    "types": "night_club, bar, restaurant, point_of_interest, food, establishment"
  },
  {
    "place_id": "ChIJq6qqqv7mQIYR7x1XF3GevT0",
    "name": "Flying Saucer Draught Emporium",
    "street_address": "15929 City Walk",
    "city": "Sugar Land",
    "state": "TX",
    "zip_code": "77479",
    "latitude": 29.5970472,
    "longitude": -95.6207139,
    "website": "http://www.beerknurd.com/locations/sugar-land-flying-saucer",
    "category": "Bar & Restaurant",
    "types": "bar, restaurant, food, point_of_interest, establishment"
  },
  {
    "place_id": "ChIJ2ZLFYcbnQIYRCsaV4n3Rmzc",
    "name": "Little Woodrow's Sugar Land",
    "street_address": "16535 Southwest Freeway",
    "city": "Sugar Land",
    "state": "TX",
    "zip_code": "77479",
    "latitude": 29.5929648,
    "longitude": -95.62308349999999,
    "website": "https://littlewoodrows.com/locations/sugar-land/",
    "category": "Bar & Restaurant",
    "types": "bar, restaurant, point_of_interest, food, establishment"
  },
  {
    "place_id": "ChIJYTD2hZTmQIYRONyJWUTSnJY",
    "name": "BJ's Restaurant & Brewhouse",
    "street_address": "2231 Highway 6",
    "city": "Sugar Land",
    "state": "TX",
    "zip_code": "77478",
    "latitude": 29.59819069999999,
    "longitude": -95.62013189999999,
    "website": "https://www.bjsrestaurants.com/locations/tx/sugar-land?utm_source=google&utm_medium=organic&utm_campaign=google_my_business",
    "category": "Bar & Restaurant",
    "types": "restaurant, bar, food, point_of_interest, establishment"
  },
  {
    "place_id": "ChIJPdH96lXmQIYRhKuGpPilYPU",
    "name": "Bullpen Pizza",
    "street_address": "14019 Southwest Freeway",
    "city": "Sugar Land",
    "state": "TX",
    "zip_code": "77478",
    "latitude": 29.6197343,
    "longitude": -95.6014572,
    "website": null,
    "category": "Bar & Restaurant",
    "types": "bar, restaurant, food, point_of_interest, establishment"
  },
  {
    "place_id": "ChIJ5aUDXlDnQIYRSZ7s3DszNhk",
    "name": "Bombshells Restaurant & Bar",
    "street_address": "12815 Southwest Freeway",
    "city": "Stafford",
    "state": "TX",
    "zip_code": "77477",
    "latitude": 29.6333316,
    "longitude": -95.5863901,
    "website": "http://4bombshells.com/",
    "category": "Restaurant",
    "types": "restaurant, food, point_of_interest, establishment"
  },
  {
    "place_id": "ChIJY3MAJaznQIYRp7qpNWET9mk",
    "name": "Live Oak Grill",
    "street_address": "12935 Dairy Ashford Road",
    "city": "Sugar Land",
    "state": "TX",
    "zip_code": "77478",
    "latitude": 29.6301291,
    "longitude": -95.5974638,
    "website": "https://www.liveoakgrills.com/",
    "category": "Restaurant",
    "types": "restaurant, food, point_of_interest, establishment"
  },
  {
    "place_id": "ChIJPYXn7Y7nQIYR-Nj_RhVpvDo",
    "name": "State Fare",
    "street_address": "15930 City Walk",
    "city": "Sugar Land",
    "state": "TX",
    "zip_code": "77479",
    "latitude": 29.5970487,
    "longitude": -95.62136269999999,
    "website": "https://www.statefaretx.com/",
    "category": "Restaurant",
    "types": "restaurant, food, point_of_interest, establishment"
  },
  {
    "place_id": "ChIJFeby_bfnQIYRp7exsO6qLvQ",
    "name": "The Bistro - Eat. Drink. Connect.\u00ae",
    "street_address": "12655 Southwest Freeway",
    "city": "Stafford",
    "state": "TX",
    "zip_code": "77477",
    "latitude": 29.6365114,
    "longitude": -95.58276649999999,
    "website": "https://www.marriott.com/hotels/hotel-information/restaurant/housw-courtyard-houston-sugar-land/?scid=f2ae0541-1279-4f24-b197-a979c79310b0",
    "category": "Restaurant",
    "types": "restaurant, food, point_of_interest, establishment"
  },
  {
    "place_id": "ChIJv0U63PSQQIYRQdNoRNzeqWs",
    "name": "Gringo\u2019s Mexican Kitchen {The Original}",
    "street_address": "2202 Broadway Street",
    "city": "Pearland",
    "state": "TX",
    "zip_code": "77581",
    "latitude": 29.5497133,
    "longitude": -95.24959129999999,
    "website": "http://www.gringostexmex.com/",
    "category": "Restaurant",
    "types": "restaurant, food, point_of_interest, establishment"
  },
  {
    "place_id": "ChIJm9RCr8CTQIYRLhGGnSWvP8o",
    "name": "Las Americas Mexican Taqueria",
    "street_address": "7129 Broadway Street",
    "city": "Pearland",
    "state": "TX",
    "zip_code": "77581",
    "latitude": 29.5612871,
    "longitude": -95.3307657,
    "website": "https://www.lasamericasmexicantaqueria.com/",
    "category": "Restaurant",
    "types": "restaurant, food, point_of_interest, establishment"
  },
  {
    "place_id": "ChIJ62rl_9uQQIYR4g8UJMznAfU",
    "name": "HOMETOWN SPORTS BAR & GRILL",
    "street_address": "1853 Pearland Parkway",
    "city": "Pearland",
    "state": "TX",
    "zip_code": "77581",
    "latitude": 29.5750544,
    "longitude": -95.26318889999999,
    "website": "http://www.hometownsbg.com/",
    "category": "Bar & Restaurant",
    "types": "bar, restaurant, food, point_of_interest, establishment"
  },
  {
    "place_id": "ChIJM5Cy7SmXQIYRBq3KKC18_i4",
    "name": "BreWingZ Restaurant and Bar",
    "street_address": "8490 South Sam Houston Parkway East",
    "city": "Houston",
    "state": "TX",
    "zip_code": "77075",
    "latitude": 29.5991686,
    "longitude": -95.2682964,
    "website": "https://www.brewingz.com/pearlandpkwy/",
    "category": "Bar & Restaurant",
    "types": "bar, restaurant, food, point_of_interest, establishment"
  },
  {
    "place_id": "ChIJHyUf0sqWQIYRI-B31jQSdkI",
    "name": "Steamboat Bill\u2019s Pearland, TX",
    "street_address": "1134 North Main Street",
    "city": "Pearland",
    "state": "TX",
    "zip_code": "77581",
    "latitude": 29.5914081,
    "longitude": -95.2873106,
    "website": "https://www.steamboatbillspearland.com/",
    "category": "Bar & Restaurant",
    "types": "bar, restaurant, food, point_of_interest, establishment"
  },
  {
    "place_id": "ChIJmw5pZPuQQIYRZNj-tl2Vj8Q",
    "name": "Pizza Hut",
    "street_address": "2728 Broadway Street",
    "city": "Pearland",
    "state": "TX",
    "zip_code": "77581",
    "latitude": 29.5548444,
    "longitude": -95.2615379,
    "website": "https://locations.pizzahut.com/tx/pearland/2728-broadway-st?utm_medium=organic&utm_source=local&utm_campaign=googlelistings&utm_content=website&utm_term=303096",
    "category": "Restaurant",
    "types": "meal_takeaway, meal_delivery, restaurant, food, point_of_interest, establishment"
  },
  {
    "place_id": "ChIJhbEVgvCQQIYRv7r8O10AUzQ",
    "name": "Chili's Grill & Bar",
    "street_address": "2709 East Broadway Street",
    "city": "Pearland",
    "state": "TX",
    "zip_code": "77581",
    "latitude": 29.554814,
    "longitude": -95.259667,
    "website": "https://www.chilis.com/locations/us/texas/pearland/pearland-e-broadway?utm_source=google&utm_medium=local&utm_campaign=Chilis",
    "category": "Bar & Restaurant",
    "types": "restaurant, bar, food, point_of_interest, establishment"
  },
  {
    "place_id": "ChIJAelPGhSRQIYRXJM1WyWsZBY",
    "name": "Four Friends Tea Room & Gifts",
    "street_address": "3816 East Broadway Street",
    "city": "Pearland",
    "state": "TX",
    "zip_code": "77581",
    "latitude": 29.563422,
    "longitude": -95.284674,
    "website": "http://www.fourfriendstearoom.com/",
    "category": "Restaurant",
    "types": "restaurant, point_of_interest, food, store, establishment"
  },
  {
    "place_id": "ChIJPddZDsE1R4YR0OQIb6h4C18",
    "name": "Ale & Ivy",
    "street_address": "305 Sawdust Road",
    "city": "Spring",
    "state": "TX",
    "zip_code": "77380",
    "latitude": 30.1263544,
    "longitude": -95.44719189999999,
    "website": "http://aleandivy.com/",
    "category": "Restaurant",
    "types": "restaurant, food, point_of_interest, establishment"
  },
  {
    "place_id": "ChIJhVq5ViU0R4YRVhGwqXNYwQY",
    "name": "19th Hole Grill & Bar",
    "street_address": "202 Sawdust Road",
    "city": "Spring",
    "state": "TX",
    "zip_code": "77380",
    "latitude": 30.1279939,
    "longitude": -95.4467006,
    "website": null,
    "category": "Bar & Restaurant",
    "types": "bar, restaurant, food, point_of_interest, establishment"
  },
  {
    "place_id": "ChIJj4KNf8A2R4YRXrexDZhIlVc",
    "name": "The Goose's Acre",
    "street_address": "21 Waterway Avenue",
    "city": "The Woodlands",
    "state": "TX",
    "zip_code": "77380",
    "latitude": 30.1600306,
    "longitude": -95.4594765,
    "website": "https://www.goosesacre.com/",
    "category": "Bar & Restaurant",
    "types": "bar, restaurant, point_of_interest, food, establishment"
  },
  {
    "place_id": "ChIJ0yPiqiQ0R4YRZOFomTA6o6I",
    "name": "Flying Pug Sports Bar",
    "street_address": "592 Sawdust Road",
    "city": "Spring",
    "state": "TX",
    "zip_code": "77380",
    "latitude": 30.12710899999999,
    "longitude": -95.451347,
    "website": "https://flying-pug.shop/",
    "category": "Bar & Restaurant",
    "types": "bar, restaurant, food, point_of_interest, establishment"
  },
  {
    "place_id": "ChIJyS5_ETE0R4YRsjZ4OQqJPDc",
    "name": "Wolfies Restaurant and Sports Bar",
    "street_address": "25550 Interstate 45",
    "city": "Spring",
    "state": "TX",
    "zip_code": "77386",
    "latitude": 30.132673,
    "longitude": -95.44294099999999,
    "website": "https://wolfieswoodlands.com/",
    "category": "Bar & Restaurant",
    "types": "bar, restaurant, food, point_of_interest, establishment"
  },
  {
    "place_id": "ChIJr18DAjQ0R4YRwh7yWoCYJFc",
    "name": "Exit 73 Bar & Grill",
    "street_address": "24714 Interstate Hwy",
    "city": "Spring",
    "state": "TX",
    "zip_code": "77386",
    "latitude": 30.1214202,
    "longitude": -95.44118999999999,
    "website": "https://exit73.net/",
    "category": "Bar & Restaurant",
    "types": "bar, restaurant, food, point_of_interest, establishment"
  },
  {
    "place_id": "ChIJdQW2khc0R4YRU6M6VdZoCEc",
    "name": "Ronny G's",
    "street_address": "1027 Sawdust Road",
    "city": "The Woodlands",
    "state": "TX",
    "zip_code": "77380",
    "latitude": 30.1257842,
    "longitude": -95.4580697,
    "website": "https://ronnygstx.com/",
    "category": "Bar & Restaurant",
    "types": "bar, restaurant, food, point_of_interest, establishment"
  },
  {
    "place_id": "ChIJxXdwYbI3R4YRtx9O800Zpuk",
    "name": "Mahoney's",
    "street_address": "24 Waterway Avenue",
    "city": "The Woodlands",
    "state": "TX",
    "zip_code": "77380",
    "latitude": 30.1605376,
    "longitude": -95.4589136,
    "website": "https://mahoneysbartx.com/",
    "category": "Bar & Restaurant",
    "types": "restaurant, bar, food, point_of_interest, establishment"
  },
  {
    "place_id": "ChIJ93A1IcQ3R4YRFnpSaqI-4Vk",
    "name": "Back Table Kitchen & Bar",
    "street_address": "2301 North Millbend Drive",
    "city": "The Woodlands",
    "state": "TX",
    "zip_code": "77380",
    "latitude": 30.1436504,
    "longitude": -95.4743505,
    "website": "http://www.backtabletx.com/",
    "category": "Restaurant",
    "types": "restaurant, point_of_interest, food, establishment"
  },
  {
    "place_id": "ChIJoZVUjb82R4YRA5H0WeusFIY",
    "name": "Bar Louie - The Woodlands",
    "street_address": "24 Waterway Avenue",
    "city": "The Woodlands",
    "state": "TX",
    "zip_code": "77380",
    "latitude": 30.1606069,
    "longitude": -95.4582119,
    "website": "https://www.barlouie.com/locations/us/tx/spring/the-woodlands?utm_source=google&utm_medium=gmb&utm_campaign=listings",
    "category": "Bar & Restaurant",
    "types": "night_club, bar, restaurant, food, point_of_interest, establishment"
  },
  {
    "place_id": "ChIJT2aIyGE1R4YRvhyc-XV6fZY",
    "name": "Sawyer Park Icehouse",
    "street_address": "314 Pruitt Road",
    "city": "Spring",
    "state": "TX",
    "zip_code": "77380",
    "latitude": 30.1199543,
    "longitude": -95.4456812,
    "website": "http://www.sawyerpark.com/",
    "category": "Bar & Restaurant",
    "types": "bar, restaurant, point_of_interest, food, establishment"
  },
  {
    "place_id": "ChIJMy5mhc01R4YRn0fVPWHMqKg",
    "name": "Hop Scholar Ale House",
    "street_address": "610 Rayford Road",
    "city": "Spring",
    "state": "TX",
    "zip_code": "77386",
    "latitude": 30.1269321,
    "longitude": -95.4326652,
    "website": "http://hopscholar.com/",
    "category": "Bar & Restaurant",
    "types": "bar, restaurant, food, point_of_interest, establishment"
  },
  {
    "place_id": "ChIJa8bNKVI3R4YR1f-ko2ES0cI",
    "name": "Yard House",
    "street_address": "1105 Lake Woodlands Drive",
    "city": "The Woodlands",
    "state": "TX",
    "zip_code": "77380",
    "latitude": 30.16668969999999,
    "longitude": -95.4523372,
    "website": "https://www.yardhouse.com/locations/tx/the-woodlands/the-woodlands/8395?cmpid=br:yh_ag:ie_ch:loc_ca:YHGMB_sn:gmb_gt:the-woodlands-tx-8395_pl:locurl_rd:1091",
    "category": "Bar & Restaurant",
    "types": "meal_takeaway, bar, restaurant, food, point_of_interest, establishment"
  },
  {
    "place_id": "ChIJc6BzDdw2R4YR0Q2H47mj4DQ",
    "name": "Fielding\u2019s Wood Grill",
    "street_address": "1699 Research Forest Drive",
    "city": "Shenandoah",
    "state": "TX",
    "zip_code": "77380",
    "latitude": 30.1763879,
    "longitude": -95.4616159,
    "website": "https://www.fieldingswoodgrill.com/",
    "category": "Bar & Restaurant",
    "types": "bar, restaurant, food, point_of_interest, establishment"
  },
  {
    "place_id": "ChIJm664h0o3R4YRbVKi4VeqKow",
    "name": "Hearsay On The Waterway",
    "street_address": "20 Waterway Ave",
    "city": "The Woodlands",
    "state": "TX",
    "zip_code": "77380",
    "latitude": 30.1600395,
    "longitude": -95.4589056,
    "website": "https://hearsaygastrolounge.com/",
    "category": "Bar & Restaurant",
    "types": "bar, restaurant, food, point_of_interest, establishment"
  },
  {
    "place_id": "ChIJrVqgz9cwR4YR-p67BpHrS28",
    "name": "The Kitchen",
    "street_address": "4526 Research Forest Drive",
    "city": "The Woodlands",
    "state": "TX",
    "zip_code": "77381",
    "latitude": 30.1844754,
    "longitude": -95.48556339999999,
    "website": "https://www.thekitcheninthewoodlands.com/",
    "category": "Restaurant",
    "types": "liquor_store, cafe, grocery_or_supermarket, store, restaurant, food, point_of_interest, establishment"
  },
  {
    "place_id": "ChIJla4aPOo3R4YR0USOKm-lxyA",
    "name": "Postino Woodlands",
    "street_address": "2025 Hughes Landing Boulevard",
    "city": "The Woodlands",
    "state": "TX",
    "zip_code": "77381",
    "latitude": 30.1689579,
    "longitude": -95.4717677,
    "website": "https://www.postinowinecafe.com/locations/postino-woodlands",
    "category": "Bar & Restaurant",
    "types": "restaurant, bar, food, point_of_interest, establishment"
  },
  {
    "place_id": "ChIJNd66GRk3R4YRnaH8X4q_RD4",
    "name": "Twin Peaks",
    "street_address": "Interstate 45",
    "city": "Shenandoah",
    "state": "TX",
    "zip_code": "77384",
    "latitude": 30.1923324,
    "longitude": -95.4548209,
    "website": "https://twinpeaksrestaurant.com/locations/shenandoah-tx",
    "category": "Bar & Restaurant",
    "types": "bar, restaurant, food, point_of_interest, establishment"
  },
  {
    "place_id": "ChIJT6lrXaQ1R4YRAXUKesXkMAs",
    "name": "Buffalo Run",
    "street_address": "440 Rayford Road",
    "city": "Spring",
    "state": "TX",
    "zip_code": "77386",
    "latitude": 30.1264008,
    "longitude": -95.4363932,
    "website": "http://www.buffaloruntx.com/",
    "category": "Bar & Restaurant",
    "types": "bar, restaurant, food, point_of_interest, establishment"
  },
  {
    "place_id": "ChIJKwvk6Fw3R4YRhChTIdbuLtE",
    "name": "Whiskey Cake Kitchen & Bar",
    "street_address": "27800 Interstate 45 North",
    "city": "Oak Ridge North",
    "state": "TX",
    "zip_code": "77385",
    "latitude": 30.16467699999999,
    "longitude": -95.44964689999999,
    "website": "https://www.whiskeycake.com/",
    "category": "Bar & Restaurant",
    "types": "bar, restaurant, food, point_of_interest, establishment"
  },
  {
    "place_id": "ChIJpY7X8RYxR4YRtA7_wu7jqlQ",
    "name": "The Republic Grille",
    "street_address": "4775 West Panther Creek Drive",
    "city": "The Woodlands",
    "state": "TX",
    "zip_code": "77381",
    "latitude": 30.169236,
    "longitude": -95.504263,
    "website": "https://www.therepublicgrille.com/",
    "category": "Restaurant",
    "types": "restaurant, food, point_of_interest, establishment"
  },
  {
    "place_id": "ChIJRb0niIogYYYRZ55r64a41Hk",
    "name": "BJ's Restaurant & Brewhouse",
    "street_address": "19075 Interstate 45",
    "city": "Shenandoah",
    "state": "TX",
    "zip_code": "77385",
    "latitude": 30.1853276,
    "longitude": -95.451478,
    "website": "https://www.bjsrestaurants.com/locations/tx/shenandoah?utm_source=google&utm_medium=organic&utm_campaign=google_my_business",
    "category": "Bar & Restaurant",
    "types": "restaurant, bar, food, point_of_interest, establishment"
  },
  {
    "place_id": "ChIJN7MFT801R4YR_p8w8englR0",
    "name": "3B's Burgers & Beer",
    "street_address": "466 Rayford Road",
    "city": "Spring",
    "state": "TX",
    "zip_code": "77386",
    "latitude": 30.126846,
    "longitude": -95.435284,
    "website": "https://www.3bs-burgers.com/",
    "category": "Bar & Restaurant",
    "types": "bar, restaurant, food, point_of_interest, establishment"
  },
  {
    "place_id": "ChIJLQ9Gvq83R4YRq8gAm_jJMEQ",
    "name": "Sixty Vines",
    "street_address": "9595 Six Pines Drive",
    "city": "The Woodlands",
    "state": "TX",
    "zip_code": "77380",
    "latitude": 30.1638511,
    "longitude": -95.4638344,
    "website": null,
    "category": "Bar & Restaurant",
    "types": "restaurant, bar, point_of_interest, food, establishment"
  },
  {
    "place_id": "ChIJe_Boq7I3R4YRTbGr9PGI1YY",
    "name": "State Fare Kitchen & Bar",
    "street_address": "1900 Hughes Landing Boulevard",
    "city": "The Woodlands",
    "state": "TX",
    "zip_code": "77380",
    "latitude": 30.1707153,
    "longitude": -95.47127309999999,
    "website": "https://www.statefaretx.com/",
    "category": "Restaurant",
    "types": "restaurant, food, point_of_interest, establishment"
  },
  {
    "place_id": "ChIJF4ctucA2R4YRcTN4r6DZ2j0",
    "name": "BLEND Bar with Davidoff Cigars",
    "street_address": "1701 Lake Robbins Drive",
    "city": "The Woodlands",
    "state": "TX",
    "zip_code": "77380",
    "latitude": 30.16228240000001,
    "longitude": -95.4612159,
    "website": "https://blendbarcigar.com/pages/the-woodlands",
    "category": "Bar & Restaurant",
    "types": "bar, store, restaurant, food, point_of_interest, establishment"
  },
  {
    "place_id": "ChIJy1i2bjw3R4YRxgyD9Oq-D04",
    "name": "Bosscat Kitchen & Libations",
    "street_address": "9595 Six Pines Drive",
    "city": "The Woodlands",
    "state": "TX",
    "zip_code": "77380",
    "latitude": 30.163798,
    "longitude": -95.461686,
    "website": "https://bosscatkitchen.com/woodlands",
    "category": "Restaurant",
    "types": "restaurant, point_of_interest, food, establishment"
  },
  {
    "place_id": "ChIJLxkXQ9E2R4YR6l_rOKw-kKw",
    "name": "Hopdoddy Burger Bar",
    "street_address": "2417 Research Forest Drive",
    "city": "The Woodlands",
    "state": "TX",
    "zip_code": "77381",
    "latitude": 30.1756906,
    "longitude": -95.4741765,
    "website": "https://www.hopdoddy.com/locations/woodlands",
    "category": "Restaurant",
    "types": "meal_takeaway, restaurant, point_of_interest, food, establishment"
  },
  {
    "place_id": "ChIJR9AgqtQ2R4YRr75SFty5ByE",
    "name": "Dosey Doe",
    "street_address": "2626 Research Forest Drive",
    "city": "The Woodlands",
    "state": "TX",
    "zip_code": "77381",
    "latitude": 30.17768420000001,
    "longitude": -95.47746149999999,
    "website": "http://doseydoetickets.com/",
    "category": "Bar & Restaurant",
    "types": "bar, restaurant, food, point_of_interest, establishment"
  },
  {
    "place_id": "ChIJU0gQj5A2R4YR4WBEkuLD6pI",
    "name": "LongHorn Steakhouse",
    "street_address": "26805 Interstate 45 North",
    "city": "Spring",
    "state": "TX",
    "zip_code": "77380",
    "latitude": 30.150809,
    "longitude": -95.44939699999999,
    "website": "https://www.longhornsteakhouse.com/locations/tx/spring/spring-woodlands/5443?cmpid=br:lh_ag:ie_ch:loc_ca:LHGMB_sn:gmb_gt:spring-tx-5443_pl:locurl_rd:1382",
    "category": "Bar & Restaurant",
    "types": "meal_takeaway, bar, restaurant, point_of_interest, food, establishment"
  },
  {
    "place_id": "ChIJT3daJW43R4YRqJbVTOQ_jeo",
    "name": "Rose Rooftop & Restaurant",
    "street_address": "20 Waterway Avenue",
    "city": "The Woodlands",
    "state": "TX",
    "zip_code": "77380",
    "latitude": 30.16028590000001,
    "longitude": -95.45891569999999,
    "website": "http://www.roserooftop.com/",
    "category": "Restaurant",
    "types": "restaurant, food, point_of_interest, establishment"
  },
  {
    "place_id": "ChIJUQeR2c82R4YRU5bJgLHJROE",
    "name": "Del Frisco's Grille",
    "street_address": "1900 Hughes Landing Boulevard",
    "city": "The Woodlands",
    "state": "TX",
    "zip_code": "77380",
    "latitude": 30.171006,
    "longitude": -95.471465,
    "website": "https://www.delfriscosgrille.com/location/del-friscos-grille-the-woodlands-tx/",
    "category": "Bar & Restaurant",
    "types": "bar, restaurant, food, point_of_interest, establishment"
  },
  {
    "place_id": "ChIJ4QWxZIHqQIYR-uSif3Y7bCw",
    "name": "Red River Ice House",
    "street_address": "10308 South Main Street",
    "city": "Houston",
    "state": "TX",
    "zip_code": "77025",
    "latitude": 29.6739198,
    "longitude": -95.43106259999999,
    "website": "http://www.redrivericehouse.com/?utm_source=gmb&utm_medium=organic",
    "category": "Bar & Restaurant",
    "types": "bar, restaurant, food, point_of_interest, establishment"
  },
  {
    "place_id": "ChIJhUUvfH7rQIYRyC5VRX6H7XY",
    "name": "Tipsy Tavern",
    "street_address": "10400 South Post Oak Road",
    "city": "Houston",
    "state": "TX",
    "zip_code": "77035",
    "latitude": 29.6678625,
    "longitude": -95.46378460000001,
    "website": "https://www.tipsytaverntx.com/",
    "category": "Bar & Restaurant",
    "types": "bar, restaurant, food, point_of_interest, establishment"
  },
  {
    "place_id": "ChIJ325pwi-_QIYRtB5lEbq1nCI",
    "name": "Hearsay Market Square",
    "street_address": "218 Travis Street",
    "city": "Houston",
    "state": "TX",
    "zip_code": "77002",
    "latitude": 29.7630778,
    "longitude": -95.3616728,
    "website": "https://hearsaygastrolounge.com/",
    "category": "Bar & Restaurant",
    "types": "bar, restaurant, food, point_of_interest, establishment"
  },
  {
    "place_id": "ChIJjfnzbEzHQIYRa3zh8igbVQw",
    "name": "La Fisheria",
    "street_address": "213 Milam Street",
    "city": "Houston",
    "state": "TX",
    "zip_code": "77002",
    "latitude": 29.7635162,
    "longitude": -95.362068,
    "website": "http://www.lafisheriahtx.com/",
    "category": "Bar & Restaurant",
    "types": "bar, restaurant, food, point_of_interest, establishment"
  },
  {
    "place_id": "ChIJdd2pwjy_QIYRN4wuAN0eSCI",
    "name": "Guadalajara Del Centro",
    "street_address": "1201 San Jacinto Street",
    "city": "Houston",
    "state": "TX",
    "zip_code": "77002",
    "latitude": 29.7540543,
    "longitude": -95.3643192,
    "website": "https://guad.com/",
    "category": "Bar & Restaurant",
    "types": "bar, restaurant, food, point_of_interest, establishment"
  },
  {
    "place_id": "ChIJqX1COIK_QIYROwtfz_TEYO0",
    "name": "Bodegas Taco Shop",
    "street_address": "1200 Binz Street",
    "city": "Houston",
    "state": "TX",
    "zip_code": "77004",
    "latitude": 29.7237925,
    "longitude": -95.3877378,
    "website": "http://www.bodegastacoshop.com/",
    "category": "Bar & Restaurant",
    "types": "bar, store, restaurant, food, point_of_interest, establishment"
  },
  {
    "place_id": "ChIJVYLye2C_QIYRf_Djo1Ugx_s",
    "name": "La Mexicana",
    "street_address": "1018 Fairview Street",
    "city": "Houston",
    "state": "TX",
    "zip_code": "77006",
    "latitude": 29.7484079,
    "longitude": -95.391649,
    "website": "http://www.lamexicanarestaurant.com/",
    "category": "Bar & Restaurant",
    "types": "bar, restaurant, food, point_of_interest, establishment"
  },
  {
    "place_id": "ChIJSzReP0u_QIYRQh9g1cu4bns",
    "name": "On The Kirb",
    "street_address": "2521 Bagby Street",
    "city": "Houston",
    "state": "TX",
    "zip_code": "77006",
    "latitude": 29.7487137,
    "longitude": -95.3787639,
    "website": "https://www.onthekirb.com/",
    "category": "Bar & Restaurant",
    "types": "bar, restaurant, food, point_of_interest, establishment"
  },
  {
    "place_id": "ChIJ2-wQSJe_QIYREbxcKabmW9Q",
    "name": "Lost & Found",
    "street_address": "160 West Gray Street",
    "city": "Houston",
    "state": "TX",
    "zip_code": "77019",
    "latitude": 29.7534725,
    "longitude": -95.3809497,
    "website": "https://www.lostandfoundmidtown.com/",
    "category": "Bar & Restaurant",
    "types": "bar, restaurant, food, point_of_interest, establishment"
  },
  {
    "place_id": "ChIJgzzerdHFQIYRgwb-SVF7BWY",
    "name": "Lazy Oaks Beer Garden",
    "street_address": "10158 Long Point Road",
    "city": "Houston",
    "state": "TX",
    "zip_code": "77043",
    "latitude": 29.794542,
    "longitude": -95.548952,
    "website": "http://lazyoaksbeergarden.com/",
    "category": "Bar & Restaurant",
    "types": "bar, restaurant, food, point_of_interest, establishment"
  },
  {
    "place_id": "ChIJR8rNt_7EQIYREbd0A4tOUZ8",
    "name": "Cobble & Spoke",
    "street_address": "1900 Blalock Road",
    "city": "Houston",
    "state": "TX",
    "zip_code": "77080",
    "latitude": 29.807503,
    "longitude": -95.523557,
    "website": "http://www.cobbleandspoke.com/",
    "category": "Bar & Restaurant",
    "types": "bar, liquor_store, store, restaurant, food, point_of_interest, establishment"
  },
  {
    "place_id": "ChIJ38rsT3DFQIYRljs8vSsd23o",
    "name": "Jonathan's The Rub",
    "street_address": "12505 Memorial Drive",
    "city": "Houston",
    "state": "TX",
    "zip_code": "77024",
    "latitude": 29.7657931,
    "longitude": -95.55133289999999,
    "website": "https://www.jonathanstherub.com/",
    "category": "Restaurant",
    "types": "restaurant, food, point_of_interest, establishment"
  },
  {
    "place_id": "ChIJ0_0oGeXFQIYRrjvofalGjw4",
    "name": "Chanos Oyster Micheladas Bar",
    "street_address": "10112 Hammerly Boulevard",
    "city": "Houston",
    "state": "TX",
    "zip_code": "77080",
    "latitude": 29.81360429999999,
    "longitude": -95.5421829,
    "website": "https://www.chanosoysterbar.com/",
    "category": "Bar & Restaurant",
    "types": "bar, restaurant, food, point_of_interest, establishment"
  },
  {
    "place_id": "ChIJO80oNLfVQIYRVKd4Vm7JoLc",
    "name": "Masones Bar and Grill",
    "street_address": "26281 U.S. 290 Frontage Road",
    "city": "Houston",
    "state": "TX",
    "zip_code": "77429",
    "latitude": 29.97261799999999,
    "longitude": -95.7011579,
    "website": null,
    "category": "Bar & Restaurant",
    "types": "bar, restaurant, food, point_of_interest, establishment"
  },
  {
    "place_id": "ChIJh8qdM27XQIYRbi61MgqQ7iU",
    "name": "Mak's Pub & Grill",
    "street_address": "9818 Fry Road",
    "city": "Houston",
    "state": "TX",
    "zip_code": "77433",
    "latitude": 29.9286831,
    "longitude": -95.7264239,
    "website": "https://www.makspubandgrill.com/",
    "category": "Restaurant",
    "types": "restaurant, food, point_of_interest, establishment"
  },
  {
    "place_id": "ChIJO0RbqpvVQIYRH2Ya7LVFMfs",
    "name": "Mo's Irish Pub Cypress",
    "street_address": "14102 Mueschke Road",
    "city": "Houston",
    "state": "TX",
    "zip_code": "77429",
    "latitude": 29.97970849999999,
    "longitude": -95.7160617,
    "website": "https://mosirishpub.com/cypress/",
    "category": "Bar & Restaurant",
    "types": "bar, restaurant, food, point_of_interest, establishment"
  },
  {
    "place_id": "ChIJJwcg6gjUQIYRTxkELS3KinY",
    "name": "Mac's Sports Bar -N- Grill",
    "street_address": "12650 Telge Road",
    "city": "Houston",
    "state": "TX",
    "zip_code": "77429",
    "latitude": 29.95929719999999,
    "longitude": -95.6496556,
    "website": "https://www.facebook.com/macs.sportsbar",
    "category": "Bar & Restaurant",
    "types": "bar, restaurant, food, point_of_interest, establishment"
  },
  {
    "place_id": "ChIJ9Ye8UibUQIYR1GsYNtO5ngc",
    "name": "LT's Sports Bar & Grill",
    "street_address": "11808 Barker Cypress Road",
    "city": "Houston",
    "state": "TX",
    "zip_code": "77433",
    "latitude": 29.9473961,
    "longitude": -95.67521599999999,
    "website": null,
    "category": "Bar & Restaurant",
    "types": "bar, restaurant, food, point_of_interest, establishment"
  },
  {
    "place_id": "ChIJkR6ButzVQIYRADTIF8NJALY",
    "name": "Andy\u2019s Bar and Grill",
    "street_address": "27200 U.S. 290",
    "city": "Houston",
    "state": "TX",
    "zip_code": "77433",
    "latitude": 29.9820527,
    "longitude": -95.7222535,
    "website": "http://andysbarandgrillcypresstx.com/",
    "category": "Restaurant",
    "types": "restaurant, food, point_of_interest, establishment"
  },
  {
    "place_id": "ChIJjafm0GTVQIYR7shV8fcXIio",
    "name": "Stovetop Brewing",
    "street_address": "11734 Barker Cypress Road",
    "city": "Houston",
    "state": "TX",
    "zip_code": "77433",
    "latitude": 29.9453972,
    "longitude": -95.675625,
    "website": null,
    "category": "Bar & Restaurant",
    "types": "bar, restaurant, food, point_of_interest, establishment"
  },
  {
    "place_id": "ChIJE-1JoXrVQIYR_c1KjFZi4dA",
    "name": "Creekwood Grill",
    "street_address": "12710 Telge Road",
    "city": "Houston",
    "state": "TX",
    "zip_code": "77429",
    "latitude": 29.9606196,
    "longitude": -95.6497705,
    "website": "https://www.creekwoodgrill.com/",
    "category": "Bar & Restaurant",
    "types": "bar, restaurant, food, point_of_interest, establishment"
  },
  {
    "place_id": "ChIJQxWjcbXVQIYR0n1ICtR9OVs",
    "name": "BJ's Restaurant & Brewhouse",
    "street_address": "25660 Northwest Freeway",
    "city": "Houston",
    "state": "TX",
    "zip_code": "77429",
    "latitude": 29.9679936,
    "longitude": -95.6899755,
    "website": "https://www.bjsrestaurants.com/locations/tx/cypress",
    "category": "Restaurant",
    "types": "restaurant, food, point_of_interest, establishment"
  },
  {
    "place_id": "ChIJydGvwCPUQIYRXx4bDggpG2o",
    "name": "Saltgrass Steak House",
    "street_address": "23952 Northwest Freeway",
    "city": "Houston",
    "state": "TX",
    "zip_code": "77429",
    "latitude": 29.9521722,
    "longitude": -95.6703813,
    "website": "https://www.saltgrass.com/location/saltgrass-cypress/",
    "category": "Restaurant",
    "types": "restaurant, food, point_of_interest, establishment"
  },
  {
    "place_id": "ChIJJ2r_1STUQIYR4vFAmzAMZLM",
    "name": "Willie's Grill & Icehouse",
    "street_address": "24236 Northwest Freeway",
    "city": "Houston",
    "state": "TX",
    "zip_code": "77429",
    "latitude": 29.95591039999999,
    "longitude": -95.6747541,
    "website": "https://williesgrillandicehouse.com/",
    "category": "Bar & Restaurant",
    "types": "bar, restaurant, food, point_of_interest, establishment"
  },
  {
    "place_id": "ChIJJwww213VQIYRn04gYV9jzvI",
    "name": "The Frio - Hill Country Grill & The Barn",
    "street_address": "16410 Mueschke Road",
    "city": "Houston",
    "state": "TX",
    "zip_code": "77433",
    "latitude": 30.01346059999999,
    "longitude": -95.72409809999999,
    "website": "https://www.friogrill.com/",
    "category": "Bar & Restaurant",
    "types": "bar, restaurant, food, point_of_interest, establishment"
  },
  {
    "place_id": "ChIJ13lHmJjVQIYRqfk4nUcMKts",
    "name": "The Barn",
    "street_address": "16416 Mueschke Road",
    "city": "Houston",
    "state": "TX",
    "zip_code": "77433",
    "latitude": 30.0139414,
    "longitude": -95.7234672,
    "website": "https://www.friogrill.com/",
    "category": "Bar & Restaurant",
    "types": "bar, restaurant, food, point_of_interest, establishment"
  },
  {
    "place_id": "ChIJxf2I-1SyQIYR3NkMbSLETpg",
    "name": "Brick House Tavern + Tap",
    "street_address": "140 Farm to Market 1960 Bypass Road East",
    "city": "Humble",
    "state": "TX",
    "zip_code": "77338",
    "latitude": 30.0043209,
    "longitude": -95.26639759999999,
    "website": "https://www.brickhousetavernandtap.com/location/brick-house-tavern-and-tap-humble-tx/",
    "category": "Bar & Restaurant",
    "types": "bar, restaurant, food, point_of_interest, establishment"
  },
  {
    "place_id": "ChIJfby3alOyQIYRcy3GYJYI4nE",
    "name": "Shamrocks Pub & Grill",
    "street_address": "228 1st Street East",
    "city": "Humble",
    "state": "TX",
    "zip_code": "77338",
    "latitude": 30.00138889999999,
    "longitude": -95.2651317,
    "website": "http://shamrockshumble.com/",
    "category": "Bar & Restaurant",
    "types": "bar, restaurant, point_of_interest, food, establishment"
  },
  {
    "place_id": "ChIJvWdGjMayQIYRZGN9ZfjUBfo",
    "name": "Nico's Bar & Grill",
    "street_address": "22610 Loop 494",
    "city": "Houston",
    "state": "TX",
    "zip_code": "77339",
    "latitude": 30.0393884,
    "longitude": -95.2516167,
    "website": "https://www.nicosbarandgrill.com/",
    "category": "Bar & Restaurant",
    "types": "night_club, bar, restaurant, food, point_of_interest, establishment"
  },
  {
    "place_id": "ChIJ88uGB5WyQIYRiib8QAa40fQ",
    "name": "Z Z Gator Cove",
    "street_address": "733 Hamblen Road",
    "city": "Houston",
    "state": "TX",
    "zip_code": "77339",
    "latitude": 30.02924579999999,
    "longitude": -95.2449955,
    "website": "https://www.facebook.com/zzgators/",
    "category": "Bar & Restaurant",
    "types": "bar, restaurant, food, point_of_interest, establishment"
  },
  {
    "place_id": "ChIJEeum_p-zQIYRHtDx54TRNEY",
    "name": "BreWingZ Restaurant and Bar",
    "street_address": "9717 Farm to Market 1960 Bypass Road West",
    "city": "Humble",
    "state": "TX",
    "zip_code": "77338",
    "latitude": 30.0055764,
    "longitude": -95.27664229999999,
    "website": "https://www.brewingz.com/humble/",
    "category": "Bar & Restaurant",
    "types": "bar, restaurant, point_of_interest, food, establishment"
  },
  {
    "place_id": "ChIJx6erZ42zQIYRxBn316ChwOI",
    "name": "Dolphin Restaurant & Bar",
    "street_address": "6115 Will Clayton Parkway",
    "city": "Humble",
    "state": "TX",
    "zip_code": "77338",
    "latitude": 29.98474969999999,
    "longitude": -95.3002351,
    "website": "http://www.wyndhamhotels.com/hotel/30892",
    "category": "Bar & Restaurant",
    "types": "restaurant, bar, point_of_interest, food, establishment"
  },
  {
    "place_id": "ChIJNYgRBl6zQIYRVEsh4zqyKA8",
    "name": "The Cove Craft Beer and Wine",
    "street_address": "1101 Hamblen Road",
    "city": "Houston",
    "state": "TX",
    "zip_code": "77339",
    "latitude": 30.0291023,
    "longitude": -95.239746,
    "website": "http://thecovecraftbeerandwine.com/",
    "category": "Bar & Restaurant",
    "types": "bar, liquor_store, night_club, restaurant, point_of_interest, food, store, establishment"
  },
  {
    "place_id": "ChIJlawaBC-zQIYRvIRdkVUpkNQ",
    "name": "Aviator's Bar and Grill",
    "street_address": "18555 Kenswick Drive",
    "city": "Humble",
    "state": "TX",
    "zip_code": "77338",
    "latitude": 29.9870063,
    "longitude": -95.29664009999999,
    "website": "https://www.ihg.com/holidayinn/hotels/us/en/humble/houhh/hoteldetail/dining",
    "category": "Restaurant",
    "types": "restaurant, food, point_of_interest, establishment"
  },
  {
    "place_id": "ChIJhWxih_-yQIYRstWFx6eaL2A",
    "name": "Saltgrass Steak House",
    "street_address": "20090 U.S. 59",
    "city": "Humble",
    "state": "TX",
    "zip_code": "77338",
    "latitude": 30.0070431,
    "longitude": -95.2653983,
    "website": "https://www.saltgrass.com/location/saltgrass-humble/",
    "category": "Restaurant",
    "types": "restaurant, point_of_interest, food, establishment"
  }
]