[
  {
    "place_id": "ChIJ32XHvRm35YgRor03A03TE6s",
    "name": "Spliffs Gastropub",
    "street_address": "100 East Forsyth Street",
    "city": "Jacksonville",
    "state": "FL",
    "zip_code": "32202",
    "latitude": 30.3265637,
    "longitude": -81.65638299999999,
    "website": "http://www.spliffsgastropub.com/",
    "category": "Bar & Restaurant",
    "types": "bar, restaurant, food, point_of_interest, establishment"
  },
  {
    "place_id": "ChIJ-5WODZa35YgRuUKLLigHl1k",
    "name": "Front Runners Taphouse",
    "street_address": "3605 Philips Highway",
    "city": "Jacksonville",
    "state": "FL",
    "zip_code": "32207",
    "latitude": 30.2922235,
    "longitude": -81.6334296,
    "website": "http://frontrunnerstaphouse.com/",
    "category": "Bar & Restaurant",
    "types": "restaurant, bar, food, point_of_interest, establishment"
  },
  {
    "place_id": "ChIJ44kjbh205YgRIfy3QFJQ3Ns",
    "name": "Broken Spoke",
    "street_address": "1529 University Boulevard North",
    "city": "Jacksonville",
    "state": "FL",
    "zip_code": "32211",
    "latitude": 30.3362722,
    "longitude": -81.60231519999999,
    "website": "https://brokenspokejaxfl.com/",
    "category": "Bar & Restaurant",
    "types": "night_club, bar, restaurant, food, point_of_interest, establishment"
  },
  {
    "place_id": "ChIJm7S4c-G25YgRqIWmiqGYwCs",
    "name": "THAT BAR AT THE ARENA",
    "street_address": "234 A Philip Randolph Boulevard",
    "city": "Jacksonville",
    "state": "FL",
    "zip_code": "32202",
    "latitude": 30.3252294,
    "longitude": -81.6440669,
    "website": "https://www.facebook.com/ThatBarattheArena/",
    "category": "Bar & Restaurant",
    "types": "bar, restaurant, food, point_of_interest, establishment"
  },
  {
    "place_id": "ChIJieYxcdS55YgRxgg_YWa5BXk",
    "name": "Kickbacks Gastropub",
    "street_address": "910 King Street",
    "city": "Jacksonville",
    "state": "FL",
    "zip_code": "32204",
    "latitude": 30.3138795,
    "longitude": -81.6963091,
    "website": "http://www.kickbacksgastropub.com/",
    "category": "Bar & Restaurant",
    "types": "bar, restaurant, food, point_of_interest, establishment"
  },
  {
    "place_id": "ChIJb_h-2iK35YgR2HiX3tYyiNY",
    "name": "Pour Taproom: Jacksonville",
    "street_address": "61 North Laura Street",
    "city": "Jacksonville",
    "state": "FL",
    "zip_code": "32202",
    "latitude": 30.3271351,
    "longitude": -81.6591564,
    "website": "https://jaxpourtaproom.com/",
    "category": "Bar & Restaurant",
    "types": "bar, restaurant, food, point_of_interest, establishment"
  },
  {
    "place_id": "ChIJsWKc-3m35YgRBNeW84IFryI",
    "name": "Hoptinger Bier Garden & Sausage House",
    "street_address": "1037 Park Street",
    "city": "Jacksonville",
    "state": "FL",
    "zip_code": "32204",
    "latitude": 30.3144549,
    "longitude": -81.68075689999999,
    "website": "http://hoptinger.com/",
    "category": "Bar & Restaurant",
    "types": "bar, restaurant, food, point_of_interest, establishment"
  },
  {
    "place_id": "ChIJ2ZYjbAe35YgRLW0aseZaOW8",
    "name": "Hurricane Grill & Wings-San Marco",
    "street_address": "1615 Hendricks Avenue",
    "city": "Jacksonville",
    "state": "FL",
    "zip_code": "32207",
    "latitude": 30.30846769999999,
    "longitude": -81.65449079999999,
    "website": "https://locations.hurricanewings.com/ll/US/FL/Jacksonville/1615-Hendricks-Avenue",
    "category": "Bar & Restaurant",
    "types": "bar, restaurant, food, point_of_interest, establishment"
  },
  {
    "place_id": "ChIJ_6ecL3e35YgRC8tiZniNqDs",
    "name": "River & Post",
    "street_address": "1000 Riverside Avenue",
    "city": "Jacksonville",
    "state": "FL",
    "zip_code": "32204",
    "latitude": 30.31412429999999,
    "longitude": -81.6780187,
    "website": "http://www.riverandpostjax.com/",
    "category": "Bar & Restaurant",
    "types": "bar, restaurant, food, point_of_interest, establishment"
  },
  {
    "place_id": "ChIJDzL2cNS55YgR4WMyhY47LXI",
    "name": "Goozlepipe & Guttyworks",
    "street_address": "914 King Street",
    "city": "Jacksonville",
    "state": "FL",
    "zip_code": "32204",
    "latitude": 30.3137792,
    "longitude": -81.69623349999999,
    "website": "http://www.kickbacksgastropub.com/",
    "category": "Bar & Restaurant",
    "types": "restaurant, bar, food, point_of_interest, establishment"
  },
  {
    "place_id": "ChIJ9bZiviW35YgR_5Iy4ZtbkRQ",
    "name": "Uptown Kitchen & Bar",
    "street_address": "1303 North Main Street",
    "city": "Jacksonville",
    "state": "FL",
    "zip_code": "32206",
    "latitude": 30.3393132,
    "longitude": -81.6544361,
    "website": "https://www.uptownkitchenspringfield.com/",
    "category": "Restaurant",
    "types": "restaurant, food, point_of_interest, establishment"
  },
  {
    "place_id": "ChIJywButVS35YgRVY961ezhPvY",
    "name": "Fore Score San Marco",
    "street_address": "1407 Atlantic Boulevard",
    "city": "Jacksonville",
    "state": "FL",
    "zip_code": "32207",
    "latitude": 30.3046134,
    "longitude": -81.6544797,
    "website": "http://forescoregolf.com/",
    "category": "Bar & Restaurant",
    "types": "bar, restaurant, food, point_of_interest, establishment"
  },
  {
    "place_id": "ChIJWb_KnZq35YgRDbNmm580E0E",
    "name": "Prospect five points",
    "street_address": "1521 Margaret Street",
    "city": "Jacksonville",
    "state": "FL",
    "zip_code": "32204",
    "latitude": 30.3133098,
    "longitude": -81.680954,
    "website": "http://www.prospectfivepoint.com/",
    "category": "Bar & Restaurant",
    "types": "bar, restaurant, food, point_of_interest, establishment"
  },
  {
    "place_id": "ChIJAZB6vS635YgRWJY2il6igTE",
    "name": "Strings Sports Brewery",
    "street_address": "1850 North Main Street",
    "city": "Jacksonville",
    "state": "FL",
    "zip_code": "32206",
    "latitude": 30.34673249999999,
    "longitude": -81.6541551,
    "website": "https://stringssportsbrewery.com/",
    "category": "Restaurant",
    "types": "restaurant, food, point_of_interest, establishment"
  },
  {
    "place_id": "ChIJPcC6X9S55YgRLT6IdOFpImk",
    "name": "The Garage",
    "street_address": "2692 Post Street",
    "city": "Jacksonville",
    "state": "FL",
    "zip_code": "32204",
    "latitude": 30.3131196,
    "longitude": -81.6951249,
    "website": "https://www.facebook.com/garage.riversidespub/",
    "category": "Bar & Restaurant",
    "types": "bar, restaurant, food, point_of_interest, establishment"
  },
  {
    "place_id": "ChIJo03fYFO55YgRhXmJLtSuD9k",
    "name": "The Pour House",
    "street_address": "3325 Plymouth Street",
    "city": "Jacksonville",
    "state": "FL",
    "zip_code": "32205",
    "latitude": 30.3099335,
    "longitude": -81.7112135,
    "website": null,
    "category": "Bar & Restaurant",
    "types": "bar, restaurant, food, point_of_interest, establishment"
  },
  {
    "place_id": "ChIJG1J0u8235YgRvZWTUiXbgaM",
    "name": "Players Locker Room",
    "street_address": "4456 Hendricks Avenue",
    "city": "Jacksonville",
    "state": "FL",
    "zip_code": "32207",
    "latitude": 30.2748627,
    "longitude": -81.65100079999999,
    "website": "http://www.playerslockerroom.com/",
    "category": "Bar & Restaurant",
    "types": "restaurant, bar, food, point_of_interest, establishment"
  },
  {
    "place_id": "ChIJebmGDEC45YgRuP-OFfJ3-Go",
    "name": "Harps American Pub & Grill",
    "street_address": "4070 Herschel Street",
    "city": "Jacksonville",
    "state": "FL",
    "zip_code": "32210",
    "latitude": 30.2897073,
    "longitude": -81.71360330000002,
    "website": "http://www.harpsamericanpub.com/",
    "category": "Bar & Restaurant",
    "types": "restaurant, bar, food, point_of_interest, establishment"
  },
  {
    "place_id": "ChIJY8_avuTH5YgRs-kY2tvUX74",
    "name": "Lillian's Sports Grill",
    "street_address": "5393 Roosevelt Boulevard",
    "city": "Jacksonville",
    "state": "FL",
    "zip_code": "32210",
    "latitude": 30.2525,
    "longitude": -81.6983333,
    "website": "http://lillianssportsgrill.com/",
    "category": "Bar & Restaurant",
    "types": "restaurant, bar, food, point_of_interest, establishment"
  },
  {
    "place_id": "ChIJ-8WuoT-45YgRRVlH58GH69g",
    "name": "Ale Pie House",
    "street_address": "3951 Saint Johns Avenue",
    "city": "Jacksonville",
    "state": "FL",
    "zip_code": "32205",
    "latitude": 30.2908077,
    "longitude": -81.71141899999999,
    "website": "https://www.alepiehousefl.com/#/",
    "category": "Bar & Restaurant",
    "types": "bar, restaurant, food, point_of_interest, establishment"
  },
  {
    "place_id": "ChIJi9H8HuG35YgROXNwXiOFgsE",
    "name": "CHINA JOY 81",
    "street_address": "1650 Margaret Street",
    "city": "Jacksonville",
    "state": "FL",
    "zip_code": "32204",
    "latitude": 30.31173869999999,
    "longitude": -81.6809772,
    "website": "http://www.chinajoy81.com/",
    "category": "Restaurant",
    "types": "meal_takeaway, meal_delivery, restaurant, food, point_of_interest, establishment"
  },
  {
    "place_id": "ChIJy0H1dBe35YgR-hmDnJydnuQ",
    "name": "bellwether",
    "street_address": "117 West Forsyth Street",
    "city": "Jacksonville",
    "state": "FL",
    "zip_code": "32202",
    "latitude": 30.3276113,
    "longitude": -81.659926,
    "website": "https://www.bellwetherjax.com/",
    "category": "Restaurant",
    "types": "restaurant, food, point_of_interest, establishment"
  },
  {
    "place_id": "ChIJecuv-rW35YgRB_P1NrdqPl4",
    "name": "Southern Grounds & Co.",
    "street_address": "1671 Atlantic Boulevard",
    "city": "Jacksonville",
    "state": "FL",
    "zip_code": "32207",
    "latitude": 30.30674230000001,
    "longitude": -81.65017259999999,
    "website": "https://tinyurl.com/5988py7h",
    "category": "Bar & Restaurant",
    "types": "cafe, bakery, bar, store, restaurant, food, point_of_interest, establishment"
  },
  {
    "place_id": "ChIJp-TDaQW35YgR8tau1kFDrJY",
    "name": "The Southern Grill",
    "street_address": "800 Flagler Avenue",
    "city": "Jacksonville",
    "state": "FL",
    "zip_code": "32207",
    "latitude": 30.31765729999999,
    "longitude": -81.6574878,
    "website": "http://thesoutherngrilljax.com/",
    "category": "Restaurant",
    "types": "restaurant, food, point_of_interest, establishment"
  },
  {
    "place_id": "ChIJpYVizxm35YgRrgStzLsNwzM",
    "name": "Lily's Asian-American Food",
    "street_address": "11 East Forsyth Street",
    "city": "Jacksonville",
    "state": "FL",
    "zip_code": "32202",
    "latitude": 30.32705689999999,
    "longitude": -81.6574365,
    "website": "https://www.lilysasianamericanfood.com/",
    "category": "Restaurant",
    "types": "restaurant, food, point_of_interest, establishment"
  },
  {
    "place_id": "ChIJtZwq0yq45YgRZQrVpFt1vqU",
    "name": "Lola's Burrito & Burger Joint",
    "street_address": "1522 King Street",
    "city": "Jacksonville",
    "state": "FL",
    "zip_code": "32205",
    "latitude": 30.30997379999999,
    "longitude": -81.6934374,
    "website": "https://lolasburritojoint.com/",
    "category": "Bar & Restaurant",
    "types": "bar, restaurant, food, point_of_interest, establishment"
  },
  {
    "place_id": "ChIJmX6_VAnJ5YgRNnxHZp1TVNw",
    "name": "Cowtown Tavern",
    "street_address": "1610 University Boulevard West",
    "city": "Jacksonville",
    "state": "FL",
    "zip_code": "32217",
    "latitude": 30.26003309999999,
    "longitude": -81.64317109999999,
    "website": "http://cowtowntavern.com/",
    "category": "Bar & Restaurant",
    "types": "bar, restaurant, food, point_of_interest, establishment"
  },
  {
    "place_id": "ChIJVwWR4z9J5IgRYQxy6LTbnX4",
    "name": "LandShark Bar & Grill - Jacksonville Beach",
    "street_address": "715 1st Street North",
    "city": "Jacksonville Beach",
    "state": "FL",
    "zip_code": "32250",
    "latitude": 30.29550019999999,
    "longitude": -81.39071799999999,
    "website": "https://www.margaritavilleresorts.com/margaritaville-hotel-jacksonville-beach/eat-drink/landshark-bar-grill?utm_source=google&utm_medium=listing&utm_campaign=margaritaville+beach+hotel+jacksonville+landshark+bar+and+grill",
    "category": "Bar & Restaurant",
    "types": "bar, restaurant, point_of_interest, food, establishment"
  },
  {
    "place_id": "ChIJ1y5EbwdJ5IgRv8Yt95PIGlM",
    "name": "Brix Taphouse",
    "street_address": "300 2nd Street North",
    "city": "Jacksonville Beach",
    "state": "FL",
    "zip_code": "32250",
    "latitude": 30.2912294,
    "longitude": -81.3912995,
    "website": "http://jacksonvillebeachbar.com/",
    "category": "Bar & Restaurant",
    "types": "bar, restaurant, point_of_interest, food, establishment"
  },
  {
    "place_id": "ChIJ1dFZSpVJ5IgR6ArizLlRhM4",
    "name": "Sandbar Jax Bch",
    "street_address": "465 1st Street North",
    "city": "Jacksonville Beach",
    "state": "FL",
    "zip_code": "32250",
    "latitude": 30.2930597,
    "longitude": -81.38981799999999,
    "website": "https://www.jaxbeachsandbar.com/",
    "category": "Restaurant",
    "types": "restaurant, food, point_of_interest, establishment"
  },
  {
    "place_id": "ChIJpedTA0ZJ5IgRY6lyzlK74hk",
    "name": "Culhane's Irish Pub & Restaurant",
    "street_address": "967 Atlantic Boulevard",
    "city": "Atlantic Beach",
    "state": "FL",
    "zip_code": "32233",
    "latitude": 30.32570359999999,
    "longitude": -81.41061049999999,
    "website": "https://www.culhanesirishpub.com/",
    "category": "Bar & Restaurant",
    "types": "bar, restaurant, food, point_of_interest, establishment"
  },
  {
    "place_id": "ChIJO3zzNgdJ5IgRHJnlhu6pUu0",
    "name": "Hoptinger Bier Garden & Sausage House",
    "street_address": "333 1st Street North",
    "city": "Jacksonville Beach",
    "state": "FL",
    "zip_code": "32250",
    "latitude": 30.2919064,
    "longitude": -81.3899543,
    "website": "http://hoptinger.com/",
    "category": "Bar & Restaurant",
    "types": "bar, restaurant, food, point_of_interest, establishment"
  },
  {
    "place_id": "ChIJ_VcveTpJ5IgR-HO4fw7LiFY",
    "name": "Poe's Tavern",
    "street_address": "363 Atlantic Boulevard",
    "city": "Atlantic Beach",
    "state": "FL",
    "zip_code": "32233",
    "latitude": 30.32493919999999,
    "longitude": -81.3977235,
    "website": "https://www.poestavern.com/",
    "category": "Bar & Restaurant",
    "types": "bar, restaurant, point_of_interest, food, establishment"
  },
  {
    "place_id": "ChIJ3x9lGZ9J5IgRUhqAvSAb_sM",
    "name": "Engine 15 Brewing Co.",
    "street_address": "1500 Beach Boulevard",
    "city": "Jacksonville Beach",
    "state": "FL",
    "zip_code": "32250",
    "latitude": 30.2875133,
    "longitude": -81.40862349999999,
    "website": "http://engine15.com/",
    "category": "Bar & Restaurant",
    "types": "bar, restaurant, food, point_of_interest, establishment"
  },
  {
    "place_id": "ChIJ--vjEEVJ5IgROs251sGZUEU",
    "name": "Wipeouts Grill",
    "street_address": "1585 Atlantic Boulevard",
    "city": "Neptune Beach",
    "state": "FL",
    "zip_code": "32266",
    "latitude": 30.32387349999999,
    "longitude": -81.41595459999999,
    "website": "http://www.wipeouts-grill.com/",
    "category": "Bar & Restaurant",
    "types": "bar, restaurant, food, point_of_interest, establishment"
  },
  {
    "place_id": "ChIJKZXfhgdJ5IgRWqvPUwpWd8I",
    "name": "Green Room Brewing, LLC",
    "street_address": "228 3rd Street North",
    "city": "Jacksonville Beach",
    "state": "FL",
    "zip_code": "32250",
    "latitude": 30.2907299,
    "longitude": -81.3925919,
    "website": "http://www.greenroombrewing.com/",
    "category": "Bar & Restaurant",
    "types": "bar, restaurant, point_of_interest, food, establishment"
  },
  {
    "place_id": "ChIJCVvEPLRJ5IgRCHMihtzH4kU",
    "name": "Monkey's Uncle Tavern",
    "street_address": "1728 3rd Street North",
    "city": "Jacksonville Beach",
    "state": "FL",
    "zip_code": "32250",
    "latitude": 30.30459269999999,
    "longitude": -81.3959572,
    "website": "http://www.monkeysuncletavern.com/",
    "category": "Bar & Restaurant",
    "types": "bar, night_club, restaurant, food, point_of_interest, establishment"
  },
  {
    "place_id": "ChIJ3x9lGZ9J5IgRYvLqqqVdsHA",
    "name": "Mojo Kitchen, BBQ Pit & Blues Bar",
    "street_address": "1500 Beach Boulevard",
    "city": "Jacksonville",
    "state": "FL",
    "zip_code": "32250",
    "latitude": 30.2875579,
    "longitude": -81.40740900000002,
    "website": "https://www.mojobbq.com/",
    "category": "Bar & Restaurant",
    "types": "bar, restaurant, food, point_of_interest, establishment"
  },
  {
    "place_id": "ChIJ2Xbn2rJO5IgRoJmNDknyfy0",
    "name": "Voo Swar Restaurant & Lounge",
    "street_address": "51 Robert Street",
    "city": "Atlantic Beach",
    "state": "FL",
    "zip_code": "32233",
    "latitude": 30.3384945,
    "longitude": -81.4147467,
    "website": "https://www.facebook.com/Voo-Swar-Restaurant-Lounge-292311407555294/info?tab=overview",
    "category": "Bar & Restaurant",
    "types": "night_club, bar, restaurant, food, point_of_interest, establishment"
  },
  {
    "place_id": "ChIJWZWuwDpJ5IgRp6FCx9zZ0yU",
    "name": "Sliders Oyster Bar",
    "street_address": "218 First Street",
    "city": "Neptune Beach",
    "state": "FL",
    "zip_code": "32266",
    "latitude": 30.323096,
    "longitude": -81.396211,
    "website": "https://www.slidersoysterbar.com/",
    "category": "Bar & Restaurant",
    "types": "bar, restaurant, food, point_of_interest, establishment"
  },
  {
    "place_id": "ChIJGdxBsjpJ5IgRjcdwuEc46b4",
    "name": "Lemon Bar",
    "street_address": "2 Lemon Street",
    "city": "Neptune Beach",
    "state": "FL",
    "zip_code": "32266",
    "latitude": 30.3239209,
    "longitude": -81.3950309,
    "website": "http://lemonbarjax.com/",
    "category": "Bar & Restaurant",
    "types": "restaurant, bar, point_of_interest, food, establishment"
  },
  {
    "place_id": "ChIJNQtlWkZJ5IgRazgI_6kzFRM",
    "name": "ABBQ",
    "street_address": "461 Atlantic Boulevard",
    "city": "Atlantic Beach",
    "state": "FL",
    "zip_code": "32233",
    "latitude": 30.324987,
    "longitude": -81.40146899999999,
    "website": "https://www.abbqmeatdrink.com/",
    "category": "Restaurant",
    "types": "restaurant, food, point_of_interest, establishment"
  },
  {
    "place_id": "ChIJSXHYi6lJ5IgRwkiEp4B8v1c",
    "name": "Sneakers Sports Grille",
    "street_address": "111 Beach Boulevard",
    "city": "Jacksonville Beach",
    "state": "FL",
    "zip_code": "32250",
    "latitude": 30.2887523,
    "longitude": -81.38977760000002,
    "website": "http://sneakerssportsgrille.com/",
    "category": "Bar & Restaurant",
    "types": "bar, restaurant, food, point_of_interest, establishment"
  },
  {
    "place_id": "ChIJ_wPp7ldJ5IgRoZ_Y5yq2pyI",
    "name": "RP's Fine Food & Drink",
    "street_address": "1183 Beach Boulevard",
    "city": "Jacksonville Beach",
    "state": "FL",
    "zip_code": "32250",
    "latitude": 30.2886313,
    "longitude": -81.40292339999999,
    "website": "http://rpsjaxbeach.com/",
    "category": "Restaurant",
    "types": "restaurant, food, point_of_interest, establishment"
  },
  {
    "place_id": "ChIJT6LaWQZJ5IgRL64EKgvxyWM",
    "name": "Graffiti American Burger Bar",
    "street_address": "265 5th Avenue North",
    "city": "Jacksonville Beach",
    "state": "FL",
    "zip_code": "32250",
    "latitude": 30.294147,
    "longitude": -81.39256499999999,
    "website": "http://www.graffitiamericanburgerbar.com/",
    "category": "Bar & Restaurant",
    "types": "bar, restaurant, point_of_interest, food, establishment"
  },
  {
    "place_id": "ChIJEa9dPjhJ5IgRIhKJkL2Btgc",
    "name": "Hurricane Grill & Wings-Neptune Beach",
    "street_address": "628-6 Atlantic Boulevard",
    "city": "Neptune Beach",
    "state": "FL",
    "zip_code": "32266",
    "latitude": 30.32403400000001,
    "longitude": -81.40478089999999,
    "website": "https://locations.hurricanewings.com/ll/US/FL/Neptune-Beach/628~6-Atlantic-Blvd",
    "category": "Bar & Restaurant",
    "types": "bar, restaurant, food, point_of_interest, establishment"
  },
  {
    "place_id": "ChIJO33UrhpJ5IgRwKs-h1zgaKk",
    "name": "Philly's Finest",
    "street_address": "1527 3rd Street North",
    "city": "Jacksonville Beach",
    "state": "FL",
    "zip_code": "32250",
    "latitude": 30.3025498,
    "longitude": -81.3939628,
    "website": "http://www.phillys-finest.com/",
    "category": "Bar & Restaurant",
    "types": "restaurant, meal_takeaway, bar, food, point_of_interest, establishment"
  },
  {
    "place_id": "ChIJLcdQYco35IgRQNF5S6Dfvn8",
    "name": "Ponte Vedra Tap Room",
    "street_address": "155 Tourside Drive",
    "city": "Palm Valley",
    "state": "FL",
    "zip_code": "32082",
    "latitude": 30.2051374,
    "longitude": -81.38303069999999,
    "website": "https://pvtaproom.com/",
    "category": "Bar & Restaurant",
    "types": "bar, restaurant, food, point_of_interest, establishment"
  },
  {
    "place_id": "ChIJU56YSlM25IgREOaGcLBYAqQ",
    "name": "Mulligan's Pub",
    "street_address": "43 Tournament Players Club Boulevard",
    "city": "Palm Valley",
    "state": "FL",
    "zip_code": "32082",
    "latitude": 30.2053124,
    "longitude": -81.38378139999999,
    "website": "http://www.mulliganspvbpub.com/",
    "category": "Bar & Restaurant",
    "types": "bar, restaurant, food, point_of_interest, establishment"
  },
  {
    "place_id": "ChIJ1fgJvlQ25IgR1qy55Ae0ww4",
    "name": "Alice and Pete's",
    "street_address": "1000 Tournament Players Club Boulevard",
    "city": "Palm Valley",
    "state": "FL",
    "zip_code": "32082",
    "latitude": 30.2022377,
    "longitude": -81.3859818,
    "website": "https://www.marriott.com/en-us/hotels/jaxsw-sawgrass-marriott-golf-resort-and-spa/dining/?scid=feed67b0-9a2f-4de1-8df6-114544116108",
    "category": "Bar & Restaurant",
    "types": "restaurant, bar, food, point_of_interest, establishment"
  },
  {
    "place_id": "ChIJa5l6kqw35IgRq3C5orGVlnk",
    "name": "Nona Blue Modern Tavern",
    "street_address": "325 Front Street",
    "city": "Palm Valley",
    "state": "FL",
    "zip_code": "32082",
    "latitude": 30.2048401,
    "longitude": -81.3815071,
    "website": "http://www.nonablue.com/",
    "category": "Bar & Restaurant",
    "types": "bar, restaurant, food, point_of_interest, establishment"
  },
  {
    "place_id": "ChIJA9unhXcm5IgRkvhA9p-ALfs",
    "name": "Pusser's Bar & Grille Ponte Vedra Beach Restaurant",
    "street_address": "A1A North",
    "city": "Palm Valley",
    "state": "FL",
    "zip_code": "32082",
    "latitude": 30.2011982,
    "longitude": -81.3813648,
    "website": "http://pusserspvb.com/",
    "category": "Bar & Restaurant",
    "types": "bar, restaurant, food, point_of_interest, establishment"
  },
  {
    "place_id": "ChIJy3TTqzE35IgRTqP3X_aCJk0",
    "name": "Argyle Restaurant",
    "street_address": "254 Alta Mar Drive",
    "city": "Palm Valley",
    "state": "FL",
    "zip_code": "32082",
    "latitude": 30.2149174,
    "longitude": -81.39056769999999,
    "website": "https://argylepvb.com/?utm_source=google",
    "category": "Restaurant",
    "types": "restaurant, food, point_of_interest, establishment"
  },
  {
    "place_id": "ChIJRQw4SiI35IgRSAIrKfRvWEg",
    "name": "1912 Ocean Bar & Rooftop",
    "street_address": "619 Ponte Vedra Boulevard",
    "city": "Sawgrass",
    "state": "FL",
    "zip_code": "32082",
    "latitude": 30.2171646,
    "longitude": -81.3714758,
    "website": "http://www.1912oceanbarandrooftop.com/",
    "category": "Bar & Restaurant",
    "types": "bar, restaurant, food, point_of_interest, establishment"
  },
  {
    "place_id": "ChIJi4kmB7ZJ5IgRFiPRVhfXJ3o",
    "name": "Bonefish Grill",
    "street_address": "2400 3rd Street South",
    "city": "Jacksonville Beach",
    "state": "FL",
    "zip_code": "32250",
    "latitude": 30.2678546,
    "longitude": -81.3901138,
    "website": "https://locations.bonefishgrill.com/florida/jacksonville-beach/2400-s.-3rd-street?y_source=1_MTU1MDI3NDMtNzE1LWxvY2F0aW9uLndlYnNpdGU%3D",
    "category": "Bar & Restaurant",
    "types": "meal_takeaway, bar, restaurant, food, point_of_interest, establishment"
  },
  {
    "place_id": "ChIJEV8Khm7G5YgRlBsPbTDW3BM",
    "name": "Locals Pub",
    "street_address": "1580 Wells Road",
    "city": "Orange Park",
    "state": "FL",
    "zip_code": "32073",
    "latitude": 30.1890744,
    "longitude": -81.7183338,
    "website": "http://www.localspub.co/",
    "category": "Bar & Restaurant",
    "types": "bar, restaurant, food, point_of_interest, establishment"
  },
  {
    "place_id": "ChIJM8cE1QfG5YgRFWvVnZkxrB0",
    "name": "Cheers Park Avenue",
    "street_address": "1138 Park Avenue",
    "city": "Orange Park",
    "state": "FL",
    "zip_code": "32073",
    "latitude": 30.1757622,
    "longitude": -81.7019196,
    "website": "https://cheersparkavenue.takeout7.com/",
    "category": "Bar & Restaurant",
    "types": "restaurant, bar, food, point_of_interest, establishment"
  },
  {
    "place_id": "ChIJS-rrzGTG5YgRWumB2IrQwq0",
    "name": "Miller's Ale House",
    "street_address": "1756 Wells Road",
    "city": "Orange Park",
    "state": "FL",
    "zip_code": "32073",
    "latitude": 30.185194,
    "longitude": -81.7282005,
    "website": "https://millersalehouse.com/locations/orange-park/?utm_source=gmb&utm_medium=organic",
    "category": "Bar & Restaurant",
    "types": "restaurant, meal_takeaway, bar, food, point_of_interest, establishment"
  },
  {
    "place_id": "ChIJLzUK7aPH5YgRSqH8yd8B03A",
    "name": "LeaderBoard Arcade Bar & Pizzeria",
    "street_address": "1760 Wells Road",
    "city": "Orange Park",
    "state": "FL",
    "zip_code": "32073",
    "latitude": 30.1860693,
    "longitude": -81.7284014,
    "website": "http://www.leaderboardarcade.com/",
    "category": "Bar & Restaurant",
    "types": "bar, restaurant, food, point_of_interest, establishment"
  },
  {
    "place_id": "ChIJ00hIFvvF5YgRcxyLdB_2UzE",
    "name": "The Urban Bean Coffeehouse Cafe",
    "street_address": "2023 Park Avenue",
    "city": "Orange Park",
    "state": "FL",
    "zip_code": "32073",
    "latitude": 30.1653202,
    "longitude": -81.70077979999999,
    "website": "https://www.theurbanbeancoffeehouse.com/",
    "category": "Restaurant",
    "types": "restaurant, bakery, cafe, store, food, point_of_interest, establishment"
  },
  {
    "place_id": "ChIJg-U0JIbG5YgRICYDX8x8zoQ",
    "name": "Buffalo Wild Wings",
    "street_address": "1940 Wells Road",
    "city": "Orange Park",
    "state": "FL",
    "zip_code": "32073",
    "latitude": 30.1865057,
    "longitude": -81.738148,
    "website": "https://www.buffalowildwings.com/locations/us/fl/orange-park/1940-wells-rd/sports-bar-762?utm_source=google%20my%20business&utm_medium=organic&utm_campaign=website%20link",
    "category": "Bar & Restaurant",
    "types": "meal_takeaway, bar, restaurant, food, point_of_interest, establishment"
  },
  {
    "place_id": "ChIJPWguBMXF5YgRQJdD1OxIAUc",
    "name": "Wicked Batter Cafe",
    "street_address": "6000 Lake Gray Boulevard",
    "city": "Jacksonville",
    "state": "FL",
    "zip_code": "32244",
    "latitude": 30.1985451,
    "longitude": -81.7415481,
    "website": "https://wickedbattercafe.com/",
    "category": "Restaurant",
    "types": "cafe, bakery, store, restaurant, food, point_of_interest, establishment"
  },
  {
    "place_id": "ChIJl3Ouz-XJ5YgRwPPn31kfAUs",
    "name": "Players Grille - Mandarin",
    "street_address": "10140 San Jose Boulevard",
    "city": "Jacksonville",
    "state": "FL",
    "zip_code": "32257",
    "latitude": 30.1938231,
    "longitude": -81.62504299999999,
    "website": "http://www.playersgrille.com/",
    "category": "Bar & Restaurant",
    "types": "restaurant, bar, food, point_of_interest, establishment"
  },
  {
    "place_id": "ChIJF1WzhIrO5YgR39GRM7rze2A",
    "name": "Iggy's Grill and Bar",
    "street_address": "104 Bartram Oaks Walk",
    "city": "Fruit Cove",
    "state": "FL",
    "zip_code": "32259",
    "latitude": 30.1229644,
    "longitude": -81.6234089,
    "website": "http://www.iggysgrill.com/",
    "category": "Bar & Restaurant",
    "types": "bar, restaurant, food, point_of_interest, establishment"
  },
  {
    "place_id": "ChIJr6m6HTTJ5YgRz34e0gCS0h4",
    "name": "Miller's Ale House",
    "street_address": "11112 San Jose Boulevard",
    "city": "Jacksonville",
    "state": "FL",
    "zip_code": "32223",
    "latitude": 30.173934,
    "longitude": -81.63021289999999,
    "website": "https://millersalehouse.com/locations/jacksonville-mandarin/?utm_source=gmb&utm_medium=organic",
    "category": "Bar & Restaurant",
    "types": "restaurant, meal_takeaway, bar, food, point_of_interest, establishment"
  },
  {
    "place_id": "ChIJs_xNJ7_J5YgRWh6uQ_1fmdE",
    "name": "Electric Nights Bar and Grille",
    "street_address": "10092 San Jose Boulevard",
    "city": "Jacksonville",
    "state": "FL",
    "zip_code": "32257",
    "latitude": 30.1954062,
    "longitude": -81.6239575,
    "website": null,
    "category": "Bar & Restaurant",
    "types": "bar, restaurant, food, point_of_interest, establishment"
  },
  {
    "place_id": "ChIJk3n3Fu7O5YgR2IumYjf4fqo",
    "name": "Hurricane Grill & Wings-Julington Creek",
    "street_address": "12795 San Jose Boulevard",
    "city": "Jacksonville",
    "state": "FL",
    "zip_code": "32223",
    "latitude": 30.1351383,
    "longitude": -81.6312289,
    "website": "https://locations.hurricanewings.com/ll/US/FL/Jacksonville/12795-San-Jose-Blvd",
    "category": "Bar & Restaurant",
    "types": "bar, restaurant, point_of_interest, food, establishment"
  },
  {
    "place_id": "ChIJWSkECHfP5YgRToWA6SMpsAg",
    "name": "The MUSE Bourbon Bar & Grill",
    "street_address": "11475 San Jose Boulevard",
    "city": "Jacksonville",
    "state": "FL",
    "zip_code": "32223",
    "latitude": 30.1649038,
    "longitude": -81.63208279999999,
    "website": "http://musebourbonbar.com/",
    "category": "Bar & Restaurant",
    "types": "art_gallery, bar, restaurant, food, point_of_interest, establishment"
  },
  {
    "place_id": "ChIJQUtXGADM5YgR24_8rvPOOso",
    "name": "Rack'em Up Sports Bar & Billiards",
    "street_address": "4268 Oldfield Crossing Drive",
    "city": "Jacksonville",
    "state": "FL",
    "zip_code": "32223",
    "latitude": 30.165454,
    "longitude": -81.60332500000001,
    "website": "https://rackemupsportsbar.com/",
    "category": "Bar & Restaurant",
    "types": "night_club, bar, restaurant, food, point_of_interest, establishment"
  },
  {
    "place_id": "ChIJfRpOoIrO5YgREUAYlFXgU7w",
    "name": "Moon Dog Pie House",
    "street_address": "116 Bartram Oaks Walk",
    "city": "Fruit Cove",
    "state": "FL",
    "zip_code": "32259",
    "latitude": 30.12394199999999,
    "longitude": -81.6238084,
    "website": "https://moondogpiehouse.com/",
    "category": "Bar & Restaurant",
    "types": "meal_takeaway, meal_delivery, bar, restaurant, point_of_interest, food, establishment"
  },
  {
    "place_id": "ChIJEWVINQDJ5YgRE-4kr01xdto",
    "name": "Andrew\u2019s territory",
    "street_address": "11111 San Jose Boulevard",
    "city": "Jacksonville",
    "state": "FL",
    "zip_code": "32223",
    "latitude": 30.1735215,
    "longitude": -81.6263098,
    "website": null,
    "category": "Restaurant",
    "types": "restaurant, food, point_of_interest, establishment"
  },
  {
    "place_id": "ChIJr3Oy5TbJ5YgRnC7WfO3LHgs",
    "name": "Bonefish Grill",
    "street_address": "10950 San Jose Boulevard",
    "city": "Jacksonville",
    "state": "FL",
    "zip_code": "32223",
    "latitude": 30.1756749,
    "longitude": -81.6296693,
    "website": "https://locations.bonefishgrill.com/florida/jacksonville/10950-san-jose-boulevard?y_source=1_MTU1MDI3MDYtNzE1LWxvY2F0aW9uLndlYnNpdGU%3D",
    "category": "Bar & Restaurant",
    "types": "meal_takeaway, bar, restaurant, food, point_of_interest, establishment"
  },
  {
    "place_id": "ChIJ82CJomDO5YgRTmI6zq1kB28",
    "name": "Gator's Dockside St. Johns",
    "street_address": "485 Florida 13",
    "city": "Fruit Cove",
    "state": "FL",
    "zip_code": "32259",
    "latitude": 30.118092,
    "longitude": -81.6247849,
    "website": "http://www.gatorsdockside.com/",
    "category": "Bar & Restaurant",
    "types": "bar, restaurant, food, point_of_interest, establishment"
  },
  {
    "place_id": "ChIJaW9YMnPP5YgRWIShzbo0AQA",
    "name": "Back 40 Urban Fresh",
    "street_address": "450 State Road 13 North",
    "city": "Fruit Cove",
    "state": "FL",
    "zip_code": "32259",
    "latitude": 30.11867610000001,
    "longitude": -81.6268347,
    "website": "https://www.back40urbanfresh.com/",
    "category": "Bar & Restaurant",
    "types": "bar, restaurant, point_of_interest, food, establishment"
  },
  {
    "place_id": "ChIJWReGdPjK5YgRmgoZ_GNxi_4",
    "name": "My Place Bar & Grill",
    "street_address": "9550 Baymeadows Road",
    "city": "Jacksonville",
    "state": "FL",
    "zip_code": "32256",
    "latitude": 30.2193653,
    "longitude": -81.5599186,
    "website": "http://facebook.com/mp.baymeadows",
    "category": "Bar & Restaurant",
    "types": "bar, restaurant, food, point_of_interest, establishment"
  },
  {
    "place_id": "ChIJNydcnBLL5YgRx9FjHSLp-Zk",
    "name": "World of Beer Jacksonville Southpoint",
    "street_address": "5105 J Turner Butler Boulevard",
    "city": "Jacksonville",
    "state": "FL",
    "zip_code": "32216",
    "latitude": 30.2461477,
    "longitude": -81.5976996,
    "website": "https://worldofbeer.com/locations/jacksonville-southpoint/",
    "category": "Restaurant",
    "types": "restaurant, food, point_of_interest, establishment"
  },
  {
    "place_id": "ChIJuWv6DvjK5YgR7BT3dbx5gHo",
    "name": "My Tap Room",
    "street_address": "9550 Baymeadows Road",
    "city": "Jacksonville",
    "state": "FL",
    "zip_code": "32256",
    "latitude": 30.2195052,
    "longitude": -81.56000639999999,
    "website": "https://m.facebook.com/MyTapRoom/",
    "category": "Bar & Restaurant",
    "types": "bar, restaurant, point_of_interest, food, establishment"
  },
  {
    "place_id": "ChIJDXqGyHm15YgRsk_d2xNZJ3g",
    "name": "Miller's Ale House",
    "street_address": "10334 Southside Boulevard",
    "city": "Jacksonville",
    "state": "FL",
    "zip_code": "32256",
    "latitude": 30.1798515,
    "longitude": -81.5524244,
    "website": "https://millersalehouse.com/locations/jacksonville-avenues/?utm_source=gmb&utm_medium=organic",
    "category": "Bar & Restaurant",
    "types": "restaurant, meal_takeaway, bar, food, point_of_interest, establishment"
  },
  {
    "place_id": "ChIJ7fmHYRDL5YgRGEUTNlb2U1Y",
    "name": "Champion\u2019s Mexican Sports Bar",
    "street_address": "10920 Baymeadows Road",
    "city": "Jacksonville",
    "state": "FL",
    "zip_code": "32256",
    "latitude": 30.214454,
    "longitude": -81.5173645,
    "website": "http://championsmsbjax.com/",
    "category": "Bar & Restaurant",
    "types": "bar, restaurant, food, point_of_interest, establishment"
  },
  {
    "place_id": "ChIJB5PzpHbL5YgRMiLEjpJeo-o",
    "name": "Main Event Jacksonville",
    "street_address": "10370 Philips Highway",
    "city": "Jacksonville",
    "state": "FL",
    "zip_code": "32256",
    "latitude": 30.1802127,
    "longitude": -81.555066,
    "website": "http://www.mainevent.com/locations/florida/jacksonville",
    "category": "Restaurant",
    "types": "restaurant, bowling_alley, point_of_interest, food, establishment"
  },
  {
    "place_id": "ChIJ08mhJ6LK5YgRnCsKU9Yt_zI",
    "name": "BJ's Restaurant & Brewhouse",
    "street_address": "4907 Gate Parkway",
    "city": "Jacksonville",
    "state": "FL",
    "zip_code": "32246",
    "latitude": 30.2521041,
    "longitude": -81.53534359999999,
    "website": "https://www.bjsrestaurants.com/locations/fl/jacksonville?utm_source=google&utm_medium=organic&utm_campaign=google_my_business",
    "category": "Bar & Restaurant",
    "types": "restaurant, bar, food, point_of_interest, establishment"
  },
  {
    "place_id": "ChIJq6pqNVfK5YgRyKUdf_nap-w",
    "name": "Chelsea's Bar & Grille",
    "street_address": "9300 Baymeadows Road",
    "city": "Jacksonville",
    "state": "FL",
    "zip_code": "32256",
    "latitude": 30.2200208,
    "longitude": -81.5649682,
    "website": null,
    "category": "Bar & Restaurant",
    "types": "bar, restaurant, food, point_of_interest, establishment"
  },
  {
    "place_id": "ChIJkfi4GgPK5YgR-ryUaW9WiPQ",
    "name": "The Bistro - Eat. Drink. Connect.\u00ae",
    "street_address": "4670 South Lenoir Avenue",
    "city": "Jacksonville",
    "state": "FL",
    "zip_code": "32216",
    "latitude": 30.2489732,
    "longitude": -81.5965939,
    "website": "https://www.marriott.com/hotels/hotel-information/restaurant/jaxch-courtyard-jacksonville-butler-boulevard/?scid=f2ae0541-1279-4f24-b197-a979c79310b0",
    "category": "Restaurant",
    "types": "restaurant, food, point_of_interest, establishment"
  },
  {
    "place_id": "ChIJS-sPDTDK5YgRTKOenjlGAb4",
    "name": "Trio Hookah Lounge",
    "street_address": "8725 Old Kings Road South",
    "city": "Jacksonville",
    "state": "FL",
    "zip_code": "32217",
    "latitude": 30.22216939999999,
    "longitude": -81.592772,
    "website": "http://triohookahlounge.com/",
    "category": "Bar & Restaurant",
    "types": "bar, night_club, restaurant, food, point_of_interest, establishment"
  },
  {
    "place_id": "ChIJKfKkH1jK5YgRCiZLUqtRzk0",
    "name": "5th Element Taste of India",
    "street_address": "9551 Baymeadows Road",
    "city": "Jacksonville",
    "state": "FL",
    "zip_code": "32256",
    "latitude": 30.2218699,
    "longitude": -81.55992169999999,
    "website": "https://my5thelement.com/jacksonville/",
    "category": "Bar & Restaurant",
    "types": "bar, restaurant, food, point_of_interest, establishment"
  },
  {
    "place_id": "ChIJ69vdu3m15YgREXbz-VbV054",
    "name": "Miller's Ale House",
    "street_address": "9711 Deer Lake Court",
    "city": "Jacksonville",
    "state": "FL",
    "zip_code": "32246",
    "latitude": 30.2657309,
    "longitude": -81.556386,
    "website": "https://millersalehouse.com/locations/jacksonville-southside/?utm_source=gmb&utm_medium=organic",
    "category": "Bar & Restaurant",
    "types": "restaurant, meal_takeaway, bar, food, point_of_interest, establishment"
  },
  {
    "place_id": "ChIJ6eef0-K15YgRKreu3urhrAE",
    "name": "Culhane's Irish Pub & Restaurant",
    "street_address": "9720 Deer Lake Court",
    "city": "Jacksonville",
    "state": "FL",
    "zip_code": "32246",
    "latitude": 30.26471450000001,
    "longitude": -81.555572,
    "website": "https://www.culhanesirishpub.com/",
    "category": "Bar & Restaurant",
    "types": "bar, restaurant, food, point_of_interest, establishment"
  },
  {
    "place_id": "ChIJsfbzIajK5YgRp0Ki-011vhg",
    "name": "J. Alexander's Restaurant",
    "street_address": "10296 Bistro Drive",
    "city": "Jacksonville",
    "state": "FL",
    "zip_code": "32246",
    "latitude": 30.2528021,
    "longitude": -81.5249706,
    "website": "https://jalexanders.com/",
    "category": "Bar & Restaurant",
    "types": "bar, restaurant, food, point_of_interest, establishment"
  },
  {
    "place_id": "ChIJVSGHz93L5YgRhPSThZfUNc8",
    "name": "K1 Paddock Lounge - Sports Bar & Restaurant",
    "street_address": "6601 Executive Park Court North",
    "city": "Jacksonville",
    "state": "FL",
    "zip_code": "32216",
    "latitude": 30.2553288,
    "longitude": -81.60202269999999,
    "website": null,
    "category": "Bar & Restaurant",
    "types": "bar, restaurant, food, point_of_interest, establishment"
  },
  {
    "place_id": "ChIJTR4Kx7vU5YgRwbte59Znamg",
    "name": "Tommy Bahama Marlin Bar & Store",
    "street_address": "4812 River City Drive",
    "city": "Jacksonville",
    "state": "FL",
    "zip_code": "32246",
    "latitude": 30.2537349,
    "longitude": -81.5255743,
    "website": "http://www.tommybahama.com/en/store/Jacksonville?lat=30.3093218&long=-81.5047772",
    "category": "Bar & Restaurant",
    "types": "bar, clothing_store, store, restaurant, food, point_of_interest, establishment"
  },
  {
    "place_id": "ChIJ627gpHm15YgR3wZUop9x5W8",
    "name": "Bottlenose Brewing",
    "street_address": "9700 Deer Lake Court",
    "city": "Jacksonville",
    "state": "FL",
    "zip_code": "32246",
    "latitude": 30.2646102,
    "longitude": -81.5560399,
    "website": "http://bottlenosebrewing.com/",
    "category": "Bar & Restaurant",
    "types": "bar, restaurant, food, point_of_interest, establishment"
  },
  {
    "place_id": "ChIJwSK4qV-15YgRVFpnHmmUUj8",
    "name": "Hopdoddy Burger Bar",
    "street_address": "4906 Town Center Parkway",
    "city": "Jacksonville",
    "state": "FL",
    "zip_code": "32246",
    "latitude": 30.25649220000001,
    "longitude": -81.53452419999999,
    "website": "https://www.hopdoddy.com/locations/jacksonville",
    "category": "Restaurant",
    "types": "meal_takeaway, restaurant, point_of_interest, food, establishment"
  },
  {
    "place_id": "ChIJRWwnNtFK5IgRwFxMeYVKcqw",
    "name": "Cantina Laredo",
    "street_address": "10282 Bistro Drive",
    "city": "Jacksonville",
    "state": "FL",
    "zip_code": "32246",
    "latitude": 30.2528201,
    "longitude": -81.52567239999999,
    "website": "https://www.cantinalaredo.com/location/jacksonville-florida/",
    "category": "Restaurant",
    "types": "restaurant, point_of_interest, food, establishment"
  },
  {
    "place_id": "ChIJM5epa6C15YgRiVmX9jBdfek",
    "name": "Island Wing Company Grill & Bar - Jacksonville Southside",
    "street_address": "4409 Southside Boulevard",
    "city": "Jacksonville",
    "state": "FL",
    "zip_code": "32216",
    "latitude": 30.26653419999999,
    "longitude": -81.5575108,
    "website": "https://www.islandwing.com/locations/jacksonville-southside-fl/",
    "category": "Bar & Restaurant",
    "types": "bar, restaurant, food, point_of_interest, establishment"
  },
  {
    "place_id": "ChIJKQqbNM615YgRG5cXFW-l1qA",
    "name": "Senor Loco Taco Jacksonville - Tinseltown",
    "street_address": "4549 Southside Boulevard",
    "city": "Jacksonville",
    "state": "FL",
    "zip_code": "32216",
    "latitude": 30.262022,
    "longitude": -81.5551605,
    "website": "https://senortacosand-tequila.com/",
    "category": "Restaurant",
    "types": "restaurant, food, point_of_interest, establishment"
  },
  {
    "place_id": "ChIJh61GKp615YgR8tj37R23YG4",
    "name": "Thai Green House Restaurant by Thai Zaab",
    "street_address": "3980 Southside Boulevard",
    "city": "Jacksonville",
    "state": "FL",
    "zip_code": "32216",
    "latitude": 30.2751072,
    "longitude": -81.559961,
    "website": "https://thaigreenhouse.menufy.com/",
    "category": "Restaurant",
    "types": "restaurant, food, point_of_interest, establishment"
  },
  {
    "place_id": "ChIJWSRe4i9L5IgRJIxhypWxvfU",
    "name": "Buffalo Wild Wings",
    "street_address": "4594 Tropea Way",
    "city": "Jacksonville",
    "state": "FL",
    "zip_code": "32246",
    "latitude": 30.26069839999999,
    "longitude": -81.5309837,
    "website": "https://www.buffalowildwings.com/locations/us/fl/jacksonville/4594-tropea-way/sports-bar-1534?utm_source=google%20my%20business&utm_medium=organic&utm_campaign=website%20link",
    "category": "Bar & Restaurant",
    "types": "meal_takeaway, bar, restaurant, food, point_of_interest, establishment"
  },
  {
    "place_id": "ChIJo20WTXy15YgRTmLy6Q4_kZw",
    "name": "98 Forty East Bar & Bistro",
    "street_address": "9840 Tapestry Park Circle",
    "city": "Jacksonville",
    "state": "FL",
    "zip_code": "32246",
    "latitude": 30.2581064,
    "longitude": -81.5522112,
    "website": null,
    "category": "Restaurant",
    "types": "restaurant, food, point_of_interest, establishment"
  },
  {
    "place_id": "ChIJTxSXAFi15YgRV_l8RgxDHb8",
    "name": "Bazille",
    "street_address": "4835 Town Crossing Drive",
    "city": "Jacksonville",
    "state": "FL",
    "zip_code": "32246",
    "latitude": 30.253563,
    "longitude": -81.526771,
    "website": "https://www.nordstrom.com/store-details/nordstrom-st-johns-town-center?utm_source=google&utm_medium=organic&utm_campaign=food&utm_content=22789&utm_channel=low_nd_seo_local&sp_source=google&sp_campaign=food",
    "category": "Restaurant",
    "types": "restaurant, point_of_interest, food, establishment"
  },
  {
    "place_id": "ChIJZ2epFNLK5YgRyMSBx504nvA",
    "name": "Big Crab Baymeadows",
    "street_address": "8358 Point Meadows Drive",
    "city": "Jacksonville",
    "state": "FL",
    "zip_code": "32256",
    "latitude": 30.21755899999999,
    "longitude": -81.52000579999999,
    "website": "http://www.bigcrabjax.com/",
    "category": "Restaurant",
    "types": "restaurant, point_of_interest, food, establishment"
  },
  {
    "place_id": "ChIJtzaBqpjK5YgRF4-yQOXEggg",
    "name": "Bold City Grill & Patio",
    "street_address": "10605 Deerwood Park Boulevard",
    "city": "Jacksonville",
    "state": "FL",
    "zip_code": "32256",
    "latitude": 30.248322,
    "longitude": -81.537616,
    "website": "http://www.sheratonjacksonville.com/jacksonville-restaurant",
    "category": "Bar & Restaurant",
    "types": "restaurant, bar, food, point_of_interest, establishment"
  },
  {
    "place_id": "ChIJ9c4K8aLL5YgRDjB9nxfkEeo",
    "name": "The Red Gill Bistro",
    "street_address": "4660 Salisbury Road",
    "city": "Jacksonville",
    "state": "FL",
    "zip_code": "32256",
    "latitude": 30.2494053,
    "longitude": -81.5901114,
    "website": "https://redgillbistro.com/?utm_source=google",
    "category": "Bar & Restaurant",
    "types": "bar, restaurant, food, point_of_interest, establishment"
  },
  {
    "place_id": "ChIJPUWBGFK15YgRlp6imcQOpwc",
    "name": "Topgolf Jacksonville",
    "street_address": "10531 Brightman Boulevard",
    "city": "Jacksonville",
    "state": "FL",
    "zip_code": "32246",
    "latitude": 30.2632674,
    "longitude": -81.5205175,
    "website": "https://topgolf.com/us/jacksonville/",
    "category": "Bar & Restaurant",
    "types": "restaurant, bar, food, health, point_of_interest, establishment"
  },
  {
    "place_id": "ChIJGSO8jdLK5YgRmtHZmvAhPQA",
    "name": "Whiskey Jax Kitchen & Cocktails",
    "street_address": "10915 Baymeadows Road",
    "city": "Jacksonville",
    "state": "FL",
    "zip_code": "32256",
    "latitude": 30.2172533,
    "longitude": -81.51694669999999,
    "website": "https://www.whiskeyjax.com/",
    "category": "Restaurant",
    "types": "restaurant, food, point_of_interest, establishment"
  },
  {
    "place_id": "ChIJa6Y0n1-15YgRAgffApiyYh8",
    "name": "Cheddar's Scratch Kitchen",
    "street_address": "4954 Town Center Parkway",
    "city": "Jacksonville",
    "state": "FL",
    "zip_code": "32246",
    "latitude": 30.2553863,
    "longitude": -81.5349165,
    "website": "https://www.cheddars.com/locations/fl/jacksonville/jacksonville-fl-town-center-pkwy/2172?cmpid=br:csk_ag:ie_ch:loc_ca:CSKGMB_sn:gmb_gt:jacksonville-fl-2172_pl:locurl_rd:1144",
    "category": "Restaurant",
    "types": "meal_takeaway, restaurant, food, point_of_interest, establishment"
  },
  {
    "place_id": "ChIJpXx6rdLK5YgRJRK54NDgoD4",
    "name": "Carrabba's Italian Grill",
    "street_address": "8137 Point Meadows Way",
    "city": "Jacksonville",
    "state": "FL",
    "zip_code": "32256",
    "latitude": 30.21766019999999,
    "longitude": -81.51571059999999,
    "website": "https://locations.carrabbas.com/florida/jacksonville/8137-point-meadows-way?y_source=1_MTU1MDI5NzgtNzE1LWxvY2F0aW9uLndlYnNpdGU%3D",
    "category": "Bar & Restaurant",
    "types": "meal_takeaway, bar, restaurant, point_of_interest, food, establishment"
  },
  {
    "place_id": "ChIJUR8hfuG45YgRjVnjcF4EM6g",
    "name": "Applebee's Grill + Bar",
    "street_address": "843 Lane Avenue South",
    "city": "Jacksonville",
    "state": "FL",
    "zip_code": "32205",
    "latitude": 30.3105685,
    "longitude": -81.7513618,
    "website": "https://restaurants.applebees.com/en-us/fl/jacksonville/843-lane-ave.-south-96046?utm_source=google&utm_medium=organic&utm_campaign=google_my_business&utm_term=96046&utm_content=website",
    "category": "Bar & Restaurant",
    "types": "restaurant, bar, point_of_interest, food, establishment"
  },
  {
    "place_id": "ChIJUUaPC2bH5YgRLgNeyc-4Eeg",
    "name": "Best Weekend Bar & Resto",
    "street_address": "5674 Timuquana Road",
    "city": "Jacksonville",
    "state": "FL",
    "zip_code": "32210",
    "latitude": 30.2470311,
    "longitude": -81.7303196,
    "website": "https://bestweekendbarandresto.com/?utm_source=omg-gbp&utm_medium=webclick",
    "category": "Bar & Restaurant",
    "types": "bar, restaurant, food, point_of_interest, establishment"
  },
  {
    "place_id": "ChIJn6tmwaa55YgRoHWJL7WTdEk",
    "name": "D'bo's Daiquiris, Wings, & Seafood - Jacksonville",
    "street_address": "901 King Street",
    "city": "Jacksonville",
    "state": "FL",
    "zip_code": "32204",
    "latitude": 30.3140811,
    "longitude": -81.69588209999999,
    "website": "https://dboswings.com/jacksonville/",
    "category": "Bar & Restaurant",
    "types": "restaurant, bar, food, point_of_interest, establishment"
  },
  {
    "place_id": "ChIJ87r6b9625YgRUUSivxvVJPQ",
    "name": "The Avenue Grill",
    "street_address": "818 A Philip Randolph Boulevard",
    "city": "Jacksonville",
    "state": "FL",
    "zip_code": "32206",
    "latitude": 30.331771,
    "longitude": -81.64259,
    "website": "http://fb.me/THEAVENUEGRILL",
    "category": "Restaurant",
    "types": "restaurant, food, point_of_interest, establishment"
  },
  {
    "place_id": "ChIJ83q2O3y35YgRzNAX3TJXb9w",
    "name": "The District SPR",
    "street_address": "2026 Walnut Street",
    "city": "Jacksonville",
    "state": "FL",
    "zip_code": "32206",
    "latitude": 30.3485185,
    "longitude": -81.64761899999999,
    "website": "http://www.thedistrictspr.com/",
    "category": "Bar & Restaurant",
    "types": "bar, restaurant, food, point_of_interest, establishment"
  },
  {
    "place_id": "ChIJbY3FBCy35YgRHQvMz10BQ5g",
    "name": "Tunis SeaFood, Wings & Subs",
    "street_address": "1935 North Main Street",
    "city": "Jacksonville",
    "state": "FL",
    "zip_code": "32206",
    "latitude": 30.348016,
    "longitude": -81.65341699999999,
    "website": "https://www.ordertunisseafoodfl.com/",
    "category": "Restaurant",
    "types": "restaurant, food, point_of_interest, establishment"
  },
  {
    "place_id": "ChIJGz57YFi25YgRQ8szDK_v7rQ",
    "name": "Mudville Grille",
    "street_address": "3105 Beach Boulevard",
    "city": "Jacksonville",
    "state": "FL",
    "zip_code": "32207",
    "latitude": 30.3049316,
    "longitude": -81.63376939999999,
    "website": "http://www.themudvillegrill.com/",
    "category": "Bar & Restaurant",
    "types": "bar, restaurant, food, point_of_interest, establishment"
  },
  {
    "place_id": "ChIJQ1GG-Xm35YgR9c9InrbK9nU",
    "name": "Riverside Liquors & The Restaurant in Riverside",
    "street_address": "1251 King Street",
    "city": "Jacksonville",
    "state": "FL",
    "zip_code": "32204",
    "latitude": 30.3116981,
    "longitude": -81.6940587,
    "website": "http://riversideliquors.biz/",
    "category": "Bar & Restaurant",
    "types": "liquor_store, bar, store, restaurant, food, point_of_interest, establishment"
  },
  {
    "place_id": "ChIJT37K8NS55YgRuGMQBLMmI8M",
    "name": "Carmines Pie House",
    "street_address": "2677 Forbes Street",
    "city": "Jacksonville",
    "state": "FL",
    "zip_code": "32204",
    "latitude": 30.312701,
    "longitude": -81.694744,
    "website": "https://carminespiehouse.com/",
    "category": "Restaurant",
    "types": "meal_delivery, meal_takeaway, restaurant, food, point_of_interest, establishment"
  },
  {
    "place_id": "ChIJ39jW6vr-5IgRs4CyIBaSnEA",
    "name": "The Tavern by AIBC",
    "street_address": "318 Centre Street",
    "city": "Fernandina Beach",
    "state": "FL",
    "zip_code": "32034",
    "latitude": 30.6710014,
    "longitude": -81.46234129999999,
    "website": "https://www.ameliaislandbrewing.com/the-tavern",
    "category": "Bar & Restaurant",
    "types": "bar, restaurant, food, point_of_interest, establishment"
  },
  {
    "place_id": "ChIJQW5IcPr-5IgR4NTTRvNOduE",
    "name": "Salty Pelican Bar & Grill",
    "street_address": "12 North Front Street",
    "city": "Fernandina Beach",
    "state": "FL",
    "zip_code": "32034",
    "latitude": 30.671901,
    "longitude": -81.464608,
    "website": "http://www.thesaltypelicanamelia.com/",
    "category": "Bar & Restaurant",
    "types": "restaurant, bar, point_of_interest, food, establishment"
  },
  {
    "place_id": "ChIJ0_XX7fr-5IgR21vJUtV_Qpg",
    "name": "Green Turtle Tavern",
    "street_address": "14 South 3rd Street",
    "city": "Fernandina Beach",
    "state": "FL",
    "zip_code": "32034",
    "latitude": 30.6706295,
    "longitude": -81.4628754,
    "website": "https://m.facebook.com/greenturtletavern1/",
    "category": "Bar & Restaurant",
    "types": "bar, restaurant, point_of_interest, food, establishment"
  },
  {
    "place_id": "ChIJyx4Oq9P-5IgRpZjEfD1LBwc",
    "name": "Sandbar Amelia Island",
    "street_address": "2910 Atlantic Avenue",
    "city": "Fernandina Beach",
    "state": "FL",
    "zip_code": "32034",
    "latitude": 30.6672996,
    "longitude": -81.4308953,
    "website": "https://sandbarameliaisland.com/",
    "category": "Bar & Restaurant",
    "types": "bar, restaurant, food, point_of_interest, establishment"
  },
  {
    "place_id": "ChIJbenHhdT_5IgR6Z5Rc2TuYbk",
    "name": "The Patio at 5th and Ash Restaurant",
    "street_address": "416 Ash Street",
    "city": "Fernandina Beach",
    "state": "FL",
    "zip_code": "32034",
    "latitude": 30.6696372,
    "longitude": -81.46169259999999,
    "website": "https://thepatiofernandinabeach.com/",
    "category": "Restaurant",
    "types": "restaurant, point_of_interest, food, establishment"
  },
  {
    "place_id": "ChIJSR41Xvr-5IgRJ-T3M_p3DZE",
    "name": "PJD'S Beer & Wine Garden",
    "street_address": "12 South 2nd Street",
    "city": "Fernandina Beach",
    "state": "FL",
    "zip_code": "32034",
    "latitude": 30.6710068,
    "longitude": -81.4638442,
    "website": "http://www.pjds.com/",
    "category": "Bar & Restaurant",
    "types": "bar, restaurant, food, point_of_interest, establishment"
  },
  {
    "place_id": "ChIJl9rfujf_5IgRaI5CDXUJbhs",
    "name": "Sliders Seaside Grill",
    "street_address": "1998 South Fletcher Avenue",
    "city": "Fernandina Beach",
    "state": "FL",
    "zip_code": "32034",
    "latitude": 30.6388209,
    "longitude": -81.4366963,
    "website": "http://www.slidersseaside.com/",
    "category": "Bar & Restaurant",
    "types": "bar, restaurant, food, point_of_interest, establishment"
  },
  {
    "place_id": "ChIJbR0yBRj_5IgR4qzQKf_IdZU",
    "name": "Salt Life Food Shack",
    "street_address": "17 North Fletcher Avenue",
    "city": "Fernandina Beach",
    "state": "FL",
    "zip_code": "32034",
    "latitude": 30.6685277,
    "longitude": -81.43206359999999,
    "website": "https://www.saltlifefoodshack.com/fernandina-beach",
    "category": "Restaurant",
    "types": "restaurant, food, point_of_interest, establishment"
  },
  {
    "place_id": "ChIJGYUkivr-5IgRvIpiNx74qmo",
    "name": "Amelia Island Coffee",
    "street_address": "207 Centre Street",
    "city": "Fernandina Beach",
    "state": "FL",
    "zip_code": "32034",
    "latitude": 30.671413,
    "longitude": -81.46352999999999,
    "website": "http://ameliaislandcoffee.com/",
    "category": "Restaurant",
    "types": "cafe, bakery, store, restaurant, food, point_of_interest, establishment"
  },
  {
    "place_id": "ChIJjZlOcp3_5IgRURZXjXoGaxY",
    "name": "Cantina Louie (Fernandina Beach, FL)",
    "street_address": "960062 Gateway Boulevard",
    "city": "Fernandina Beach",
    "state": "FL",
    "zip_code": "32034",
    "latitude": 30.629997,
    "longitude": -81.47283449999999,
    "website": "https://cantinalouie.com/",
    "category": "Bar & Restaurant",
    "types": "bar, restaurant, food, point_of_interest, establishment"
  },
  {
    "place_id": "ChIJGb3YnPr-5IgR8hGC1s03gok",
    "name": "Cafe Karibo",
    "street_address": "27 North 3rd Street",
    "city": "Fernandina Beach",
    "state": "FL",
    "zip_code": "32034",
    "latitude": 30.6723833,
    "longitude": -81.4630194,
    "website": "https://www.cafekaribo.com/",
    "category": "Restaurant",
    "types": "restaurant, food, point_of_interest, establishment"
  },
  {
    "place_id": "ChIJ5yewePr-5IgRtlfxZGA_PRY",
    "name": "The Crab Trap",
    "street_address": "31 North 2nd Street",
    "city": "Fernandina Beach",
    "state": "FL",
    "zip_code": "32034",
    "latitude": 30.67249,
    "longitude": -81.463893,
    "website": "http://www.crabtrapameliaisland.com/",
    "category": "Bar & Restaurant",
    "types": "bar, restaurant, food, point_of_interest, establishment"
  },
  {
    "place_id": "ChIJDSxf4gv_5IgR_mpZM5CxhxU",
    "name": "Golf Pub Social",
    "street_address": "1531 Sadler Road",
    "city": "Fernandina Beach",
    "state": "FL",
    "zip_code": "32034",
    "latitude": 30.6406769,
    "longitude": -81.4517544,
    "website": "http://www.golfpubsocial.com/",
    "category": "Bar & Restaurant",
    "types": "bar, restaurant, food, point_of_interest, health, establishment"
  },
  {
    "place_id": "ChIJo-MOKY7_5IgRZjWWQVyWr_k",
    "name": "Down Under Restaurant",
    "street_address": "96106 Wade's Place",
    "city": "Fernandina Beach",
    "state": "FL",
    "zip_code": "32034",
    "latitude": 30.62825199999999,
    "longitude": -81.484764,
    "website": "http://www.downunderfb.com/",
    "category": "Restaurant",
    "types": "restaurant, food, point_of_interest, establishment"
  },
  {
    "place_id": "ChIJf0OYF_r-5IgRhPPsuy4ch0o",
    "name": "Brett's Waterway Cafe",
    "street_address": "1 South Front Street",
    "city": "Fernandina Beach",
    "state": "FL",
    "zip_code": "32034",
    "latitude": 30.6712943,
    "longitude": -81.46537819999999,
    "website": "http://www.ameliaisland.com/Dining/Bretts-Waterway-Cafe",
    "category": "Restaurant",
    "types": "restaurant, cafe, food, point_of_interest, establishment"
  },
  {
    "place_id": "ChIJszqV6aqq5YgR-DG8uXvJIdA",
    "name": "Shucker's Oyster Bar & Grill",
    "street_address": "96008 Wade's Place",
    "city": "Fernandina Beach",
    "state": "FL",
    "zip_code": "32034",
    "latitude": 30.623929,
    "longitude": -81.490583,
    "website": "http://shuckersamelia.com/",
    "category": "Restaurant",
    "types": "restaurant, food, point_of_interest, establishment"
  },
  {
    "place_id": "ChIJE9dgLGJO5IgRYB2ND-5Ll3k",
    "name": "Bogey's 19th Hole Restaurant and Bar",
    "street_address": "1981 Maine Street",
    "city": "Jacksonville",
    "state": "FL",
    "zip_code": "32228",
    "latitude": 30.38600489999999,
    "longitude": -81.4117484,
    "website": "https://www.navymwrmayport.com/programs/1f218272-df24-4cc5-b2d7-3dff446853b2",
    "category": "Restaurant",
    "types": "restaurant, food, point_of_interest, establishment"
  },
  {
    "place_id": "ChIJK7X5dNdN5IgRzvWG1Xy3N74",
    "name": "Singletons Seafood Shack",
    "street_address": "4728 Ocean Street",
    "city": "Jacksonville",
    "state": "FL",
    "zip_code": "32233",
    "latitude": 30.394671,
    "longitude": -81.430532,
    "website": "http://www.singletonsseafood.com/",
    "category": "Restaurant",
    "types": "restaurant, food, point_of_interest, establishment"
  },
  {
    "place_id": "ChIJl0LEHwDF5YgRRWsxcXRj0TA",
    "name": "Callahan\u2019s Irish Bistro",
    "street_address": "2141 Loch Rane Boulevard",
    "city": "Orange Park",
    "state": "FL",
    "zip_code": "32073",
    "latitude": 30.1634825,
    "longitude": -81.75129,
    "website": "https://www.callahansbistro.com/",
    "category": "Restaurant",
    "types": "restaurant, food, point_of_interest, establishment"
  },
  {
    "place_id": "ChIJ8SnOAYzG5YgRo8h2W64MXTc",
    "name": "LongHorn Steakhouse",
    "street_address": "6015 Argyle Forest Boulevard",
    "city": "Jacksonville",
    "state": "FL",
    "zip_code": "32244",
    "latitude": 30.192755,
    "longitude": -81.74086,
    "website": "https://www.longhornsteakhouse.com/locations/fl/jacksonville/argyle-forest/5021?cmpid=br:lh_ag:ie_ch:loc_ca:LHGMB_sn:gmb_gt:jacksonville-fl-5021_pl:locurl_rd:1009",
    "category": "Bar & Restaurant",
    "types": "meal_takeaway, bar, restaurant, food, point_of_interest, establishment"
  },
  {
    "place_id": "ChIJUUBITI_G5YgRdl49Dm0xRkc",
    "name": "Red Lobster",
    "street_address": "32 Blanding Boulevard",
    "city": "Orange Park",
    "state": "FL",
    "zip_code": "32073",
    "latitude": 30.187926,
    "longitude": -81.740129,
    "website": "https://www.redlobster.com/seafood-restaurants/locations/fl/orange-park/32-blanding-blvd",
    "category": "Restaurant",
    "types": "restaurant, food, point_of_interest, establishment"
  },
  {
    "place_id": "ChIJQ9LqWnvG5YgRnDFs1PJy8vQ",
    "name": "Carrabba's Italian Grill",
    "street_address": "8406 Blanding Boulevard",
    "city": "Jacksonville",
    "state": "FL",
    "zip_code": "32073",
    "latitude": 30.1951586,
    "longitude": -81.74025449999999,
    "website": "https://locations.carrabbas.com/florida/jacksonville/8406-blanding-blvd?y_source=1_MTU1MDI5NzQtNzE1LWxvY2F0aW9uLndlYnNpdGU%3D",
    "category": "Bar & Restaurant",
    "types": "meal_takeaway, bar, restaurant, food, point_of_interest, establishment"
  },
  {
    "place_id": "ChIJlSfeN_3F5YgRYjiaLhpfgeU",
    "name": "Park Avenue Billiards",
    "street_address": "714 Park Avenue",
    "city": "Orange Park",
    "state": "FL",
    "zip_code": "32073",
    "latitude": 30.18126,
    "longitude": -81.7030834,
    "website": "http://parkavenuebilliards.com/index.html",
    "category": "Restaurant",
    "types": "restaurant, food, point_of_interest, establishment"
  },
  {
    "place_id": "ChIJScGF1_jG5YgRNwkfPBELMrg",
    "name": "Caribe Breeze Food Market",
    "street_address": "7244 Blanding Boulevard",
    "city": "Jacksonville",
    "state": "FL",
    "zip_code": "32244",
    "latitude": 30.214745,
    "longitude": -81.737543,
    "website": "http://caribebreezefoodmarket.com/",
    "category": "Restaurant",
    "types": "supermarket, grocery_or_supermarket, store, restaurant, food, point_of_interest, establishment"
  },
  {
    "place_id": "ChIJa2PsKGXG5YgRdy9yBxQSIws",
    "name": "Dunkin'",
    "street_address": "1711 Wells Road",
    "city": "Orange Park",
    "state": "FL",
    "zip_code": "32073",
    "latitude": 30.1868256,
    "longitude": -81.72652719999999,
    "website": "https://locations.dunkindonuts.com/en/fl/orange-park/1711-wells-rd/354356?utm_source=google&utm_medium=local&utm_campaign=localmaps&utm_content=354356&y_source=1_MTIxMTI3OTktNzE1LWxvY2F0aW9uLndlYnNpdGU%3D",
    "category": "Restaurant",
    "types": "cafe, bakery, meal_takeaway, store, restaurant, food, point_of_interest, establishment"
  },
  {
    "place_id": "ChIJ90BZD_TG5YgRO-Jz9tlO2ss",
    "name": "Dunkin'",
    "street_address": "7908 Blanding Boulevard",
    "city": "Jacksonville",
    "state": "FL",
    "zip_code": "32244",
    "latitude": 30.2031957,
    "longitude": -81.74007929999999,
    "website": "https://locations.dunkindonuts.com/en/fl/jacksonville/7908-blanding-blvd/353576?utm_source=google&utm_medium=local&utm_campaign=localmaps&utm_content=353576&y_source=1_MTIxMTA5NjgtNzE1LWxvY2F0aW9uLndlYnNpdGU%3D",
    "category": "Restaurant",
    "types": "cafe, bakery, meal_takeaway, store, restaurant, food, point_of_interest, establishment"
  },
  {
    "place_id": "ChIJD01TtZrG5YgR6xVvC0O_vrI",
    "name": "The Hilltop Restaurant",
    "street_address": "2030 Wells Road",
    "city": "Orange Park",
    "state": "FL",
    "zip_code": "32073",
    "latitude": 30.1859644,
    "longitude": -81.74599959999999,
    "website": "http://www.hilltop-club.com/",
    "category": "Restaurant",
    "types": "restaurant, food, point_of_interest, establishment"
  },
  {
    "place_id": "ChIJe3QlayXE5YgRFLGhQ485cNw",
    "name": "Dunkin'",
    "street_address": "373 Blanding Boulevard",
    "city": "Orange Park",
    "state": "FL",
    "zip_code": "32073",
    "latitude": 30.1661372,
    "longitude": -81.74713059999999,
    "website": "https://locations.dunkindonuts.com/en/fl/orange-park/373-blanding-blvd/302355?utm_source=google&utm_medium=local&utm_campaign=localmaps&utm_content=302355&y_source=1_MTIxMDkyNTUtNzE1LWxvY2F0aW9uLndlYnNpdGU%3D",
    "category": "Restaurant",
    "types": "meal_takeaway, bakery, cafe, restaurant, point_of_interest, food, store, establishment"
  }
]