[
  {
    "place_id": "ChIJJd5lqGfwwIcRC_-qtqfEpY4",
    "name": "Johnny\u2019s Tavern P&L",
    "street_address": "1310 Grand Boulevard",
    "city": "Kansas City",
    "state": "MO",
    "zip_code": "64106",
    "latitude": 39.09830609999999,
    "longitude": -94.5812876,
    "website": "http://www.johnnystavern.com/",
    "category": "Bar & Restaurant",
    "types": "bar, restaurant, point_of_interest, food, establishment"
  },
  {
    "place_id": "ChIJu7AQTl_xwIcRWgKTz6uBLC4",
    "name": "Taps on Main",
    "street_address": "1715 Main Street",
    "city": "Kansas City",
    "state": "MO",
    "zip_code": "64108",
    "latitude": 39.0928955,
    "longitude": -94.5833007,
    "website": "https://www.tapsonmain.com/",
    "category": "Bar & Restaurant",
    "types": "bar, restaurant, food, point_of_interest, establishment"
  },
  {
    "place_id": "ChIJ11_ocmnwwIcRU6EjXMa1sLE",
    "name": "The Brick",
    "street_address": "1727 McGee Street",
    "city": "Kansas City",
    "state": "MO",
    "zip_code": "64108",
    "latitude": 39.09232119999999,
    "longitude": -94.5798889,
    "website": "http://thebrickkc.com/",
    "category": "Bar & Restaurant",
    "types": "bar, restaurant, food, point_of_interest, establishment"
  },
  {
    "place_id": "ChIJzQl1O5LxwIcRhwOGchtGkto",
    "name": "KC Hooley House",
    "street_address": "170 East 14th Street",
    "city": "Kansas City",
    "state": "MO",
    "zip_code": "64106",
    "latitude": 39.09736729999999,
    "longitude": -94.581406,
    "website": "http://kchooleyhouse.com/",
    "category": "Bar & Restaurant",
    "types": "bar, restaurant, food, point_of_interest, establishment"
  },
  {
    "place_id": "ChIJsbs1JRnwwIcRKnIvnIdxeC4",
    "name": "Tower Tavern",
    "street_address": "401 East 31st Street",
    "city": "Kansas City",
    "state": "MO",
    "zip_code": "64108",
    "latitude": 39.0706542,
    "longitude": -94.57973299999999,
    "website": "http://www.towertavernkc.com/",
    "category": "Bar & Restaurant",
    "types": "bar, restaurant, food, point_of_interest, establishment"
  },
  {
    "place_id": "ChIJF-zjRbPxwIcRiwPyUm58ixI",
    "name": "The Easy Inn",
    "street_address": "322 North 6th Street",
    "city": "Kansas City",
    "state": "KS",
    "zip_code": "66101",
    "latitude": 39.1092568,
    "longitude": -94.62403429999999,
    "website": null,
    "category": "Bar & Restaurant",
    "types": "bar, restaurant, food, point_of_interest, establishment"
  },
  {
    "place_id": "ChIJ9ZpRLlTwwIcRSTbnGGIydtg",
    "name": "The Ship",
    "street_address": "1221 Union Avenue",
    "city": "Kansas City",
    "state": "MO",
    "zip_code": "64101",
    "latitude": 39.1022239,
    "longitude": -94.5991923,
    "website": "http://www.theshipkc.com/",
    "category": "Bar & Restaurant",
    "types": "night_club, bar, restaurant, food, point_of_interest, establishment"
  },
  {
    "place_id": "ChIJ9adAIxnwwIcRhUyFbOuJQjw",
    "name": "Brick House KC",
    "street_address": "400 East 31st Street",
    "city": "Kansas City",
    "state": "MO",
    "zip_code": "64108",
    "latitude": 39.0709351,
    "longitude": -94.5799335,
    "website": "http://www.brickhousekc.com/",
    "category": "Bar & Restaurant",
    "types": "bar, restaurant, food, point_of_interest, establishment"
  },
  {
    "place_id": "ChIJBxNuGFzxwIcRadcDYopNLIA",
    "name": "Streetcar Grille & Tavern Downtown Kansas City",
    "street_address": "1580 Main Street",
    "city": "Kansas City",
    "state": "MO",
    "zip_code": "64108",
    "latitude": 39.0948287,
    "longitude": -94.58382139999999,
    "website": "http://www.streetcargrille.com/",
    "category": "Bar & Restaurant",
    "types": "bar, restaurant, food, point_of_interest, establishment"
  },
  {
    "place_id": "ChIJfZwygl3wwIcRdrXPfCS1sPU",
    "name": "Yard House",
    "street_address": "1300 Main Street",
    "city": "Kansas City",
    "state": "MO",
    "zip_code": "64105",
    "latitude": 39.0984275,
    "longitude": -94.58350949999999,
    "website": "https://www.yardhouse.com/locations/mo/kansas-city/kansas-city-downtown-p-l-district/8359?cmpid=br:yh_ag:ie_ch:loc_ca:YHGMB_sn:gmb_gt:kansas-city-mo-8359_pl:locurl_rd:1056",
    "category": "Bar & Restaurant",
    "types": "meal_takeaway, bar, restaurant, food, point_of_interest, establishment"
  },
  {
    "place_id": "ChIJ8ZRp9orwwIcRzZyOqt4RvgU",
    "name": "Harry's Country Club",
    "street_address": "112 East Missouri Avenue",
    "city": "Kansas City",
    "state": "MO",
    "zip_code": "64106",
    "latitude": 39.10791389999999,
    "longitude": -94.58069479999999,
    "website": "http://www.harryscountryclub.com/",
    "category": "Bar & Restaurant",
    "types": "restaurant, bar, food, point_of_interest, establishment"
  },
  {
    "place_id": "ChIJwfgnhbXvwIcRki9GUUlIlAc",
    "name": "The Bar West Plaza",
    "street_address": "1121 West 47th Street",
    "city": "Kansas City",
    "state": "MO",
    "zip_code": "64112",
    "latitude": 39.04252410000001,
    "longitude": -94.6007625,
    "website": "http://www.thebarskc.com/",
    "category": "Bar & Restaurant",
    "types": "bar, restaurant, food, point_of_interest, establishment"
  },
  {
    "place_id": "ChIJbStfsDPuwIcRbXIPKHTO-3k",
    "name": "Twin City Tavern",
    "street_address": "1815 Westport Road",
    "city": "Kansas City",
    "state": "MO",
    "zip_code": "64111",
    "latitude": 39.0500545,
    "longitude": -94.60714259999999,
    "website": null,
    "category": "Bar & Restaurant",
    "types": "bar, restaurant, food, point_of_interest, establishment"
  },
  {
    "place_id": "ChIJxbu2nD_wwIcRp1jUF0d0zw8",
    "name": "Pierpont's at Union Station",
    "street_address": "30 West Pershing Road",
    "city": "Kansas City",
    "state": "MO",
    "zip_code": "64108",
    "latitude": 39.0850273,
    "longitude": -94.5849205,
    "website": "https://www.pierponts.com/",
    "category": "Bar & Restaurant",
    "types": "bar, restaurant, food, point_of_interest, establishment"
  },
  {
    "place_id": "ChIJ5YhmJMXvwIcRqkhrXVcSee4",
    "name": "Beer Kitchen",
    "street_address": "435 Westport Road",
    "city": "Kansas City",
    "state": "MO",
    "zip_code": "64111",
    "latitude": 39.0527781,
    "longitude": -94.59118219999999,
    "website": "https://beerkitchenkc.com/?utm_source=gmb&utm_medium=yext",
    "category": "Bar & Restaurant",
    "types": "bar, restaurant, food, point_of_interest, establishment"
  },
  {
    "place_id": "ChIJmzokTUDwwIcRXeyswYBy4Zs",
    "name": "Gr\u00fcnauer",
    "street_address": "101 West 22nd Street",
    "city": "Kansas City",
    "state": "MO",
    "zip_code": "64108",
    "latitude": 39.0874446,
    "longitude": -94.58537129999999,
    "website": "http://www.grunauerkc.com/",
    "category": "Bar & Restaurant",
    "types": "bar, restaurant, food, point_of_interest, establishment"
  },
  {
    "place_id": "ChIJmeWnG-XxwIcRmabvYGGgHV8",
    "name": "BarCENTRAL",
    "street_address": "200 West 12th Street",
    "city": "Kansas City",
    "state": "MO",
    "zip_code": "64105",
    "latitude": 39.1003351,
    "longitude": -94.5862806,
    "website": "https://www.barcentralkansascity.com/",
    "category": "Bar & Restaurant",
    "types": "restaurant, bar, food, point_of_interest, establishment"
  },
  {
    "place_id": "ChIJGYHv6ozxwIcRA9ZJ8zhJqlY",
    "name": "Cliff's Taphouse",
    "street_address": "3044 Gillham Road",
    "city": "Kansas City",
    "state": "MO",
    "zip_code": "64108",
    "latitude": 39.0710014,
    "longitude": -94.5790849,
    "website": "http://cliffstaphousekc.com/",
    "category": "Restaurant",
    "types": "restaurant, food, point_of_interest, establishment"
  },
  {
    "place_id": "ChIJT4KGzUbwwIcRFUpxiS1xyiM",
    "name": "Blvd Tavern",
    "street_address": "320 Southwest Boulevard",
    "city": "Kansas City",
    "state": "MO",
    "zip_code": "64108",
    "latitude": 39.0883354,
    "longitude": -94.5883437,
    "website": "http://www.blvdtavernkc.com/",
    "category": "Bar & Restaurant",
    "types": "bar, restaurant, food, point_of_interest, establishment"
  },
  {
    "place_id": "ChIJS-1UWF7wwIcRs5qI0xV4N-4",
    "name": "John's Big Deck",
    "street_address": "928 Wyandotte Street",
    "city": "Kansas City",
    "state": "MO",
    "zip_code": "64105",
    "latitude": 39.1027454,
    "longitude": -94.5856062,
    "website": "http://johnsbigdeckkc.net/",
    "category": "Bar & Restaurant",
    "types": "bar, restaurant, food, point_of_interest, establishment"
  },
  {
    "place_id": "ChIJdUdsSlnwwIcRF9seKDMqYD0",
    "name": "The Quaff Sports Bar And Grill",
    "street_address": "1010 Broadway Boulevard",
    "city": "Kansas City",
    "state": "MO",
    "zip_code": "64105",
    "latitude": 39.10204359999999,
    "longitude": -94.5885534,
    "website": "http://quaffkc.com/",
    "category": "Bar & Restaurant",
    "types": "bar, restaurant, food, point_of_interest, establishment"
  },
  {
    "place_id": "ChIJ57oFGRXwwIcRvn49ny3b2no",
    "name": "One East Urban Bar + Kitchen",
    "street_address": "1 East Pershing Road",
    "city": "Kansas City",
    "state": "MO",
    "zip_code": "64108",
    "latitude": 39.0835626,
    "longitude": -94.5832102,
    "website": "https://www.marriott.com/hotels/hotel-information/restaurant/mciwi-the-westin-kansas-city-at-crown-center/",
    "category": "Restaurant",
    "types": "restaurant, food, point_of_interest, establishment"
  },
  {
    "place_id": "ChIJPa9OH8XvwIcRefR1Y0jI53g",
    "name": "Harpo's",
    "street_address": "4109 Pennsylvania Avenue",
    "city": "Kansas City",
    "state": "MO",
    "zip_code": "64111",
    "latitude": 39.05258269999999,
    "longitude": -94.5910212,
    "website": "http://www.harposkc.com/",
    "category": "Bar & Restaurant",
    "types": "restaurant, bar, food, point_of_interest, establishment"
  },
  {
    "place_id": "ChIJs7xUI8XvwIcR1LNkWrJFo7I",
    "name": "Harry's Bar & Tables",
    "street_address": "501 Westport Road",
    "city": "Kansas City",
    "state": "MO",
    "zip_code": "64111",
    "latitude": 39.0526256,
    "longitude": -94.5914416,
    "website": "http://harrysbarandtables.com/",
    "category": "Bar & Restaurant",
    "types": "bar, restaurant, food, point_of_interest, establishment"
  },
  {
    "place_id": "ChIJ7dbDeLfvwIcRvjMMFaYg7uw",
    "name": "O\u2019Dowd\u2019s Gastrobar",
    "street_address": "4742 Pennsylvania Avenue",
    "city": "Kansas City",
    "state": "MO",
    "zip_code": "64112",
    "latitude": 39.04073699999999,
    "longitude": -94.5939638,
    "website": "http://odowdskc.com/",
    "category": "Bar & Restaurant",
    "types": "restaurant, bar, food, point_of_interest, establishment"
  },
  {
    "place_id": "ChIJl6tBN9PvwIcRy4rqD3DsMAc",
    "name": "The Hi-Dive Lounge",
    "street_address": "1411 West 39th Street",
    "city": "Kansas City",
    "state": "MO",
    "zip_code": "64111",
    "latitude": 39.0570521,
    "longitude": -94.60317859999999,
    "website": "http://hidivelounge.com/",
    "category": "Bar & Restaurant",
    "types": "night_club, bar, restaurant, food, point_of_interest, establishment"
  },
  {
    "place_id": "ChIJtYgrPUjuwIcRZ7p7TwSnmyE",
    "name": "Conroy's Public House",
    "street_address": "4730 Rainbow Boulevard",
    "city": "Westwood",
    "state": "KS",
    "zip_code": "66205",
    "latitude": 39.0419237,
    "longitude": -94.6125338,
    "website": "http://conroyspublichouse.com/",
    "category": "Bar & Restaurant",
    "types": "restaurant, bar, food, point_of_interest, establishment"
  },
  {
    "place_id": "ChIJj56wu2fwwIcR1IubA9L-ERQ",
    "name": "No Other Pub by Sporting KC",
    "street_address": "1370 Grand Boulevard",
    "city": "Kansas City",
    "state": "MO",
    "zip_code": "64106",
    "latitude": 39.0975654,
    "longitude": -94.58124459999999,
    "website": "http://www.powerandlightdistrict.com/eat-and-drink/no-other-pub",
    "category": "Bar & Restaurant",
    "types": "bar, restaurant, food, point_of_interest, establishment"
  },
  {
    "place_id": "ChIJ__8vql3wwIcRHaRUxObECmA",
    "name": "The Rail Bar & Bites",
    "street_address": "1301 Wyandotte Street",
    "city": "Kansas City",
    "state": "MO",
    "zip_code": "64105",
    "latitude": 39.0983685,
    "longitude": -94.58537679999999,
    "website": "https://www.ihg.com/crowneplaza/hotels/us/en/kansas-city/mkcws/hoteldetail/dining",
    "category": "Bar & Restaurant",
    "types": "restaurant, bar, food, point_of_interest, establishment"
  },
  {
    "place_id": "ChIJxUaU7YrwwIcRoV9u_2HtMcs",
    "name": "The Blue Line Hockey Bar",
    "street_address": "529 Walnut Street",
    "city": "Kansas City",
    "state": "MO",
    "zip_code": "64106",
    "latitude": 39.1077672,
    "longitude": -94.5811427,
    "website": "http://thebluelinekc.com/",
    "category": "Bar & Restaurant",
    "types": "bar, restaurant, food, point_of_interest, establishment"
  },
  {
    "place_id": "ChIJGcLe4IrwwIcRPG-wYxtwfA8",
    "name": "Opera House Coffee&Food Emporium",
    "street_address": "500 Walnut Street",
    "city": "Kansas City",
    "state": "MO",
    "zip_code": "64106",
    "latitude": 39.108428,
    "longitude": -94.581819,
    "website": "https://www.operahousekc.com/",
    "category": "Bar & Restaurant",
    "types": "bakery, cafe, bar, store, restaurant, food, point_of_interest, establishment"
  },
  {
    "place_id": "ChIJG2G4s7jvwIcROvns3UytBcw",
    "name": "Rye Plaza",
    "street_address": "4646 Mill Creek Parkway",
    "city": "Kansas City",
    "state": "MO",
    "zip_code": "64112",
    "latitude": 39.042679,
    "longitude": -94.5884768,
    "website": "https://ryekc.com/plaza_index.php",
    "category": "Bar & Restaurant",
    "types": "restaurant, bakery, bar, store, food, point_of_interest, establishment"
  },
  {
    "place_id": "ChIJMSWkTcXvwIcRbR1e8gbWFJw",
    "name": "Char Bar - Westport",
    "street_address": "4050 Pennsylvania Avenue",
    "city": "Kansas City",
    "state": "MO",
    "zip_code": "64111",
    "latitude": 39.053961,
    "longitude": -94.5925044,
    "website": "http://charbarbbq.com/?utm_source=gmb&utm_medium=yext",
    "category": "Bar & Restaurant",
    "types": "bar, restaurant, food, point_of_interest, establishment"
  },
  {
    "place_id": "ChIJhf5mIy_uwIcRy7mpgqpZURQ",
    "name": "Tanner's Bar & Grill",
    "street_address": "3900 Rainbow Boulevard",
    "city": "Kansas City",
    "state": "KS",
    "zip_code": "66103",
    "latitude": 39.05717079999999,
    "longitude": -94.6121665,
    "website": "http://www.tannersbarandgrill.com/",
    "category": "Bar & Restaurant",
    "types": "bar, restaurant, food, point_of_interest, establishment"
  },
  {
    "place_id": "ChIJQxTkTSvxwIcR75jQZ0t-ltA",
    "name": "Oak & Steel",
    "street_address": "120 West 17 Street",
    "city": "Kansas City",
    "state": "MO",
    "zip_code": "64108",
    "latitude": 39.09284630000001,
    "longitude": -94.585674,
    "website": "https://oakandsteelkc.com/",
    "category": "Bar & Restaurant",
    "types": "bar, restaurant, food, point_of_interest, establishment"
  },
  {
    "place_id": "ChIJCTVC27bwwIcRn5qmKNKyzBA",
    "name": "Paul & Jack's Tavern",
    "street_address": "1808 Clay Street",
    "city": "North Kansas City",
    "state": "MO",
    "zip_code": "64116",
    "latitude": 39.1406599,
    "longitude": -94.5788709,
    "website": "http://www.paulandjacks.com/",
    "category": "Bar & Restaurant",
    "types": "bar, restaurant, point_of_interest, food, establishment"
  },
  {
    "place_id": "ChIJw8spqLbwwIcRCx0Uaufwso4",
    "name": "Christine's Firehouse",
    "street_address": "2012 Swift Street",
    "city": "North Kansas City",
    "state": "MO",
    "zip_code": "64116",
    "latitude": 39.1430505,
    "longitude": -94.5774794,
    "website": "https://christinesfirehouse.site/",
    "category": "Bar & Restaurant",
    "types": "bar, restaurant, food, point_of_interest, establishment"
  },
  {
    "place_id": "ChIJE_NAYmzxwIcRY4VPotQ2lrg",
    "name": "Jefferson's",
    "street_address": "300 Armour Road",
    "city": "North Kansas City",
    "state": "MO",
    "zip_code": "64116",
    "latitude": 39.14228409999999,
    "longitude": -94.576959,
    "website": "https://jeffersons.com/north-kansas-city/",
    "category": "Restaurant",
    "types": "restaurant, food, point_of_interest, establishment"
  },
  {
    "place_id": "ChIJ29SyTWnwwIcRYYYjzNhRpF4",
    "name": "Grinders Pizza",
    "street_address": "417 East 18th Street",
    "city": "Kansas City",
    "state": "MO",
    "zip_code": "64108",
    "latitude": 39.0914193,
    "longitude": -94.5781167,
    "website": "http://www.grinderspizza.com/",
    "category": "Bar & Restaurant",
    "types": "bar, restaurant, food, point_of_interest, establishment"
  },
  {
    "place_id": "ChIJK0s3r2TPyIARcuotzB6mo_A",
    "name": "Winning Streaks at Harrah's Kansas City",
    "street_address": "1 Riverboat Drive",
    "city": "North Kansas City",
    "state": "MO",
    "zip_code": "64116",
    "latitude": 39.142242,
    "longitude": -94.5439053,
    "website": "https://www.caesars.com/harrahs-kansas-city/restaurants/winning_streaks?utm_campaign=google&utm_source=google&utm_medium=local&utm_term=WinningStreaks&utm_content=restaurant",
    "category": "Bar & Restaurant",
    "types": "bar, restaurant, food, point_of_interest, establishment"
  },
  {
    "place_id": "ChIJVVBwEUfwwIcRF7lekl2pfW0",
    "name": "Rhythm & Booze Downtown",
    "street_address": "423 Southwest Boulevard",
    "city": "Kansas City",
    "state": "MO",
    "zip_code": "64108",
    "latitude": 39.08688609999999,
    "longitude": -94.5900889,
    "website": "http://www.rhythmandboozebar.com/",
    "category": "Bar & Restaurant",
    "types": "bar, restaurant, food, point_of_interest, establishment"
  },
  {
    "place_id": "ChIJ-ZkRYF3wwIcRHhDjieNamOo",
    "name": "BRGR Kitchen + Bar",
    "street_address": "11 East 14th Street",
    "city": "Kansas City",
    "state": "MO",
    "zip_code": "64105",
    "latitude": 39.09701809999999,
    "longitude": -94.58319510000001,
    "website": "https://brgrkitchen.com/",
    "category": "Bar & Restaurant",
    "types": "bar, restaurant, food, point_of_interest, establishment"
  },
  {
    "place_id": "ChIJaW6MmULwwIcRLjt_zW2kJ2A",
    "name": "Anton's",
    "street_address": "1610 Main Street",
    "city": "Kansas City",
    "state": "MO",
    "zip_code": "64108",
    "latitude": 39.09413139999999,
    "longitude": -94.5836868,
    "website": "https://antonskc.com/",
    "category": "Restaurant",
    "types": "restaurant, food, point_of_interest, establishment"
  },
  {
    "place_id": "ChIJFan8yr3xwIcRky8kAfbdTCo",
    "name": "Nighthawk",
    "street_address": "1228 Baltimore Avenue",
    "city": "Kansas City",
    "state": "MO",
    "zip_code": "64105",
    "latitude": 39.09884269999999,
    "longitude": -94.5847371,
    "website": "https://www.hotelkc.com/dine/nighthawk-bar",
    "category": "Bar & Restaurant",
    "types": "bar, restaurant, food, point_of_interest, establishment"
  },
  {
    "place_id": "ChIJZVFNMDPuwIcR_GqSS4xfWak",
    "name": "The Pressed Penny Tavern",
    "street_address": "1511 Westport Road",
    "city": "Kansas City",
    "state": "MO",
    "zip_code": "64111",
    "latitude": 39.0499531,
    "longitude": -94.60420839999999,
    "website": "http://www.thepressedpennytavern.com/",
    "category": "Bar & Restaurant",
    "types": "bar, restaurant, food, point_of_interest, establishment"
  },
  {
    "place_id": "ChIJXezddGXvwIcRliUzpWAD2U4",
    "name": "Gaels Public House & Sports",
    "street_address": "5424 Troost Avenue",
    "city": "Kansas City",
    "state": "MO",
    "zip_code": "64110",
    "latitude": 39.0280452,
    "longitude": -94.57399769999999,
    "website": "https://www.gaelspublichouse.com/",
    "category": "Bar & Restaurant",
    "types": "bar, restaurant, food, point_of_interest, establishment"
  },
  {
    "place_id": "ChIJJbsZcg7vwIcRF52ciuXtCtQ",
    "name": "Charlie Hooper's Brookside Bar & Grille",
    "street_address": "12 West 63rd Street",
    "city": "Kansas City",
    "state": "MO",
    "zip_code": "64113",
    "latitude": 39.01408900000001,
    "longitude": -94.588809,
    "website": "http://charliehoopers.com/",
    "category": "Bar & Restaurant",
    "types": "bar, restaurant, food, point_of_interest, establishment"
  },
  {
    "place_id": "ChIJoVuSMg7vwIcRzXuYvJ2xteU",
    "name": "Brooksider Sportsbar & Grill",
    "street_address": "6330 Brookside Plaza",
    "city": "Kansas City",
    "state": "MO",
    "zip_code": "64113",
    "latitude": 39.0128791,
    "longitude": -94.59085019999999,
    "website": "https://brooksider.com/",
    "category": "Bar & Restaurant",
    "types": "bar, restaurant, food, point_of_interest, establishment"
  },
  {
    "place_id": "ChIJ4fLNbc3twIcRkl59UUDyzUQ",
    "name": "The Bar Mission",
    "street_address": "6101 Johnson Drive",
    "city": "Mission",
    "state": "KS",
    "zip_code": "66202",
    "latitude": 39.0218301,
    "longitude": -94.6564385,
    "website": "http://thebarskc.com/",
    "category": "Bar & Restaurant",
    "types": "bar, restaurant, food, point_of_interest, establishment"
  },
  {
    "place_id": "ChIJxY6pdP77wIcRUpqHCmRmRRI",
    "name": "Amerisports Brew Pub",
    "street_address": "3200 North Ameristar Drive",
    "city": "Kansas City",
    "state": "MO",
    "zip_code": "64161",
    "latitude": 39.1505235,
    "longitude": -94.48480459999999,
    "website": "https://ameristarkansascity.boydgaming.com/dine/amerisports-brew-pub",
    "category": "Bar & Restaurant",
    "types": "bar, restaurant, food, point_of_interest, establishment"
  },
  {
    "place_id": "ChIJczhGamjwwIcRzY8issvCsxA",
    "name": "The Belfry",
    "street_address": "1532 Grand Boulevard",
    "city": "Kansas City",
    "state": "MO",
    "zip_code": "64108",
    "latitude": 39.094607,
    "longitude": -94.5815729,
    "website": "https://thebelfrylounge.square.site/",
    "category": "Bar & Restaurant",
    "types": "bar, restaurant, food, point_of_interest, establishment"
  },
  {
    "place_id": "ChIJ55sVNNXxwIcR-STDVXK5-c0",
    "name": "Iron District",
    "street_address": "1599 Iron Street",
    "city": "North Kansas City",
    "state": "MO",
    "zip_code": "64116",
    "latitude": 39.1375763,
    "longitude": -94.5713741,
    "website": "http://irondistrictnkc.com/",
    "category": "Bar & Restaurant",
    "types": "home_goods_store, jewelry_store, bar, clothing_store, restaurant, food, point_of_interest, store, establishment"
  },
  {
    "place_id": "ChIJNYtkjxHxwIcR5iBLCi1KE2w",
    "name": "Spectators",
    "street_address": "2345 McGee Street",
    "city": "Kansas City",
    "state": "MO",
    "zip_code": "64108",
    "latitude": 39.0848196,
    "longitude": -94.5797995,
    "website": "https://www.marriott.com/en-us/hotels/mcicr-sheraton-kansas-city-hotel-at-crown-center/dining/?scid=feed67b0-9a2f-4de1-8df6-114544116108",
    "category": "Restaurant",
    "types": "restaurant, food, point_of_interest, establishment"
  },
  {
    "place_id": "ChIJQ7hqsGfwwIcRH_PiuZ1C9gw",
    "name": "McFadden's Sports Saloon",
    "street_address": "1330 Grand Boulevard",
    "city": "Kansas City",
    "state": "MO",
    "zip_code": "64106",
    "latitude": 39.09780259999999,
    "longitude": -94.58126380000002,
    "website": "http://www.powerandlightdistrict.com/eat-and-drink/mcfaddens",
    "category": "Bar & Restaurant",
    "types": "bar, restaurant, food, point_of_interest, establishment"
  },
  {
    "place_id": "ChIJLffqCUbxwIcRXEhEzcER5_o",
    "name": "Parlor",
    "street_address": "1707 Locust Street",
    "city": "Kansas City",
    "state": "MO",
    "zip_code": "64108",
    "latitude": 39.0928287,
    "longitude": -94.57746329999999,
    "website": "http://www.parlorkcmo.com/",
    "category": "Bar & Restaurant",
    "types": "restaurant, bar, food, point_of_interest, establishment"
  },
  {
    "place_id": "ChIJn8M4qRrxwIcRHXQja7CrM_s",
    "name": "King G - Bar and Delicatessen",
    "street_address": "500 East 18th Street",
    "city": "Kansas City",
    "state": "MO",
    "zip_code": "64108",
    "latitude": 39.0917646,
    "longitude": -94.5774658,
    "website": "http://www.kinggkc.com/",
    "category": "Bar & Restaurant",
    "types": "bar, restaurant, food, point_of_interest, establishment"
  },
  {
    "place_id": "ChIJyya0lU_vwIcRIMl2ipAo3YQ",
    "name": "OurHouseKC",
    "street_address": "1815 West 39th Street",
    "city": "Kansas City",
    "state": "MO",
    "zip_code": "64111",
    "latitude": 39.0571948,
    "longitude": -94.6067563,
    "website": "https://ourhousekc.com/?utm_source=gbpr&utm_medium=organic&utm_id=ifocus",
    "category": "Bar & Restaurant",
    "types": "restaurant, cafe, meal_takeaway, bar, food, point_of_interest, establishment"
  },
  {
    "place_id": "ChIJJ-LZxN_rwIcRC-Mhdz7Qvhw",
    "name": "The Bar Prairie Village",
    "street_address": "5316 West 95th Street",
    "city": "Prairie Village",
    "state": "KS",
    "zip_code": "66207",
    "latitude": 38.9572822,
    "longitude": -94.64679439999999,
    "website": "http://www.thebarskc.com/",
    "category": "Bar & Restaurant",
    "types": "bar, restaurant, food, point_of_interest, establishment"
  },
  {
    "place_id": "ChIJZWqfwN_rwIcRjNORkvRjWZk",
    "name": "Conroy's Public House",
    "street_address": "5285 West 95th Street",
    "city": "Overland Park",
    "state": "KS",
    "zip_code": "66207",
    "latitude": 38.9563632,
    "longitude": -94.6463955,
    "website": "http://www.conroyspublichouse.com/",
    "category": "Bar & Restaurant",
    "types": "bar, restaurant, food, point_of_interest, establishment"
  },
  {
    "place_id": "ChIJOUH-3NHowIcRHrugHnahKOU",
    "name": "Walsh's Corner Cocktail",
    "street_address": "304 West 85th Street",
    "city": "Kansas City",
    "state": "MO",
    "zip_code": "64114",
    "latitude": 38.9746888,
    "longitude": -94.5940832,
    "website": "http://walshscornercocktails.com/",
    "category": "Bar & Restaurant",
    "types": "bar, restaurant, food, point_of_interest, establishment"
  },
  {
    "place_id": "ChIJK5dtUCXvwIcR1J-eqy7akPE",
    "name": "Lew's Grill & Bar",
    "street_address": "7539 Wornall Road",
    "city": "Kansas City",
    "state": "MO",
    "zip_code": "64114",
    "latitude": 38.9906915,
    "longitude": -94.59324470000001,
    "website": "http://lewsgrillandbar.com/",
    "category": "Bar & Restaurant",
    "types": "bar, restaurant, food, point_of_interest, establishment"
  },
  {
    "place_id": "ChIJ9wmJGUPuwIcRJ5CSag03mrE",
    "name": "O'Neill's Restaurant & Bar",
    "street_address": "9417 Mission Road",
    "city": "Leawood",
    "state": "KS",
    "zip_code": "66206",
    "latitude": 38.9583476,
    "longitude": -94.62979999999999,
    "website": "http://www.kconeills.com/",
    "category": "Bar & Restaurant",
    "types": "bar, restaurant, food, point_of_interest, establishment"
  },
  {
    "place_id": "ChIJ0yMyDSXvwIcR2buDdVMQo9k",
    "name": "Summit Grill",
    "street_address": "520 West 75th Street",
    "city": "Kansas City",
    "state": "MO",
    "zip_code": "64114",
    "latitude": 38.9926366,
    "longitude": -94.5960459,
    "website": "https://www.summitgrillkc.com/",
    "category": "Bar & Restaurant",
    "types": "bar, restaurant, food, point_of_interest, establishment"
  },
  {
    "place_id": "ChIJ0dvOTbPuwIcRNw8_sNTHdso",
    "name": "Johnny's Tavern PV",
    "street_address": "8262 Mission Road",
    "city": "Prairie Village",
    "state": "KS",
    "zip_code": "66208",
    "latitude": 38.9791329,
    "longitude": -94.6306505,
    "website": "http://www.johnnystavern.com/",
    "category": "Bar & Restaurant",
    "types": "bar, restaurant, point_of_interest, food, establishment"
  },
  {
    "place_id": "ChIJqc_gb7zvwIcR6S4vHFsNzZc",
    "name": "Peanut on Main",
    "street_address": "5000 Main Street",
    "city": "Kansas City",
    "state": "MO",
    "zip_code": "64112",
    "latitude": 39.03658009999999,
    "longitude": -94.58745789999999,
    "website": "http://www.peanutkc.com/",
    "category": "Bar & Restaurant",
    "types": "bar, restaurant, food, point_of_interest, establishment"
  },
  {
    "place_id": "ChIJQ2o425nswIcRNvMkqWHa2D4",
    "name": "Roni's Pub + Kitchen",
    "street_address": "7955 Frontage Road",
    "city": "Overland Park",
    "state": "KS",
    "zip_code": "66204",
    "latitude": 38.984542,
    "longitude": -94.704287,
    "website": "http://ronis.pub/",
    "category": "Bar & Restaurant",
    "types": "meal_delivery, bar, restaurant, food, point_of_interest, establishment"
  },
  {
    "place_id": "ChIJz_e8tHPswIcRdMKOPZjdKz4",
    "name": "Maloneys Sports Bar & Grill",
    "street_address": "7201 West 79th Street",
    "city": "Overland Park",
    "state": "KS",
    "zip_code": "66204",
    "latitude": 38.9856694,
    "longitude": -94.66919370000001,
    "website": "http://www.maloneyssportsbar.com/",
    "category": "Bar & Restaurant",
    "types": "bar, restaurant, food, point_of_interest, establishment"
  },
  {
    "place_id": "ChIJjaj2dybtwIcRQgnSoTzOVQg",
    "name": "Betty C's Bar and Grill",
    "street_address": "11121 Johnson Drive",
    "city": "Shawnee",
    "state": "KS",
    "zip_code": "66203",
    "latitude": 39.0227502,
    "longitude": -94.7154547,
    "website": "https://bettycsbarandgrill.com/",
    "category": "Bar & Restaurant",
    "types": "bar, restaurant, food, point_of_interest, establishment"
  },
  {
    "place_id": "ChIJe37VXnHswIcRDNV6xNtCZUw",
    "name": "The Other Place Overland Park",
    "street_address": "7324 West 80th Street",
    "city": "Overland Park",
    "state": "KS",
    "zip_code": "66204",
    "latitude": 38.98412870000001,
    "longitude": -94.6710351,
    "website": "https://theotherplace.com/location/overland-park-kansas",
    "category": "Bar & Restaurant",
    "types": "bar, restaurant, food, point_of_interest, establishment"
  },
  {
    "place_id": "ChIJgavT5LjswIcR8Dj8ucHwCc0",
    "name": "The Pour House Bar and Grill",
    "street_address": "7405 Nieman Road",
    "city": "Shawnee",
    "state": "KS",
    "zip_code": "66214",
    "latitude": 38.9947743,
    "longitude": -94.71413919999999,
    "website": null,
    "category": "Bar & Restaurant",
    "types": "bar, restaurant, food, point_of_interest, establishment"
  },
  {
    "place_id": "ChIJnwsFsLXrwIcR2k0U7sbr6i0",
    "name": "Fox & Hound - Overland Park, KS",
    "street_address": "10428 Metcalf Avenue",
    "city": "Overland Park",
    "state": "KS",
    "zip_code": "66212",
    "latitude": 38.93948549999999,
    "longitude": -94.66916920000001,
    "website": "https://www.foxandhound.com/",
    "category": "Bar & Restaurant",
    "types": "bar, restaurant, food, point_of_interest, establishment"
  },
  {
    "place_id": "ChIJAcCZVVPrwIcRX-Sd3QU9y3k",
    "name": "Cronin's Bar & Grill",
    "street_address": "12227 West 87th Street Parkway",
    "city": "Lenexa",
    "state": "KS",
    "zip_code": "66215",
    "latitude": 38.97027779999999,
    "longitude": -94.7269444,
    "website": null,
    "category": "Bar & Restaurant",
    "types": "night_club, bar, restaurant, food, point_of_interest, establishment"
  },
  {
    "place_id": "ChIJlSYGa3HswIcR0YExr8WUsOM",
    "name": "The Peanut",
    "street_address": "7938 Santa Fe Drive",
    "city": "Overland Park",
    "state": "KS",
    "zip_code": "66204",
    "latitude": 38.9844059,
    "longitude": -94.67209310000001,
    "website": "http://www.peanutmidwest.com/",
    "category": "Bar & Restaurant",
    "types": "bar, restaurant, food, point_of_interest, establishment"
  },
  {
    "place_id": "ChIJudUGOXHswIcRcPtrYBSTaDc",
    "name": "Brew Lab",
    "street_address": "7925 Marty Street",
    "city": "Overland Park",
    "state": "KS",
    "zip_code": "66204",
    "latitude": 38.9852169,
    "longitude": -94.6696004,
    "website": "https://www.brewlabkc.com/",
    "category": "Bar & Restaurant",
    "types": "bar, restaurant, food, point_of_interest, establishment"
  },
  {
    "place_id": "ChIJV70WnZbuwIcR0SLZnFxkWtg",
    "name": "Tavern in the Village",
    "street_address": "3901 Prairie Lane",
    "city": "Prairie Village",
    "state": "KS",
    "zip_code": "66208",
    "latitude": 39.0034003,
    "longitude": -94.63069499999999,
    "website": "http://taverninthevillage.com/",
    "category": "Bar & Restaurant",
    "types": "bar, restaurant, food, point_of_interest, establishment"
  },
  {
    "place_id": "ChIJ99GbVXXrwIcRXQZGJpZG8Bk",
    "name": "Johnny's Tavern 95th",
    "street_address": "8719 West 95th Street",
    "city": "Overland Park",
    "state": "KS",
    "zip_code": "66212",
    "latitude": 38.955814,
    "longitude": -94.68775,
    "website": "http://www.johnnystavern.com/",
    "category": "Bar & Restaurant",
    "types": "bar, restaurant, food, point_of_interest, establishment"
  },
  {
    "place_id": "ChIJ88wN5WzswIcR69uuyOaF4AE",
    "name": "Burg & Barrel - Overland Park",
    "street_address": "7042 West 76th Street",
    "city": "Overland Park",
    "state": "KS",
    "zip_code": "66204",
    "latitude": 38.991686,
    "longitude": -94.666771,
    "website": "https://www.burgandbarrel.com/",
    "category": "Bar & Restaurant",
    "types": "bar, restaurant, food, point_of_interest, establishment"
  },
  {
    "place_id": "ChIJU7v3sx7twIcRluVLY2eVAoU",
    "name": "District Pour House + Kitchen",
    "street_address": "11101 Johnson Drive",
    "city": "Shawnee",
    "state": "KS",
    "zip_code": "66203",
    "latitude": 39.0227169,
    "longitude": -94.71479180000001,
    "website": "http://districtks.com/",
    "category": "Bar & Restaurant",
    "types": "restaurant, bar, food, point_of_interest, establishment"
  },
  {
    "place_id": "ChIJkcjCUTrpwIcRRrSp0-l-W78",
    "name": "The Market at Meadowbrook",
    "street_address": "4901 Meadowbrook Parkway",
    "city": "Prairie Village",
    "state": "KS",
    "zip_code": "66207",
    "latitude": 38.961174,
    "longitude": -94.6435317,
    "website": "https://themarketkc.com/",
    "category": "Restaurant",
    "types": "restaurant, food, point_of_interest, establishment"
  },
  {
    "place_id": "ChIJdVslnCztwIcRR45TiZP5q_s",
    "name": "Jake's Place",
    "street_address": "12001 Johnson Drive",
    "city": "Shawnee",
    "state": "KS",
    "zip_code": "66216",
    "latitude": 39.02203919999999,
    "longitude": -94.7253493,
    "website": "https://www.jakesplacebar.net/",
    "category": "Bar & Restaurant",
    "types": "bar, restaurant, food, point_of_interest, establishment"
  },
  {
    "place_id": "ChIJKdQXwOHrwIcRYueaT9dXcXE",
    "name": "Becks Place Overland Park",
    "street_address": "9148 Santa Fe Drive",
    "city": "Overland Park",
    "state": "KS",
    "zip_code": "66212",
    "latitude": 38.9714939,
    "longitude": -94.69188059999999,
    "website": "http://becksplaceop.com/",
    "category": "Bar & Restaurant",
    "types": "bar, restaurant, food, point_of_interest, establishment"
  },
  {
    "place_id": "ChIJm0GzlAXtwIcRjRhAO0a6ld0",
    "name": "Hurricane Allie's Bar & Grill",
    "street_address": "5541 Merriam Drive",
    "city": "Shawnee",
    "state": "KS",
    "zip_code": "66203",
    "latitude": 39.028254,
    "longitude": -94.6926242,
    "website": "https://www.facebook.com/Hurricane-Allies-Bar-Grill-167758193273392/",
    "category": "Bar & Restaurant",
    "types": "bar, restaurant, food, point_of_interest, establishment"
  },
  {
    "place_id": "ChIJC8_84dTtwIcRh06gv_tBZgs",
    "name": "The Peanut",
    "street_address": "5400 Martway Street",
    "city": "Mission",
    "state": "KS",
    "zip_code": "66205",
    "latitude": 39.0220306,
    "longitude": -94.6475442,
    "website": "https://www.peanutmidwest.com/",
    "category": "Bar & Restaurant",
    "types": "bar, restaurant, food, point_of_interest, establishment"
  },
  {
    "place_id": "ChIJl2WgU63twIcRAfEJ2TfVehg",
    "name": "Strang Hall",
    "street_address": "7313 West 80th Street",
    "city": "Overland Park",
    "state": "KS",
    "zip_code": "66204",
    "latitude": 38.983876,
    "longitude": -94.6706021,
    "website": "https://www.stranghall.com/",
    "category": "Restaurant",
    "types": "restaurant, food, point_of_interest, establishment"
  },
  {
    "place_id": "ChIJNemdMYLpwIcRpNnz6J67eHs",
    "name": "McLain's Market Overland Park",
    "street_address": "10695 Roe Avenue",
    "city": "Overland Park",
    "state": "KS",
    "zip_code": "66207",
    "latitude": 38.93522129999999,
    "longitude": -94.63895099999999,
    "website": "http://www.mclainskc.com/overland-park/",
    "category": "Restaurant",
    "types": "cafe, bakery, store, restaurant, food, point_of_interest, establishment"
  },
  {
    "place_id": "ChIJPzKCf8_rwIcRrr3K8vQehu4",
    "name": "Mr. P'z Bar and Grill at Fireside BBQ",
    "street_address": "10400 Mastin Street",
    "city": "Overland Park",
    "state": "KS",
    "zip_code": "66212",
    "latitude": 38.940794,
    "longitude": -94.70250999999999,
    "website": "https://www.mrpzbar-grill.com/",
    "category": "Bar & Restaurant",
    "types": "bar, restaurant, food, point_of_interest, establishment"
  },
  {
    "place_id": "ChIJY6OpKE3pwIcRN9nQlGXushQ",
    "name": "BRGR Kitchen + Bar",
    "street_address": "4038 West 83rd Street",
    "city": "Prairie Village",
    "state": "KS",
    "zip_code": "66208",
    "latitude": 38.97966829999999,
    "longitude": -94.6322001,
    "website": "https://brgrkitchen.com/",
    "category": "Bar & Restaurant",
    "types": "bar, restaurant, food, point_of_interest, establishment"
  },
  {
    "place_id": "ChIJuy3kRuhZwIcRCWrQOz4Ndoc",
    "name": "The Limit Pub & Grub",
    "street_address": "523 East Red Bridge Road",
    "city": "Kansas City",
    "state": "MO",
    "zip_code": "64131",
    "latitude": 38.9253218,
    "longitude": -94.5855117,
    "website": "http://www.thelimitpubandgrub.com/",
    "category": "Bar & Restaurant",
    "types": "bar, restaurant, food, point_of_interest, establishment"
  },
  {
    "place_id": "ChIJ5UoOqAHpwIcRsUg5LugJpSo",
    "name": "Ugly Joe's",
    "street_address": "1227 West 103rd Street",
    "city": "Kansas City",
    "state": "MO",
    "zip_code": "64114",
    "latitude": 38.94125,
    "longitude": -94.606753,
    "website": "https://www.uglyjoeskc.com/",
    "category": "Bar & Restaurant",
    "types": "bar, restaurant, food, point_of_interest, establishment"
  },
  {
    "place_id": "ChIJN17btwHpwIcRIPbxCQfHgDY",
    "name": "Southside Bar & Grille",
    "street_address": "1144 West 103rd Street",
    "city": "Kansas City",
    "state": "MO",
    "zip_code": "64114",
    "latitude": 38.9426083,
    "longitude": -94.60625379999999,
    "website": "http://southsidebarandgrille.com/",
    "category": "Bar & Restaurant",
    "types": "bar, restaurant, food, point_of_interest, establishment"
  },
  {
    "place_id": "ChIJ8_tZIzDqwIcRdtktjGCUUhA",
    "name": "OP1906 Bar & Grill",
    "street_address": "6100 College Boulevard",
    "city": "Overland Park",
    "state": "KS",
    "zip_code": "66211",
    "latitude": 38.9283897,
    "longitude": -94.65675069999999,
    "website": "http://www.op1906.com/",
    "category": "Bar & Restaurant",
    "types": "bar, restaurant, food, point_of_interest, establishment"
  },
  {
    "place_id": "ChIJp9sEMjrpwIcRCu6mYmqJfcI",
    "name": "Tanner's",
    "street_address": "11134 Holmes Road",
    "city": "Kansas City",
    "state": "MO",
    "zip_code": "64131",
    "latitude": 38.9243271,
    "longitude": -94.5851557,
    "website": "https://tannersbarandgrill.com/",
    "category": "Bar & Restaurant",
    "types": "bar, restaurant, food, point_of_interest, establishment"
  },
  {
    "place_id": "ChIJ3Z3IHmrrwIcRKjuoANKC3iE",
    "name": "Coach's Bar & Grill-College",
    "street_address": "6700 College Boulevard",
    "city": "Overland Park",
    "state": "KS",
    "zip_code": "66211",
    "latitude": 38.928011,
    "longitude": -94.66333,
    "website": "https://www.coach-s.com/",
    "category": "Bar & Restaurant",
    "types": "meal_takeaway, bar, restaurant, food, point_of_interest, establishment"
  },
  {
    "place_id": "ChIJeR2znJ7pwIcRjDD5DLCDrMc",
    "name": "Tavern at Mission Farms",
    "street_address": "10681 Mission Road",
    "city": "Leawood",
    "state": "KS",
    "zip_code": "66206",
    "latitude": 38.9340667,
    "longitude": -94.62948600000001,
    "website": "http://www.tavernatmissionfarms.com/",
    "category": "Bar & Restaurant",
    "types": "bar, restaurant, food, point_of_interest, establishment"
  },
  {
    "place_id": "ChIJMZvxBj_vwIcRoLSpz_W-fMg",
    "name": "Governor Stumpy\u2019s Grill House",
    "street_address": "321 East Gregory Boulevard",
    "city": "Kansas City",
    "state": "MO",
    "zip_code": "64114",
    "latitude": 38.9990982,
    "longitude": -94.5851276,
    "website": "https://www.governorstumpys.com/",
    "category": "Bar & Restaurant",
    "types": "bar, restaurant, food, point_of_interest, establishment"
  },
  {
    "place_id": "ChIJWYlIkJ7pwIcR3hHtrLZ2Ccc",
    "name": "Rye Leawood",
    "street_address": "10551 Mission Road",
    "city": "Leawood",
    "state": "KS",
    "zip_code": "66206",
    "latitude": 38.9345806,
    "longitude": -94.6282056,
    "website": "http://www.ryekc.com/",
    "category": "Bar & Restaurant",
    "types": "bar, restaurant, food, point_of_interest, establishment"
  },
  {
    "place_id": "ChIJURDhQu3vwIcRc4rgpKTRw3M",
    "name": "City Barrel Pizza + Patio",
    "street_address": "120 East Gregory Boulevard",
    "city": "Kansas City",
    "state": "MO",
    "zip_code": "64114",
    "latitude": 38.9996097,
    "longitude": -94.5871887,
    "website": "https://www.citybarrelbrewing.com/",
    "category": "Restaurant",
    "types": "restaurant, point_of_interest, food, establishment"
  },
  {
    "place_id": "ChIJSVf8EzntwIcRH9_Sz94No94",
    "name": "Hank's Garage and Grill",
    "street_address": "5801 Nieman Road",
    "city": "Shawnee",
    "state": "KS",
    "zip_code": "66203",
    "latitude": 39.023662,
    "longitude": -94.714263,
    "website": null,
    "category": "Bar & Restaurant",
    "types": "bar, restaurant, food, point_of_interest, establishment"
  },
  {
    "place_id": "ChIJtTCHpdvswIcR9L_Pb9q9lYI",
    "name": "The Social Bar & Grill",
    "street_address": "13410 West 62nd Terrace",
    "city": "Shawnee",
    "state": "KS",
    "zip_code": "66216",
    "latitude": 39.01625689999999,
    "longitude": -94.741786,
    "website": "https://www.thesocialshawnee.com/",
    "category": "Restaurant",
    "types": "restaurant, food, point_of_interest, establishment"
  },
  {
    "place_id": "ChIJccT_Co3twIcRAIUXz9KMMFI",
    "name": "Pathlight Brewing",
    "street_address": "11200 West 75th Street",
    "city": "Shawnee",
    "state": "KS",
    "zip_code": "66214",
    "latitude": 38.9933179,
    "longitude": -94.71600769999999,
    "website": "http://pathlightbrewing.com/",
    "category": "Bar & Restaurant",
    "types": "bar, restaurant, food, point_of_interest, establishment"
  },
  {
    "place_id": "ChIJNceYMmrtwIcRfFu61LtqxRU",
    "name": "K C's Neighborhood Bar & Grill",
    "street_address": "10201 47th Street",
    "city": "Shawnee",
    "state": "KS",
    "zip_code": "66203",
    "latitude": 39.0434617,
    "longitude": -94.7044152,
    "website": null,
    "category": "Bar & Restaurant",
    "types": "night_club, bar, restaurant, food, point_of_interest, establishment"
  },
  {
    "place_id": "ChIJU5lYf8q_wIcRWFXUw-ep-Xg",
    "name": "WingStand by Jefferson's\u2014Olathe",
    "street_address": "119 South Mur-Len Road",
    "city": "Olathe",
    "state": "KS",
    "zip_code": "66062",
    "latitude": 38.8818664,
    "longitude": -94.7800853,
    "website": "https://wingstand.com/?utm_source=gmb&utm_medium=Yext",
    "category": "Restaurant",
    "types": "restaurant, point_of_interest, food, establishment"
  },
  {
    "place_id": "ChIJHQ39zC6-wIcRFP6R_tlpIr8",
    "name": "The Other Place Olathe",
    "street_address": "16590 West 135th Street",
    "city": "Olathe",
    "state": "KS",
    "zip_code": "66062",
    "latitude": 38.88475409999999,
    "longitude": -94.775983,
    "website": "https://theotherplace.com/location/olathe-kansas",
    "category": "Bar & Restaurant",
    "types": "restaurant, bar, food, point_of_interest, establishment"
  },
  {
    "place_id": "ChIJq2Xh1H6_wIcRbzEj5L7X-Xg",
    "name": "Lumpy's",
    "street_address": "1505 East 151st Street",
    "city": "Olathe",
    "state": "KS",
    "zip_code": "66062",
    "latitude": 38.85366849999999,
    "longitude": -94.7950935,
    "website": "https://www.facebook.com/lumpysolathe/",
    "category": "Bar & Restaurant",
    "types": "night_club, bar, restaurant, food, point_of_interest, establishment"
  },
  {
    "place_id": "ChIJ_wbUzF6WwIcRerGXWTej0Vo",
    "name": "Austins Bar & Grill | North Olathe",
    "street_address": "11180 South Lone Elm Road",
    "city": "Olathe",
    "state": "KS",
    "zip_code": "66061",
    "latitude": 38.9254894,
    "longitude": -94.8365567,
    "website": "http://austinsbarandgrill.com/",
    "category": "Bar & Restaurant",
    "types": "bar, restaurant, food, point_of_interest, establishment"
  },
  {
    "place_id": "ChIJrz1Z_2S_wIcRDrmR6WRXnrg",
    "name": "The Peanut",
    "street_address": "1731 South Mur-Len Road",
    "city": "Olathe",
    "state": "KS",
    "zip_code": "66062",
    "latitude": 38.85566250000001,
    "longitude": -94.7804693,
    "website": "https://peanutmidwest.com/the-peanut-on-s-mur-len-rd-olathe-ks/",
    "category": "Bar & Restaurant",
    "types": "restaurant, bar, food, point_of_interest, establishment"
  },
  {
    "place_id": "ChIJ-Vabz9u9wIcRmxRBqlDUxcQ",
    "name": "54th Street Scratch Grill & Bar",
    "street_address": "14750 South Harrison Street",
    "city": "Olathe",
    "state": "KS",
    "zip_code": "66061",
    "latitude": 38.8604233,
    "longitude": -94.8166559,
    "website": "https://www.54thstreetgrill.com/",
    "category": "Bar & Restaurant",
    "types": "restaurant, bar, food, point_of_interest, establishment"
  },
  {
    "place_id": "ChIJu2QHIlq-wIcRSDsl6gPoqQg",
    "name": "Austins Bar & Grill | South Olathe",
    "street_address": "2103 East 151st Street",
    "city": "Olathe",
    "state": "KS",
    "zip_code": "66062",
    "latitude": 38.85411010000001,
    "longitude": -94.7813857,
    "website": "http://austinsbarandgrill.com/",
    "category": "Bar & Restaurant",
    "types": "bar, restaurant, food, point_of_interest, establishment"
  },
  {
    "place_id": "ChIJOTuVKSi9wIcR7XsVSP5yTlY",
    "name": "BB's Grill",
    "street_address": "1100 West Santa Fe Street",
    "city": "Olathe",
    "state": "KS",
    "zip_code": "66061",
    "latitude": 38.88527039999999,
    "longitude": -94.83381729999999,
    "website": "https://www.bbsgrill.bar/",
    "category": "Bar & Restaurant",
    "types": "bar, restaurant, food, point_of_interest, establishment"
  },
  {
    "place_id": "ChIJeUGfXUm6wIcRC9lT_YfLeX0",
    "name": "Red Crow Brewing Company",
    "street_address": "1062 West Santa Fe Street",
    "city": "Olathe",
    "state": "KS",
    "zip_code": "66061",
    "latitude": 38.8843452,
    "longitude": -94.8326987,
    "website": "http://redcrowbrew.com/",
    "category": "Bar & Restaurant",
    "types": "bar, restaurant, food, point_of_interest, establishment"
  },
  {
    "place_id": "ChIJ8Qo9LHWVwIcRysRblTwjnvY",
    "name": "THE 180 ROOM",
    "street_address": "11944 South Strang Line Road",
    "city": "Olathe",
    "state": "KS",
    "zip_code": "66062",
    "latitude": 38.9114716,
    "longitude": -94.7689626,
    "website": "https://www.the180room.com/",
    "category": "Restaurant",
    "types": "restaurant, food, point_of_interest, establishment"
  },
  {
    "place_id": "ChIJF_0Pkp-VwIcReEEuhs4WY6c",
    "name": "Buffalo Wild Wings",
    "street_address": "12110 South Strang Line Road",
    "city": "Olathe",
    "state": "KS",
    "zip_code": "66062",
    "latitude": 38.91070189999999,
    "longitude": -94.7707361,
    "website": "https://www.buffalowildwings.com/locations/us/ks/olathe/12110-s-strang-line-rd/sports-bar-769?utm_source=google%20my%20business&utm_medium=organic&utm_campaign=website%20link",
    "category": "Bar & Restaurant",
    "types": "meal_takeaway, bar, restaurant, food, point_of_interest, establishment"
  },
  {
    "place_id": "ChIJPb1IrICUwIcRnUFBaCf6UW8",
    "name": "Red Door Woodfired Grill",
    "street_address": "15918 West 88th Street",
    "city": "Lenexa",
    "state": "KS",
    "zip_code": "66219",
    "latitude": 38.9699031,
    "longitude": -94.7714996,
    "website": "http://reddoorgrill.com/",
    "category": "Restaurant",
    "types": "restaurant, food, point_of_interest, establishment"
  },
  {
    "place_id": "ChIJjd5tsHCUwIcR-Hi1mvf-Jx0",
    "name": "Saints Pub + Patio Lenexa City Center",
    "street_address": "16804 West 89th Street",
    "city": "Lenexa",
    "state": "KS",
    "zip_code": "66219",
    "latitude": 38.967624,
    "longitude": -94.7802676,
    "website": "https://saintspub.com/",
    "category": "Bar & Restaurant",
    "types": "bar, restaurant, food, point_of_interest, establishment"
  },
  {
    "place_id": "ChIJ4c0vYyaVwIcRr7bAalhHX-g",
    "name": "Tanner's Bar & Grill",
    "street_address": "13350 College Boulevard",
    "city": "Lenexa",
    "state": "KS",
    "zip_code": "66210",
    "latitude": 38.928855,
    "longitude": -94.7404894,
    "website": "http://www.tannersbarandgrill.com/",
    "category": "Bar & Restaurant",
    "types": "bar, restaurant, food, point_of_interest, establishment"
  },
  {
    "place_id": "ChIJPUCrG42UwIcRW0StO-5ZnyM",
    "name": "Wallaby's Grill & Pub",
    "street_address": "9562 Lackman Road",
    "city": "Lenexa",
    "state": "KS",
    "zip_code": "66219",
    "latitude": 38.9549625,
    "longitude": -94.76258829999999,
    "website": "https://www.wallabysonline.com/menus/",
    "category": "Bar & Restaurant",
    "types": "bar, restaurant, food, point_of_interest, establishment"
  },
  {
    "place_id": "ChIJX1JPRbTqwIcRkQGPyB2V3p8",
    "name": "Talk of the Town Grill & Bar",
    "street_address": "11922 West 119th Street",
    "city": "Overland Park",
    "state": "KS",
    "zip_code": "66213",
    "latitude": 38.9134106,
    "longitude": -94.7252605,
    "website": "http://www.talkofthetowngrill.com/",
    "category": "Bar & Restaurant",
    "types": "restaurant, bar, food, point_of_interest, establishment"
  },
  {
    "place_id": "ChIJZby-O6mUwIcRffmA77bf72w",
    "name": "Murphy\u2019s Corner",
    "street_address": "12843 West 87th Street Parkway",
    "city": "Lenexa",
    "state": "KS",
    "zip_code": "66215",
    "latitude": 38.97037889999999,
    "longitude": -94.735321,
    "website": "http://murphyscornerkc.com/",
    "category": "Bar & Restaurant",
    "types": "bar, restaurant, food, point_of_interest, establishment"
  },
  {
    "place_id": "ChIJr63MWrTqwIcRkoU7A-8FRmY",
    "name": "Barley's Kitchen + Tap",
    "street_address": "11924 West 119th Street",
    "city": "Overland Park",
    "state": "KS",
    "zip_code": "66213",
    "latitude": 38.913357,
    "longitude": -94.72581799999999,
    "website": "http://barleyskitchenandtap.com/op/",
    "category": "Bar & Restaurant",
    "types": "restaurant, bar, food, point_of_interest, establishment"
  },
  {
    "place_id": "ChIJEcHmrZTqwIcRfXzAFIw2-oU",
    "name": "Tanner's Bar & Grill- 119th",
    "street_address": "10146 West 119th Street",
    "city": "Overland Park",
    "state": "KS",
    "zip_code": "66210",
    "latitude": 38.9137473,
    "longitude": -94.7025506,
    "website": "https://www.tannersbarandgrill.com/",
    "category": "Bar & Restaurant",
    "types": "bar, restaurant, food, point_of_interest, establishment"
  },
  {
    "place_id": "ChIJNTGRVm-UwIcR9n-ZTxltq9c",
    "name": "Brewbakers Bar & Grill",
    "street_address": "9482 Renner Boulevard",
    "city": "Lenexa",
    "state": "KS",
    "zip_code": "66219",
    "latitude": 38.95695240000001,
    "longitude": -94.7806315,
    "website": "http://brewbakersbar.com/",
    "category": "Bar & Restaurant",
    "types": "bar, restaurant, food, point_of_interest, establishment"
  },
  {
    "place_id": "ChIJg-jB3qiUwIcRpT4xWYGTk-0",
    "name": "Tanner's Bar & Grill",
    "street_address": "12906 West 87th Street Parkway",
    "city": "Lenexa",
    "state": "KS",
    "zip_code": "66215",
    "latitude": 38.972021,
    "longitude": -94.73580400000002,
    "website": "http://www.tannersbarandgrill.com/lenexa-ks-12906-w-87th-st-pkwy/",
    "category": "Bar & Restaurant",
    "types": "bar, restaurant, point_of_interest, food, establishment"
  },
  {
    "place_id": "ChIJ_WhIR6OTwIcRb9zaDDViEXY",
    "name": "Barley's Kitchen + Tap",
    "street_address": "16649 Midland Drive",
    "city": "Shawnee",
    "state": "KS",
    "zip_code": "66217",
    "latitude": 38.99845739999999,
    "longitude": -94.778463,
    "website": "http://barleyskitchenandtap.com/shawnee/",
    "category": "Bar & Restaurant",
    "types": "restaurant, bar, food, point_of_interest, establishment"
  },
  {
    "place_id": "ChIJYSNNnp2VwIcR9TMp8Lx_EdE",
    "name": "Martin City Brewing Co. Pizza & Taproom - Lenexa",
    "street_address": "8802 Renner Boulevard",
    "city": "Lenexa",
    "state": "KS",
    "zip_code": "66219",
    "latitude": 38.96879649999999,
    "longitude": -94.7801528,
    "website": "http://martincitybrewingcompany.com/locations",
    "category": "Bar & Restaurant",
    "types": "restaurant, bar, point_of_interest, food, establishment"
  },
  {
    "place_id": "ChIJGVBXrMWVwIcR7psKSmLhSEQ",
    "name": "Silo Modern Farmhouse",
    "street_address": "17501 West 87th Street",
    "city": "Lenexa",
    "state": "KS",
    "zip_code": "66219",
    "latitude": 38.96914359999999,
    "longitude": -94.7910646,
    "website": "https://www.silocanyonfarms.com/?utm_source=Google&utm_medium=BusinessListing",
    "category": "Restaurant",
    "types": "restaurant, food, point_of_interest, establishment"
  },
  {
    "place_id": "ChIJcx6JxGqVwIcRzbgG02pcaxc",
    "name": "Burg & Barrel - Lenexa",
    "street_address": "8725 Bourgade Street",
    "city": "Lenexa",
    "state": "KS",
    "zip_code": "66219",
    "latitude": 38.96994,
    "longitude": -94.766966,
    "website": "https://www.burgandbarrel.com/",
    "category": "Restaurant",
    "types": "restaurant, food, point_of_interest, establishment"
  },
  {
    "place_id": "ChIJm5ykZgOVwIcRKKnAi1HzIII",
    "name": "Sierra Grill",
    "street_address": "8659 Penrose Lane",
    "city": "Lenexa",
    "state": "KS",
    "zip_code": "66219",
    "latitude": 38.97198049999999,
    "longitude": -94.7835995,
    "website": "http://sierragrillkc.com/",
    "category": "Restaurant",
    "types": "restaurant, food, point_of_interest, establishment"
  },
  {
    "place_id": "ChIJCxP3sLuUwIcRuUsJfmYECso",
    "name": "Jerry's Bait Shop",
    "street_address": "13412 Santa Fe Trail Drive",
    "city": "Lenexa",
    "state": "KS",
    "zip_code": "66215",
    "latitude": 38.9610905,
    "longitude": -94.7412172,
    "website": "http://www.jerrysbaitshop.net/",
    "category": "Bar & Restaurant",
    "types": "night_club, meal_takeaway, bar, restaurant, food, point_of_interest, establishment"
  },
  {
    "place_id": "ChIJiTbsthKVwIcRlOvYSRhB_ZQ",
    "name": "Twin Peaks",
    "street_address": "14805 West 119th Street",
    "city": "Olathe",
    "state": "KS",
    "zip_code": "66062",
    "latitude": 38.9122667,
    "longitude": -94.75773769999999,
    "website": "https://twinpeaksrestaurant.com/locations/olathe-ks",
    "category": "Bar & Restaurant",
    "types": "bar, restaurant, food, point_of_interest, establishment"
  },
  {
    "place_id": "ChIJz2_PiqaUwIcR1J0jStJtfg4",
    "name": "Side Pockets Lenexa",
    "street_address": "13320 West 87th Street",
    "city": "Lenexa",
    "state": "KS",
    "zip_code": "66215",
    "latitude": 38.9724751,
    "longitude": -94.7402968,
    "website": "http://www.sidepocketslenexa.com/",
    "category": "Restaurant",
    "types": "restaurant, food, point_of_interest, establishment"
  },
  {
    "place_id": "ChIJIbehyHaUwIcRnItlhWgI7os",
    "name": "Lenexa Public Market",
    "street_address": "8750 Penrose Lane",
    "city": "Lenexa",
    "state": "KS",
    "zip_code": "66219",
    "latitude": 38.9699268,
    "longitude": -94.7837294,
    "website": "http://www.lenexapublicmarket.com/",
    "category": "Restaurant",
    "types": "restaurant, food, point_of_interest, establishment"
  },
  {
    "place_id": "ChIJLU7XoHCUwIcRxAXkIKeygzs",
    "name": "Grand Street Lenexa",
    "street_address": "8815 Renner Boulevard",
    "city": "Lenexa",
    "state": "KS",
    "zip_code": "66219",
    "latitude": 38.9685061,
    "longitude": -94.77881939999999,
    "website": "http://grandstreetlenexa.com/",
    "category": "Restaurant",
    "types": "restaurant, food, point_of_interest, establishment"
  },
  {
    "place_id": "ChIJ_6jrr2XrwIcRKtdFhLaBTnE",
    "name": "KC Craft & Co featuring Bennigan's On The Fly",
    "street_address": "8787 Reeder Street",
    "city": "Overland Park",
    "state": "KS",
    "zip_code": "66214",
    "latitude": 38.9692281,
    "longitude": -94.71233699999999,
    "website": "https://www.kccraftco.com/",
    "category": "Bar & Restaurant",
    "types": "restaurant, bar, food, point_of_interest, establishment"
  },
  {
    "place_id": "ChIJ0fk1I1bqwIcRpiAy14PA4Zc",
    "name": "Q39 South",
    "street_address": "11051 Antioch Road",
    "city": "Overland Park",
    "state": "KS",
    "zip_code": "66210",
    "latitude": 38.9287968,
    "longitude": -94.6857828,
    "website": "https://q39kc.com/locations/overland-park-bbq/?utm_source=Google&utm_medium=Maps&utm_campaign=GBP_south",
    "category": "Bar & Restaurant",
    "types": "bar, restaurant, food, point_of_interest, establishment"
  },
  {
    "place_id": "ChIJtcZgQ9uUwIcRrVzEfxLjn78",
    "name": "Grinders Stonewall",
    "street_address": "10240 Pflumm Road",
    "city": "Lenexa",
    "state": "KS",
    "zip_code": "66215",
    "latitude": 38.9427185,
    "longitude": -94.7425284,
    "website": "http://www.grinderspizza.com/",
    "category": "Restaurant",
    "types": "restaurant, food, point_of_interest, establishment"
  },
  {
    "place_id": "ChIJty1AEkjrwIcRa4yUUMesg7k",
    "name": "Houlihan's",
    "street_address": "11851 West 95th Street",
    "city": "Overland Park",
    "state": "KS",
    "zip_code": "66214",
    "latitude": 38.9562084,
    "longitude": -94.71810099999999,
    "website": "https://www.houlihans.com/location/overland-park-houlihans/",
    "category": "Bar & Restaurant",
    "types": "bar, restaurant, food, point_of_interest, establishment"
  },
  {
    "place_id": "ChIJ2ePdrg_vwIcR5Zvprhrlidk",
    "name": "Bella Napoli",
    "street_address": "6229 Brookside Boulevard",
    "city": "Kansas City",
    "state": "MO",
    "zip_code": "64113",
    "latitude": 39.0144464,
    "longitude": -94.59100099999999,
    "website": "http://www.kcbellanapoli.com/",
    "category": "Restaurant",
    "types": "grocery_or_supermarket, restaurant, food, store, point_of_interest, establishment"
  },
  {
    "place_id": "ChIJzYcrqnPvwIcRqbHcirmYju8",
    "name": "Earl's Premier",
    "street_address": "651 East 59th Street",
    "city": "Kansas City",
    "state": "MO",
    "zip_code": "64110",
    "latitude": 39.01994889999999,
    "longitude": -94.5789571,
    "website": "https://earlspremier.com/",
    "category": "Restaurant",
    "types": "restaurant, food, point_of_interest, establishment"
  },
  {
    "place_id": "ChIJ-ctEZLzvwIcR0Iyq7XD0LZs",
    "name": "Andr\u00e9's Chocolates Kansas City",
    "street_address": "5018 Main Street",
    "city": "Kansas City",
    "state": "MO",
    "zip_code": "64112",
    "latitude": 39.0362286,
    "longitude": -94.5876201,
    "website": "https://andreschocolates.com/",
    "category": "Bar & Restaurant",
    "types": "cafe, bakery, bar, restaurant, food, point_of_interest, store, establishment"
  }
]