[
  {
    "place_id": "ChIJr2EaxJ230YgRNtyOqcE5_28",
    "name": "Celtic Conch Public House",
    "street_address": "528 Front Street",
    "city": "Key West",
    "state": "FL",
    "zip_code": "33040",
    "latitude": 24.5607965,
    "longitude": -81.80483579999999,
    "website": "https://celticconch.godaddysites.com/",
    "category": "Bar & Restaurant",
    "types": "bar, restaurant, food, point_of_interest, establishment"
  },
  {
    "place_id": "ChIJZcqXoum20YgRqFxWSHk91Zs",
    "name": "Mary Ellen's Bar & Restaurant",
    "street_address": "420 Appelrouth Lane",
    "city": "Key West",
    "state": "FL",
    "zip_code": "33040",
    "latitude": 24.5549093,
    "longitude": -81.8026173,
    "website": "http://maryellensbar.com/",
    "category": "Bar & Restaurant",
    "types": "bar, restaurant, point_of_interest, food, establishment"
  },
  {
    "place_id": "ChIJ3dbZUHq30YgR2yfssga0Vvw",
    "name": "Brady's Pub Key West",
    "street_address": "1900 Flagler Avenue",
    "city": "Key West",
    "state": "FL",
    "zip_code": "33040",
    "latitude": 24.555004,
    "longitude": -81.7796221,
    "website": "http://bradyspubkeywest.com/",
    "category": "Bar & Restaurant",
    "types": "bar, restaurant, food, point_of_interest, establishment"
  },
  {
    "place_id": "ChIJKz1uv-q20YgRHfCT5Jq9aqg",
    "name": "Schooner Wharf Bar",
    "street_address": "202 William Street",
    "city": "Key West",
    "state": "FL",
    "zip_code": "33040",
    "latitude": 24.56104479999999,
    "longitude": -81.8016383,
    "website": "http://www.schoonerwharf.com/",
    "category": "Bar & Restaurant",
    "types": "bar, restaurant, food, point_of_interest, establishment"
  },
  {
    "place_id": "ChIJGzJH18K20YgROAHzctt8C8s",
    "name": "Ocean Grill & Bar",
    "street_address": "1075 Duval Street",
    "city": "Key West",
    "state": "FL",
    "zip_code": "33040",
    "latitude": 24.5506506,
    "longitude": -81.7984467,
    "website": "http://oceangrillandbar.com/",
    "category": "Bar & Restaurant",
    "types": "bar, restaurant, food, point_of_interest, establishment"
  },
  {
    "place_id": "ChIJn5I4mOy20YgRJgjLi2xsiiY",
    "name": "Sunset Pier",
    "street_address": "0 Duval Street",
    "city": "Key West",
    "state": "FL",
    "zip_code": "33040",
    "latitude": 24.5609118,
    "longitude": -81.8072677,
    "website": "https://www.oceankey.com/key-west-sunset-pier/?utm_source=gmb-SunsetPier&utm_medium=organic&utm_campaign=gmb-SunsetPier",
    "category": "Bar & Restaurant",
    "types": "bar, restaurant, food, point_of_interest, establishment"
  },
  {
    "place_id": "ChIJA70lnuu20YgRpsdoCEHt-IQ",
    "name": "Pickles Pub Key West",
    "street_address": "511 Greene Street",
    "city": "Key West",
    "state": "FL",
    "zip_code": "33040",
    "latitude": 24.55960499999999,
    "longitude": -81.80490569999999,
    "website": "https://picklespubkw.com/",
    "category": "Bar & Restaurant",
    "types": "bar, restaurant, food, point_of_interest, establishment"
  },
  {
    "place_id": "ChIJndZgl-u20YgRLCGNmBM1gKE",
    "name": "Irish Kevin's",
    "street_address": "211 Duval Street",
    "city": "Key West",
    "state": "FL",
    "zip_code": "33040",
    "latitude": 24.5588207,
    "longitude": -81.80484,
    "website": "http://www.irishkevins.com/",
    "category": "Bar & Restaurant",
    "types": "bar, restaurant, food, point_of_interest, establishment"
  },
  {
    "place_id": "ChIJdUcJbuu20YgRLfLDEC8yOKk",
    "name": "Sloppy Joe's Bar",
    "street_address": "201 Duval Street",
    "city": "Key West",
    "state": "FL",
    "zip_code": "33040",
    "latitude": 24.55908449999999,
    "longitude": -81.80497129999999,
    "website": "https://sloppyjoes.com/",
    "category": "Bar & Restaurant",
    "types": "bar, restaurant, food, point_of_interest, establishment"
  },
  {
    "place_id": "ChIJywnqHDu30YgRPGrEedr52nA",
    "name": "Old Town Tavern & Beer Garden",
    "street_address": "900 Duval Street",
    "city": "Key West",
    "state": "FL",
    "zip_code": "33040",
    "latitude": 24.55184939999999,
    "longitude": -81.80000629999999,
    "website": "http://www.oldtowntavernkw.com/",
    "category": "Bar & Restaurant",
    "types": "restaurant, meal_delivery, bar, food, point_of_interest, establishment"
  },
  {
    "place_id": "ChIJ-1Q1jum20YgRKR5YEfbU5ho",
    "name": "Jack Flats",
    "street_address": "509 Duval Street",
    "city": "Key West",
    "state": "FL",
    "zip_code": "33040",
    "latitude": 24.5556539,
    "longitude": -81.8025523,
    "website": "https://jackflats.com/",
    "category": "Bar & Restaurant",
    "types": "bar, restaurant, food, point_of_interest, establishment"
  },
  {
    "place_id": "ChIJjYnIYuu20YgRB-A9DdA_Zjs",
    "name": "Island Dogs Bar",
    "street_address": "505 Front Street",
    "city": "Key West",
    "state": "FL",
    "zip_code": "33040",
    "latitude": 24.5606611,
    "longitude": -81.8054806,
    "website": "http://www.islanddogsbar.com/",
    "category": "Bar & Restaurant",
    "types": "bar, restaurant, food, point_of_interest, establishment"
  },
  {
    "place_id": "ChIJ-TqXk-m20YgROr6rCtQzPDY",
    "name": "Willie T's",
    "street_address": "525 Duval Street",
    "city": "Key West",
    "state": "FL",
    "zip_code": "33040",
    "latitude": 24.5553397,
    "longitude": -81.8021898,
    "website": "http://www.williets.com/",
    "category": "Bar & Restaurant",
    "types": "bar, restaurant, food, point_of_interest, establishment"
  },
  {
    "place_id": "ChIJ79iHfuy20YgRPRrMNtoPag4",
    "name": "Hog's Breath Saloon",
    "street_address": "400 Front Street",
    "city": "Key West",
    "state": "FL",
    "zip_code": "33040",
    "latitude": 24.5595169,
    "longitude": -81.80607169999999,
    "website": "http://www.hogsbreath.com/",
    "category": "Bar & Restaurant",
    "types": "clothing_store, bar, restaurant, food, point_of_interest, store, establishment"
  },
  {
    "place_id": "ChIJe5GVc8C20YgRJYLuTozcM2Y",
    "name": "Dante's Key West Pool Bar & Restaurant",
    "street_address": "955 Caroline Street",
    "city": "Key West",
    "state": "FL",
    "zip_code": "33040",
    "latitude": 24.5619094,
    "longitude": -81.79959649999999,
    "website": "http://danteskeywest.com/",
    "category": "Bar & Restaurant",
    "types": "restaurant, bar, food, point_of_interest, establishment"
  },
  {
    "place_id": "ChIJ7R5B8Fi30YgR_mk-6rs41SU",
    "name": "Hank's Hair of the Dog Saloon",
    "street_address": "409 Caroline Street",
    "city": "Key West",
    "state": "FL",
    "zip_code": "33040",
    "latitude": 24.5577282,
    "longitude": -81.8053533,
    "website": "https://hankskeywest.com/",
    "category": "Bar & Restaurant",
    "types": "bar, restaurant, food, point_of_interest, establishment"
  },
  {
    "place_id": "ChIJXXVrJuu20YgRgbl6cY3VTUE",
    "name": "Boat House Bar & Grill",
    "street_address": "220 Margaret Street",
    "city": "Key West",
    "state": "FL",
    "zip_code": "33040",
    "latitude": 24.56169419999999,
    "longitude": -81.8006703,
    "website": "http://www.facebook.com/boathousekeywest",
    "category": "Bar & Restaurant",
    "types": "bar, restaurant, food, point_of_interest, establishment"
  },
  {
    "place_id": "ChIJ_0R2Luu20YgRZVhegSRGHi0",
    "name": "Sunset Tiki Bar",
    "street_address": "617 Front Street",
    "city": "Key West",
    "state": "FL",
    "zip_code": "33040",
    "latitude": 24.5624957,
    "longitude": -81.80447680000002,
    "website": "http://www.sunsettikibar.com/",
    "category": "Bar & Restaurant",
    "types": "bar, restaurant, food, point_of_interest, establishment"
  },
  {
    "place_id": "ChIJ3brkmGix0YgRO0TrdLr_EKE",
    "name": "Tavern N Town",
    "street_address": "3841 North Roosevelt Boulevard",
    "city": "Key West",
    "state": "FL",
    "zip_code": "33040",
    "latitude": 24.5709421,
    "longitude": -81.7519102,
    "website": "http://www.tavernntown.com/",
    "category": "Restaurant",
    "types": "restaurant, food, point_of_interest, establishment"
  }
]