[
  {
    "place_id": "ChIJTT0rP8QXXIgRYjW2EdM7klM",
    "name": "Clancy's Tavern & Whiskey House",
    "street_address": "602 South Gay Street",
    "city": "Knoxville",
    "state": "TN",
    "zip_code": "37902",
    "latitude": 35.9642686,
    "longitude": -83.9175285,
    "website": "http://clancystavernknoxville.com/",
    "category": "Bar & Restaurant",
    "types": "bar, restaurant, food, point_of_interest, establishment"
  },
  {
    "place_id": "ChIJv9nEOvI9XIgRXaQYVDeu5DE",
    "name": "Saloon 16",
    "street_address": "1706 Cumberland Avenue",
    "city": "Knoxville",
    "state": "TN",
    "zip_code": "37916",
    "latitude": 35.9556931,
    "longitude": -83.9325954,
    "website": "https://www.saloon16.com/?y_source=1_MTA2Njc4ODcwNS03MTUtbG9jYXRpb24ud2Vic2l0ZQ%3D%3D",
    "category": "Bar & Restaurant",
    "types": "restaurant, night_club, bar, food, point_of_interest, establishment"
  },
  {
    "place_id": "ChIJBUlyA8UXXIgRtjZnB8SwLPQ",
    "name": "Preservation Pub",
    "street_address": "28 Market Square",
    "city": "Knoxville",
    "state": "TN",
    "zip_code": "37902",
    "latitude": 35.9656642,
    "longitude": -83.919581,
    "website": "http://scruffycity.com/preservation-pub/",
    "category": "Bar & Restaurant",
    "types": "bar, restaurant, food, point_of_interest, establishment"
  },
  {
    "place_id": "ChIJHxHrIMY9XIgRB00SsUr4m5c",
    "name": "Peyton's Place",
    "street_address": "5210 Schubert Road",
    "city": "Knoxville",
    "state": "TN",
    "zip_code": "37912",
    "latitude": 36.0072677,
    "longitude": -83.9753982,
    "website": null,
    "category": "Bar & Restaurant",
    "types": "bar, night_club, store, restaurant, food, point_of_interest, establishment"
  },
  {
    "place_id": "ChIJKZhKrMUXXIgRGRzwYABDlis",
    "name": "Downtown Grill & Brewery",
    "street_address": "424 South Gay Street",
    "city": "Knoxville",
    "state": "TN",
    "zip_code": "37902",
    "latitude": 35.96569119999999,
    "longitude": -83.91814769999999,
    "website": "http://www.downtownbrewery.com/",
    "category": "Bar & Restaurant",
    "types": "bar, restaurant, food, point_of_interest, establishment"
  },
  {
    "place_id": "ChIJN16W_SoWXIgReQuHlHv2ipc",
    "name": "Central Flats and Taps",
    "street_address": "1204 North Central Street",
    "city": "Knoxville",
    "state": "TN",
    "zip_code": "37917",
    "latitude": 35.981971,
    "longitude": -83.9293955,
    "website": "https://flatsandtaps.com/",
    "category": "Bar & Restaurant",
    "types": "bar, restaurant, food, point_of_interest, establishment"
  },
  {
    "place_id": "ChIJjxB95MQXXIgRQ2aU8gbuaKM",
    "name": "Stock & Barrel",
    "street_address": "35 Market Square",
    "city": "Knoxville",
    "state": "TN",
    "zip_code": "37902",
    "latitude": 35.965608,
    "longitude": -83.92023750000001,
    "website": "https://thestockandbarrel.com/",
    "category": "Bar & Restaurant",
    "types": "bar, restaurant, point_of_interest, food, establishment"
  },
  {
    "place_id": "ChIJAxwObgAXXIgRCQqSLep67Qc",
    "name": "The Oak Room",
    "street_address": "109 West Anderson Avenue",
    "city": "Knoxville",
    "state": "TN",
    "zip_code": "37917",
    "latitude": 35.9814325,
    "longitude": -83.9298881,
    "website": "https://www.abridgedoakroom.com/",
    "category": "Bar & Restaurant",
    "types": "bar, restaurant, food, point_of_interest, establishment"
  },
  {
    "place_id": "ChIJQzf_RtkXXIgRlSsDvMRYO5Y",
    "name": "The Hill Bar and Grill",
    "street_address": "1105 Forest Avenue",
    "city": "Knoxville",
    "state": "TN",
    "zip_code": "37916",
    "latitude": 35.9638904,
    "longitude": -83.9280574,
    "website": "https://thehillknox.com/",
    "category": "Bar & Restaurant",
    "types": "bar, restaurant, food, point_of_interest, establishment"
  },
  {
    "place_id": "ChIJhVwDBs8XXIgR9Cu0UfpNsFc",
    "name": "Boyd\u2019s Jig and Reel",
    "street_address": "101 South Central Street",
    "city": "Knoxville",
    "state": "TN",
    "zip_code": "37902",
    "latitude": 35.97021100000001,
    "longitude": -83.9185409,
    "website": "http://www.jigandreel.com/",
    "category": "Bar & Restaurant",
    "types": "bar, restaurant, food, point_of_interest, establishment"
  },
  {
    "place_id": "ChIJ54Z84149XIgRe50VbV21g5U",
    "name": "Cool Beans Bar and Grill",
    "street_address": "1817 Lake Avenue",
    "city": "Knoxville",
    "state": "TN",
    "zip_code": "37916",
    "latitude": 35.95470100000001,
    "longitude": -83.9351846,
    "website": "http://coolbeansbar.com",
    "category": "Bar & Restaurant",
    "types": "bar, restaurant, food, point_of_interest, establishment"
  },
  {
    "place_id": "ChIJVZoVlmEXXIgRyNR98ClmqKs",
    "name": "Ale' Rae\u2019s GastroPub",
    "street_address": "937 North Broadway",
    "city": "Knoxville",
    "state": "TN",
    "zip_code": "37917",
    "latitude": 35.9808476,
    "longitude": -83.9237503,
    "website": "https://www.aleraes.live/",
    "category": "Restaurant",
    "types": "restaurant, food, point_of_interest, establishment"
  },
  {
    "place_id": "ChIJBZhtrN0XXIgR24l4HhdVZBY",
    "name": "Tommy Trent's Sports Saloon",
    "street_address": "36 Market Square",
    "city": "Knoxville",
    "state": "TN",
    "zip_code": "37902",
    "latitude": 35.9659097,
    "longitude": -83.9196595,
    "website": "https://scruffycity.com/tommy-trents/",
    "category": "Bar & Restaurant",
    "types": "bar, restaurant, food, point_of_interest, establishment"
  },
  {
    "place_id": "ChIJnfUGqcUXXIgRdubn9p6aHTw",
    "name": "Skybox Sports Bar and Grill",
    "street_address": "415 South Gay Street",
    "city": "Knoxville",
    "state": "TN",
    "zip_code": "37902",
    "latitude": 35.965758,
    "longitude": -83.918934,
    "website": "http://www.skyboxknoxville.com/",
    "category": "Bar & Restaurant",
    "types": "bar, restaurant, food, point_of_interest, establishment"
  },
  {
    "place_id": "ChIJq55wA0AXXIgRexToaOpoDoo",
    "name": "Five Thirty Lounge",
    "street_address": "530 South Gay Street",
    "city": "Knoxville",
    "state": "TN",
    "zip_code": "37902",
    "latitude": 35.96448919999999,
    "longitude": -83.91765989999999,
    "website": "https://www.fivethirtylounge.com/?utm_source=google&utm_medium=organic&utm_campaign=business_listing",
    "category": "Bar & Restaurant",
    "types": "night_club, bar, restaurant, food, point_of_interest, establishment"
  },
  {
    "place_id": "ChIJgdGf3s4XXIgRO458MYiy-i4",
    "name": "Barley's Taproom and Pizzeria",
    "street_address": "200 East Jackson Avenue",
    "city": "Knoxville",
    "state": "TN",
    "zip_code": "37915",
    "latitude": 35.9707585,
    "longitude": -83.91725989999999,
    "website": "http://barleysknoxville.com/",
    "category": "Restaurant",
    "types": "restaurant, food, point_of_interest, establishment"
  },
  {
    "place_id": "ChIJyRowakwXXIgRVKDFwW7UJfk",
    "name": "Fiori Bar & Lounge",
    "street_address": "111 East Jackson Avenue",
    "city": "Knoxville",
    "state": "TN",
    "zip_code": "37915",
    "latitude": 35.9709316,
    "longitude": -83.9183037,
    "website": "https://www.fioribar.com/",
    "category": "Bar & Restaurant",
    "types": "restaurant, night_club, bar, food, point_of_interest, establishment"
  },
  {
    "place_id": "ChIJvXyR99oXXIgR6B5Q41GFNQo",
    "name": "Balter Beerworks",
    "street_address": "100 Broadway Southwest",
    "city": "Knoxville",
    "state": "TN",
    "zip_code": "37902",
    "latitude": 35.9664024,
    "longitude": -83.9240464,
    "website": "http://www.balterbeerworks.com/",
    "category": "Bar & Restaurant",
    "types": "bar, restaurant, food, point_of_interest, establishment"
  },
  {
    "place_id": "ChIJgSwLW6MXXIgR5XwP4jwMWBE",
    "name": "Alice in Appalachia",
    "street_address": "18 Market Square",
    "city": "Knoxville",
    "state": "TN",
    "zip_code": "37902",
    "latitude": 35.9654934,
    "longitude": -83.91927609999999,
    "website": "https://scruffycity.com/alice-in-appalachia/",
    "category": "Bar & Restaurant",
    "types": "bar, store, restaurant, food, point_of_interest, establishment"
  },
  {
    "place_id": "ChIJwyp75cQXXIgRq06NMvv-KVA",
    "name": "Oliver Royale",
    "street_address": "5 Market Square",
    "city": "Knoxville",
    "state": "TN",
    "zip_code": "37902",
    "latitude": 35.9647934,
    "longitude": -83.9196491,
    "website": "https://www.oliverroyale.com/",
    "category": "Restaurant",
    "types": "restaurant, point_of_interest, food, establishment"
  },
  {
    "place_id": "ChIJ6Wo5xDIjXIgR9_P3kwzF1Yo",
    "name": "The Stillhouse Tavern",
    "street_address": "4921 Homberg Drive",
    "city": "Knoxville",
    "state": "TN",
    "zip_code": "37919",
    "latitude": 35.9382768,
    "longitude": -83.98668239999999,
    "website": "http://stillhousetavern.com/",
    "category": "Bar & Restaurant",
    "types": "bar, restaurant, food, point_of_interest, establishment"
  },
  {
    "place_id": "ChIJv3flYZI9XIgR1RnTbVLOkbk",
    "name": "Union Place Bar & Grill",
    "street_address": "4884 Chambliss Avenue",
    "city": "Knoxville",
    "state": "TN",
    "zip_code": "37919",
    "latitude": 35.9408389,
    "longitude": -83.987071,
    "website": "http://www.unionplacebar.com/",
    "category": "Restaurant",
    "types": "restaurant, food, point_of_interest, establishment"
  },
  {
    "place_id": "ChIJh1D7-MMXXIgRQ2I2ooB_0fE",
    "name": "Bistro at the Bijou",
    "street_address": "807 South Gay Street",
    "city": "Knoxville",
    "state": "TN",
    "zip_code": "37902",
    "latitude": 35.9624029,
    "longitude": -83.916761,
    "website": "https://www.thebistroatthebijou.com/",
    "category": "Restaurant",
    "types": "restaurant, food, point_of_interest, establishment"
  },
  {
    "place_id": "ChIJtb4jC8UXXIgR5IiZ050h-Ok",
    "name": "Chivo Taqueria",
    "street_address": "314 South Gay Street",
    "city": "Knoxville",
    "state": "TN",
    "zip_code": "37902",
    "latitude": 35.96673249999999,
    "longitude": -83.9189542,
    "website": "http://chivotaqueria.com/",
    "category": "Restaurant",
    "types": "restaurant, food, point_of_interest, establishment"
  },
  {
    "place_id": "ChIJxWPo2VIXXIgRDxMfetsOgno",
    "name": "The Brass Pearl",
    "street_address": "24 Market Square",
    "city": "Knoxville",
    "state": "TN",
    "zip_code": "37902",
    "latitude": 35.9656227,
    "longitude": -83.9193174,
    "website": "http://brasspearlknox.com/",
    "category": "Bar & Restaurant",
    "types": "bar, restaurant, food, point_of_interest, establishment"
  },
  {
    "place_id": "ChIJdc6F2DU8XIgRm5ReudWUTC8",
    "name": "The Pint House",
    "street_address": "815 Merchant Drive",
    "city": "Knoxville",
    "state": "TN",
    "zip_code": "37912",
    "latitude": 36.005696,
    "longitude": -83.979987,
    "website": "https://www.facebook.com/ThePintHouseKnoxville/",
    "category": "Bar & Restaurant",
    "types": "bar, restaurant, point_of_interest, food, establishment"
  },
  {
    "place_id": "ChIJpWqBKkwVXIgRNskMkoeBF7w",
    "name": "Sonny's Original Southern Pub",
    "street_address": "2613 Adair Drive",
    "city": "Knoxville",
    "state": "TN",
    "zip_code": "37918",
    "latitude": 36.0253057,
    "longitude": -83.92771259999999,
    "website": "https://www.sonnyspub.com/",
    "category": "Bar & Restaurant",
    "types": "bar, restaurant, food, point_of_interest, establishment"
  },
  {
    "place_id": "ChIJ075Sk04jXIgRKvZs1kYiYiM",
    "name": "Union Jack's Knoxville",
    "street_address": "124 South Northshore Drive",
    "city": "Knoxville",
    "state": "TN",
    "zip_code": "37919",
    "latitude": 35.93186599999999,
    "longitude": -84.001713,
    "website": "http://ujknox.com/",
    "category": "Bar & Restaurant",
    "types": "bar, restaurant, food, point_of_interest, establishment"
  },
  {
    "place_id": "ChIJYYLCtoMkXIgReFeX_smJxbk",
    "name": "Rooster's Bar & Grill",
    "street_address": "7585 South Northshore Drive",
    "city": "Knoxville",
    "state": "TN",
    "zip_code": "37919",
    "latitude": 35.9044014,
    "longitude": -84.020158,
    "website": "https://roostersknoxville.com/",
    "category": "Bar & Restaurant",
    "types": "bar, restaurant, food, point_of_interest, establishment"
  },
  {
    "place_id": "ChIJkQpTYN4QXIgR1jvEXrn0UzE",
    "name": "Armstrong's",
    "street_address": "3307 East Governor John Sevier Highway",
    "city": "Knoxville",
    "state": "TN",
    "zip_code": "37914",
    "latitude": 35.9701494,
    "longitude": -83.82807919999999,
    "website": null,
    "category": "Bar & Restaurant",
    "types": "bar, restaurant, food, point_of_interest, establishment"
  },
  {
    "place_id": "ChIJERhJ7K8kXIgRA6egLIUy4ys",
    "name": "Twisted Mike's Tap Room",
    "street_address": "7125 Kingston Pike",
    "city": "Knoxville",
    "state": "TN",
    "zip_code": "37919",
    "latitude": 35.9314984,
    "longitude": -84.0274742,
    "website": "http://www.twistedmikes.com/",
    "category": "Bar & Restaurant",
    "types": "bar, restaurant, food, point_of_interest, establishment"
  },
  {
    "place_id": "ChIJycSBKt0kXIgRfBfWbvHlKJk",
    "name": "Bucket Head Tavern",
    "street_address": "5458 8039 Ray Mears Boulevard",
    "city": "Knoxville",
    "state": "TN",
    "zip_code": "37919",
    "latitude": 35.92311209999999,
    "longitude": -84.0488111,
    "website": "http://www.bucketheadtavern.com/",
    "category": "Bar & Restaurant",
    "types": "bar, restaurant, food, point_of_interest, establishment"
  },
  {
    "place_id": "ChIJA6w_alMlXIgRSmn8zgwNqm4",
    "name": "Walk-On's Sports Bistreaux - Knoxville Restaurant",
    "street_address": "7621 Kingston Pike",
    "city": "Knoxville",
    "state": "TN",
    "zip_code": "37919",
    "latitude": 35.92870149999999,
    "longitude": -84.037565,
    "website": "https://locate.walk-ons.com/tn/knoxville/restaurants-413.html",
    "category": "Bar & Restaurant",
    "types": "restaurant, bar, food, point_of_interest, establishment"
  },
  {
    "place_id": "ChIJ8RigaMMkXIgR3enj5kngsUM",
    "name": "Paul\u2019s Oasis",
    "street_address": "8021 Kingston Pike",
    "city": "Knoxville",
    "state": "TN",
    "zip_code": "37919",
    "latitude": 35.92681249999999,
    "longitude": -84.0466771,
    "website": "http://www.paulsoasis.com/",
    "category": "Bar & Restaurant",
    "types": "bar, restaurant, food, point_of_interest, establishment"
  },
  {
    "place_id": "ChIJ-xz_jE4jXIgRuWfo5ZJM8bc",
    "name": "Twin Peaks",
    "street_address": "135 North Northshore Drive",
    "city": "Knoxville",
    "state": "TN",
    "zip_code": "37919",
    "latitude": 35.93459989999999,
    "longitude": -84.00333669999999,
    "website": "https://twinpeaksrestaurant.com/locations/knoxville-tn",
    "category": "Bar & Restaurant",
    "types": "bar, restaurant, food, point_of_interest, establishment"
  },
  {
    "place_id": "ChIJiWopO1cjXIgR4j-6K-i_Cb8",
    "name": "Bearden Hill Fieldhouse",
    "street_address": "6600 Kingston Pike",
    "city": "Knoxville",
    "state": "TN",
    "zip_code": "37919",
    "latitude": 35.93144289999999,
    "longitude": -84.0123138,
    "website": "https://bhfh.smithbars.com/",
    "category": "Bar & Restaurant",
    "types": "bar, restaurant, food, point_of_interest, establishment"
  },
  {
    "place_id": "ChIJX4Fhw8wvXIgRpGrois17hLA",
    "name": "Admiral Pub",
    "street_address": "143 Brooklawn Street",
    "city": "Farragut",
    "state": "TN",
    "zip_code": "37934",
    "latitude": 35.8810832,
    "longitude": -84.1580843,
    "website": "https://theadmiralpubfarragut.com/",
    "category": "Bar & Restaurant",
    "types": "bar, restaurant, food, point_of_interest, establishment"
  },
  {
    "place_id": "ChIJiy0dx7gvXIgRRw5yahG0R38",
    "name": "35 North Bar & Grill",
    "street_address": "11321 Kingston Pike",
    "city": "Knoxville",
    "state": "TN",
    "zip_code": "37934",
    "latitude": 35.8816879,
    "longitude": -84.1602177,
    "website": "http://the35north.com/",
    "category": "Bar & Restaurant",
    "types": "restaurant, bar, food, point_of_interest, establishment"
  },
  {
    "place_id": "ChIJny6oXzEvXIgR6YRqxTuAwDU",
    "name": "Lakeside Tavern",
    "street_address": "10911 Concord Park Drive",
    "city": "Knoxville",
    "state": "TN",
    "zip_code": "37922",
    "latitude": 35.865364,
    "longitude": -84.13006299999999,
    "website": "http://lakeside-tavern.com/",
    "category": "Bar & Restaurant",
    "types": "bar, restaurant, food, point_of_interest, establishment"
  },
  {
    "place_id": "ChIJCeJdL5AuXIgR2Wc-Hk8e9fY",
    "name": "Water into Wine, Bistro & Lounge",
    "street_address": "607 North Campbell Station Road",
    "city": "Knoxville",
    "state": "TN",
    "zip_code": "37934",
    "latitude": 35.8935342,
    "longitude": -84.1749863,
    "website": "http://waterintowineknoxville.com/",
    "category": "Bar & Restaurant",
    "types": "restaurant, bar, food, point_of_interest, establishment"
  },
  {
    "place_id": "ChIJS0xn7wUvXIgRAxEEG8QeWso",
    "name": "Bullfeathers",
    "street_address": "10535 Kingston Pike",
    "city": "Knoxville",
    "state": "TN",
    "zip_code": "37922",
    "latitude": 35.8974101,
    "longitude": -84.1344201,
    "website": "https://bullfeatherscafe.com/",
    "category": "Bar & Restaurant",
    "types": "bar, night_club, restaurant, food, point_of_interest, establishment"
  },
  {
    "place_id": "ChIJZ3iCqvYuXIgRLOwR1A8kWoY",
    "name": "Smoky Mountain Brewery in Turkey Creek",
    "street_address": "11308 Parkside Drive",
    "city": "Knoxville",
    "state": "TN",
    "zip_code": "37934",
    "latitude": 35.8995178,
    "longitude": -84.1593973,
    "website": "http://www.smoky-mtn-brewery.com/",
    "category": "Bar & Restaurant",
    "types": "bar, restaurant, food, point_of_interest, establishment"
  },
  {
    "place_id": "ChIJeVPx6sAvXIgRQecpq4TRivI",
    "name": "Wings Etc.",
    "street_address": "319 Lovell Road",
    "city": "Knoxville",
    "state": "TN",
    "zip_code": "37934",
    "latitude": 35.90298420000001,
    "longitude": -84.1418049,
    "website": "https://wingsetc.com/knoxville/",
    "category": "Bar & Restaurant",
    "types": "bar, restaurant, food, point_of_interest, establishment"
  },
  {
    "place_id": "ChIJhWPJNBIvXIgR-dw6rNrqUe0",
    "name": "Sparrow Wine Bar",
    "street_address": "141 West End Avenue",
    "city": "Farragut",
    "state": "TN",
    "zip_code": "37934",
    "latitude": 35.8854219,
    "longitude": -84.15541859999999,
    "website": "http://www.sparrowwinebar.com/",
    "category": "Bar & Restaurant",
    "types": "bar, restaurant, food, store, point_of_interest, establishment"
  },
  {
    "place_id": "ChIJQQoe8gUvXIgRP16aeGdAbtY",
    "name": "Petro's Chili & Chips - Farragut",
    "street_address": "10518 Kingston Pike",
    "city": "Knoxville",
    "state": "TN",
    "zip_code": "37922",
    "latitude": 35.8962643,
    "longitude": -84.1335161,
    "website": "http://www.petros.com/",
    "category": "Restaurant",
    "types": "restaurant, food, point_of_interest, establishment"
  },
  {
    "place_id": "ChIJkagcVsMtXIgRDUIgEFGCcGk",
    "name": "Parrilla\u2019s Cantina Mexican Kitchen",
    "street_address": "12740 Kingston Pike",
    "city": "Knoxville",
    "state": "TN",
    "zip_code": "37934",
    "latitude": 35.866154,
    "longitude": -84.208923,
    "website": "https://parrila.top/",
    "category": "Restaurant",
    "types": "restaurant, point_of_interest, food, establishment"
  },
  {
    "place_id": "ChIJQSJju_QuXIgR7H53cnYqmk8",
    "name": "Buffalo Wild Wings",
    "street_address": "11431 Parkside Drive",
    "city": "Farragut",
    "state": "TN",
    "zip_code": "37934",
    "latitude": 35.9006729,
    "longitude": -84.1635118,
    "website": "https://www.buffalowildwings.com/locations/us/tn/knoxville/11431-parkside-dr/sports-bar-230?utm_source=google%20my%20business&utm_medium=organic&utm_campaign=website%20link",
    "category": "Bar & Restaurant",
    "types": "bar, meal_takeaway, restaurant, food, point_of_interest, establishment"
  },
  {
    "place_id": "ChIJCRuWcfMzXIgRYmmiaivpuXE",
    "name": "Oakey's Sports Grill",
    "street_address": "119 South Illinois Avenue",
    "city": "Oak Ridge",
    "state": "TN",
    "zip_code": "37830",
    "latitude": 36.00911229999999,
    "longitude": -84.2654019,
    "website": "https://m.facebook.com/pages/category/Bar---Grill/Oakeys-Sports-Grill-110126614035239/",
    "category": "Bar & Restaurant",
    "types": "bar, restaurant, point_of_interest, food, establishment"
  },
  {
    "place_id": "ChIJe7WrLA0zXIgRVDRB68ghDfY",
    "name": "Woody's Bar & Grill",
    "street_address": "114 Union Valley Road",
    "city": "Oak Ridge",
    "state": "TN",
    "zip_code": "37830",
    "latitude": 35.9984364,
    "longitude": -84.2276716,
    "website": "https://woodysoakridge.com/",
    "category": "Restaurant",
    "types": "restaurant, food, point_of_interest, establishment"
  },
  {
    "place_id": "ChIJ72Ucw08zXIgR36uEFi99bkE",
    "name": "201 Caf\u00e9 and Wine Bar",
    "street_address": "201 Jackson Square",
    "city": "Oak Ridge",
    "state": "TN",
    "zip_code": "37830",
    "latitude": 36.0296392,
    "longitude": -84.23959789999999,
    "website": "http://201cafewinebar.com/",
    "category": "Bar & Restaurant",
    "types": "restaurant, bar, food, point_of_interest, establishment"
  },
  {
    "place_id": "ChIJke1tLjMzXIgRt-AH0udmhU4",
    "name": "Crafter's Brew Market & Social",
    "street_address": "856 Oak Ridge Turnpike",
    "city": "Oak Ridge",
    "state": "TN",
    "zip_code": "37830",
    "latitude": 36.0269005,
    "longitude": -84.2381145,
    "website": null,
    "category": "Bar & Restaurant",
    "types": "bar, restaurant, food, point_of_interest, establishment"
  },
  {
    "place_id": "ChIJ3ZDoTnE0XIgRTE7D9W9ZRCI",
    "name": "Buffalo Mountain Grille",
    "street_address": "205 Oak Ridge Turnpike",
    "city": "Oak Ridge",
    "state": "TN",
    "zip_code": "37830",
    "latitude": 36.04287619999999,
    "longitude": -84.21252729999999,
    "website": null,
    "category": "Bar & Restaurant",
    "types": "bar, restaurant, food, point_of_interest, establishment"
  },
  {
    "place_id": "ChIJx-_sl3Q1XIgRZpbtOpWVV9I",
    "name": "Hops & Hounds",
    "street_address": "317 Belgrade Road",
    "city": "Oak Ridge",
    "state": "TN",
    "zip_code": "37830",
    "latitude": 36.039224,
    "longitude": -84.21449799999999,
    "website": "https://hopsandhoundstn.com/",
    "category": "Bar & Restaurant",
    "types": "bar, restaurant, food, point_of_interest, establishment"
  },
  {
    "place_id": "ChIJ7QRZ9xgzXIgR92lYybDZQCc",
    "name": "Aubrey's Oak Ridge",
    "street_address": "481 South Illinois Avenue",
    "city": "Oak Ridge",
    "state": "TN",
    "zip_code": "37830",
    "latitude": 36.0034857,
    "longitude": -84.2459133,
    "website": "https://aubreysrestaurants.com/oakridge/",
    "category": "Restaurant",
    "types": "restaurant, food, point_of_interest, establishment"
  },
  {
    "place_id": "ChIJc3fcFjAzXIgRyrb-FbTtIbk",
    "name": "Burchfield's",
    "street_address": "215 South Illinois Avenue",
    "city": "Oak Ridge",
    "state": "TN",
    "zip_code": "37830",
    "latitude": 36.00785700000001,
    "longitude": -84.26041889999999,
    "website": "http://www.doubletreeoakridge.com/",
    "category": "Restaurant",
    "types": "restaurant, food, point_of_interest, establishment"
  },
  {
    "place_id": "ChIJ7VPGzNSfXogRuFHIHlNKFuY",
    "name": "Bullpen",
    "street_address": "328 Gill Street",
    "city": "Alcoa",
    "state": "TN",
    "zip_code": "37701",
    "latitude": 35.7610237,
    "longitude": -83.9743118,
    "website": "http://www.bullpenalcoa.com/",
    "category": "Bar & Restaurant",
    "types": "bar, restaurant, food, point_of_interest, establishment"
  },
  {
    "place_id": "ChIJP7ikQtSfXogRJlD-jJ5A9ZA",
    "name": "Waterfront Bar & Grill",
    "street_address": "404 Greenbelt Drive",
    "city": "Maryville",
    "state": "TN",
    "zip_code": "37804",
    "latitude": 35.7596364,
    "longitude": -83.97124649999999,
    "website": "https://www.waterfrontmaryville.com/",
    "category": "Bar & Restaurant",
    "types": "bar, restaurant, food, point_of_interest, establishment"
  },
  {
    "place_id": "ChIJ9zqwxdCfXogR4xjgph7q3js",
    "name": "Par-T-Pub",
    "street_address": "218 South Calderwood Street",
    "city": "Alcoa",
    "state": "TN",
    "zip_code": "37701",
    "latitude": 35.7604805,
    "longitude": -83.9781186,
    "website": "http://www.par-t-pub.com/",
    "category": "Bar & Restaurant",
    "types": "liquor_store, bar, restaurant, food, point_of_interest, store, establishment"
  },
  {
    "place_id": "ChIJrZxQtdOfXogROBX3K93rdgw",
    "name": "Two Doors Down",
    "street_address": "118 East Broadway Avenue",
    "city": "Maryville",
    "state": "TN",
    "zip_code": "37804",
    "latitude": 35.756241,
    "longitude": -83.970466,
    "website": "http://www.twodoorsdownmaryville.com/",
    "category": "Bar & Restaurant",
    "types": "bar, restaurant, food, point_of_interest, establishment"
  },
  {
    "place_id": "ChIJTW21CkkhXIgRKOirvtxxxPQ",
    "name": "Blackhorse Pub & Brewery Alcoa",
    "street_address": "441 North Hall Road",
    "city": "Alcoa",
    "state": "TN",
    "zip_code": "37701",
    "latitude": 35.7717749,
    "longitude": -83.97828919999999,
    "website": "https://www.blackhorsebrews.com/pubs/brewery-alcoa",
    "category": "Restaurant",
    "types": "restaurant, food, point_of_interest, establishment"
  },
  {
    "place_id": "ChIJyzKeWdKfXogROdD3Q-hYjgw",
    "name": "Bluetick Tavern",
    "street_address": "128 West Broadway Avenue",
    "city": "Maryville",
    "state": "TN",
    "zip_code": "37801",
    "latitude": 35.7553177,
    "longitude": -83.971674,
    "website": "http://blueticktavern.com/",
    "category": "Restaurant",
    "types": "restaurant, food, point_of_interest, establishment"
  },
  {
    "place_id": "ChIJX4CBXQAhXIgRhU_Nd7CxOp4",
    "name": "Kickback jacks",
    "street_address": "1139 Franck Street",
    "city": "Alcoa",
    "state": "TN",
    "zip_code": "37701",
    "latitude": 35.7872369,
    "longitude": -83.9884072,
    "website": "http://kbjacks.com/",
    "category": "Restaurant",
    "types": "restaurant, food, point_of_interest, establishment"
  },
  {
    "place_id": "ChIJ8xItbt6fXogRAyN69rc24g4",
    "name": "The Pickled Pig Kitchen",
    "street_address": "118 East Broadway Avenue",
    "city": "Maryville",
    "state": "TN",
    "zip_code": "37804",
    "latitude": 35.756246,
    "longitude": -83.9704782,
    "website": "https://twodoorsdownmaryville.com/food-menu/",
    "category": "Restaurant",
    "types": "restaurant, food, point_of_interest, establishment"
  },
  {
    "place_id": "ChIJcXmxR4shXIgRo11kK7gxNTg",
    "name": "Blue Moose Burgers & Wings",
    "street_address": "334 Fountain View Circle",
    "city": "Alcoa",
    "state": "TN",
    "zip_code": "37701",
    "latitude": 35.7853426,
    "longitude": -83.9886128,
    "website": "https://bluemooseburgersandwings.com/location/alcoa/",
    "category": "Restaurant",
    "types": "restaurant, food, point_of_interest, establishment"
  },
  {
    "place_id": "ChIJe2XgStKfXogR1MICNZ-MoEI",
    "name": "Brackins Blues Club",
    "street_address": "112 East Broadway Avenue",
    "city": "Maryville",
    "state": "TN",
    "zip_code": "37804",
    "latitude": 35.756192,
    "longitude": -83.970719,
    "website": "https://brackinsblues.com/",
    "category": "Bar & Restaurant",
    "types": "night_club, bar, restaurant, food, point_of_interest, establishment"
  },
  {
    "place_id": "ChIJa9Bi0ymcXogRReJgiwYxMgA",
    "name": "The Shed Smokehouse & Juke Joint",
    "street_address": "1820 West Lamar Alexander Parkway",
    "city": "Maryville",
    "state": "TN",
    "zip_code": "37801",
    "latitude": 35.75409809999999,
    "longitude": -84.0239854,
    "website": "https://www.theshedmaryville.com/",
    "category": "Bar & Restaurant",
    "types": "bar, restaurant, food, point_of_interest, establishment"
  },
  {
    "place_id": "ChIJDR7X6pwgXIgRmL9z9gWQK-E",
    "name": "Buffalo Wild Wings",
    "street_address": "224 Hamilton Crossing Drive",
    "city": "Alcoa",
    "state": "TN",
    "zip_code": "37701",
    "latitude": 35.76927109999999,
    "longitude": -83.9870952,
    "website": "https://www.buffalowildwings.com/locations/us/tn/alcoa/224-hamilton-crossings-dr/sports-bar-193?utm_source=google%20my%20business&utm_medium=organic&utm_campaign=website%20link",
    "category": "Bar & Restaurant",
    "types": "bar, meal_takeaway, restaurant, food, point_of_interest, establishment"
  },
  {
    "place_id": "ChIJnYS9ViicXogRO47opfrqlVo",
    "name": "Windy City Grille",
    "street_address": "2641 U.S. 411",
    "city": "Maryville",
    "state": "TN",
    "zip_code": "37801",
    "latitude": 35.7150371,
    "longitude": -84.0196266,
    "website": "https://www.facebook.com/windycitygrilleTN?rf=1457557104563620",
    "category": "Restaurant",
    "types": "restaurant, food, point_of_interest, establishment"
  },
  {
    "place_id": "ChIJv0-PA-KeXogR8P79EtcXtJE",
    "name": "Hooters",
    "street_address": "1094 Hunters Crossing",
    "city": "Alcoa",
    "state": "TN",
    "zip_code": "37701",
    "latitude": 35.7691582,
    "longitude": -83.989513,
    "website": "https://www.hooters.com/locations/3386-alcoa?utm_medium=organic&utm_source=google&utm_campaign=gmb-tennessee-east&utm_content=alcoa&utm_term=website-cta",
    "category": "Bar & Restaurant",
    "types": "meal_delivery, meal_takeaway, bar, restaurant, food, point_of_interest, establishment"
  },
  {
    "place_id": "ChIJu5AblJwgXIgRj4rzAcbsGYY",
    "name": "Cheddar's Scratch Kitchen",
    "street_address": "250 Hamilton Crossing Drive",
    "city": "Alcoa",
    "state": "TN",
    "zip_code": "37701",
    "latitude": 35.76669,
    "longitude": -83.98626999999999,
    "website": "https://www.cheddars.com/locations/tn/alcoa/alcoa/2143?cmpid=br:csk_ag:ie_ch:loc_ca:CSKGMB_sn:gmb_gt:alcoa-tn-2143_pl:locurl_rd:1116",
    "category": "Restaurant",
    "types": "meal_takeaway, restaurant, food, point_of_interest, establishment"
  },
  {
    "place_id": "ChIJf0TUYwIhXIgR3DBx8cOBDL8",
    "name": "The Bistro - Eat. Drink. Connect.\u00ae",
    "street_address": "141 Furrow Way",
    "city": "Alcoa",
    "state": "TN",
    "zip_code": "37701",
    "latitude": 35.8094116,
    "longitude": -83.9821968,
    "website": "https://www.marriott.com/en-us/hotels/tyskx-courtyard-knoxville-airport-alcoa/dining/?scid=feed67b0-9a2f-4de1-8df6-114544116108",
    "category": "Restaurant",
    "types": "restaurant, food, point_of_interest, establishment"
  },
  {
    "place_id": "ChIJtZ2h5AIhXIgRE0MM32A4N_8",
    "name": "Ruby Tuesday",
    "street_address": "109 Furrow Way",
    "city": "Alcoa",
    "state": "TN",
    "zip_code": "37701",
    "latitude": 35.81142800000001,
    "longitude": -83.98307199999999,
    "website": "https://rubytuesday.com/",
    "category": "Restaurant",
    "types": "restaurant, food, point_of_interest, establishment"
  }
]