[
  {
    "place_id": "ChIJH0zUFuPFyIAR0Yv3xOWyPGw",
    "name": "The Front Yard",
    "street_address": "4178 Koval Lane",
    "city": "Las Vegas",
    "state": "NV",
    "zip_code": "89109",
    "latitude": 36.1128649,
    "longitude": -115.1627461,
    "website": "https://www.ellisislandcasino.com/the-front-yard",
    "category": "Bar & Restaurant",
    "types": "bar, restaurant, food, point_of_interest, establishment"
  },
  {
    "place_id": "ChIJs1yeazrEyIARlcNDYn0FlRM",
    "name": "Beer Park",
    "street_address": "3655 South Las Vegas Boulevard",
    "city": "Las Vegas",
    "state": "NV",
    "zip_code": "89109",
    "latitude": 36.1119264,
    "longitude": -115.1725994,
    "website": "https://www.beerpark.com/",
    "category": "Bar & Restaurant",
    "types": "bar, restaurant, food, point_of_interest, establishment"
  },
  {
    "place_id": "ChIJvXvFSEjEyIARlt3h1kisFdw",
    "name": "Village Pub & Cafe",
    "street_address": "4178 Koval Lane",
    "city": "Las Vegas",
    "state": "NV",
    "zip_code": "89109",
    "latitude": 36.1132317,
    "longitude": -115.1633289,
    "website": "https://www.ellisislandcasino.com/village-pub-menu",
    "category": "Bar & Restaurant",
    "types": "cafe, bar, restaurant, food, point_of_interest, establishment"
  },
  {
    "place_id": "ChIJzdSQARTByIAReJcTqMnTEy4",
    "name": "Tap House",
    "street_address": "5589 West Charleston Boulevard",
    "city": "Las Vegas",
    "state": "NV",
    "zip_code": "89146",
    "latitude": 36.1588351,
    "longitude": -115.2183256,
    "website": "http://www.taphouselv.com/",
    "category": "Bar & Restaurant",
    "types": "bar, restaurant, food, point_of_interest, establishment"
  },
  {
    "place_id": "ChIJKcC3xo7GyIARFesaDtTKmjQ",
    "name": "McMullan's Irish Pub",
    "street_address": "4650 West Tropicana Avenue",
    "city": "Las Vegas",
    "state": "NV",
    "zip_code": "89103",
    "latitude": 36.101625,
    "longitude": -115.20416,
    "website": "http://www.mcmullansirishpub.com/",
    "category": "Bar & Restaurant",
    "types": "bar, restaurant, food, point_of_interest, establishment"
  },
  {
    "place_id": "ChIJVyBzJ0nEyIARNEvASF8811U",
    "name": "PUB 365",
    "street_address": "255 East Flamingo Road",
    "city": "Las Vegas",
    "state": "NV",
    "zip_code": "89169",
    "latitude": 36.1131436,
    "longitude": -115.1597194,
    "website": "https://www.tuscanylv.com/restaurant/pub-365/",
    "category": "Bar & Restaurant",
    "types": "bar, restaurant, food, point_of_interest, establishment"
  },
  {
    "place_id": "ChIJRXzWNT7EyIARVGsT73dCOjE",
    "name": "SUGARCANE",
    "street_address": "3355 South Las Vegas Boulevard",
    "city": "Las Vegas",
    "state": "NV",
    "zip_code": "89109",
    "latitude": 36.121518,
    "longitude": -115.16934,
    "website": "https://www.sugarcanerestaurants.com/location/las-vegas/",
    "category": "Bar & Restaurant",
    "types": "bar, restaurant, food, point_of_interest, establishment"
  },
  {
    "place_id": "ChIJbxA244rPyIARjWiW8BW0V6Q",
    "name": "Village Pub & Poker",
    "street_address": "2301 East Sunset Road",
    "city": "Las Vegas",
    "state": "NV",
    "zip_code": "89119",
    "latitude": 36.0709476,
    "longitude": -115.1202922,
    "website": "http://www.villagepubvegas.com/",
    "category": "Bar & Restaurant",
    "types": "casino, bar, restaurant, food, point_of_interest, establishment"
  },
  {
    "place_id": "ChIJfZOOOjrEyIARJIxnht0zHzo",
    "name": "R\u00ed R\u00e1 Irish Pub",
    "street_address": "3950 South Las Vegas Boulevard",
    "city": "Las Vegas",
    "state": "NV",
    "zip_code": "89119",
    "latitude": 36.0936961,
    "longitude": -115.1763108,
    "website": "https://www.mandalaybay.com/en/restaurants/ri-ra-irish-pub.html",
    "category": "Bar & Restaurant",
    "types": "bar, restaurant, food, point_of_interest, establishment"
  },
  {
    "place_id": "ChIJ08CtKjPEyIARc7_nqvPZv6Q",
    "name": "Tom's Watch Bar",
    "street_address": "3790 South Las Vegas Boulevard",
    "city": "Las Vegas",
    "state": "NV",
    "zip_code": "89109",
    "latitude": 36.1028333,
    "longitude": -115.174112,
    "website": "https://newyorknewyork.mgmresorts.com/en/restaurants/toms-urban.html",
    "category": "Bar & Restaurant",
    "types": "restaurant, bar, food, point_of_interest, establishment"
  },
  {
    "place_id": "ChIJGYpLLM3FyIARIRuJuI8SZfc",
    "name": "Nine Fine Irishmen",
    "street_address": "3790 Las Vegas Blvd S",
    "city": "Las Vegas",
    "state": "NV",
    "zip_code": "89109",
    "latitude": 36.1022851,
    "longitude": -115.1746037,
    "website": "https://newyorknewyork.mgmresorts.com/en/restaurants/nine-fine-irishmen.html",
    "category": "Bar & Restaurant",
    "types": "bar, restaurant, food, point_of_interest, establishment"
  },
  {
    "place_id": "ChIJPelpi67DyIARi9TMDDExRVY",
    "name": "BrewDog Las Vegas",
    "street_address": "3767 Las Vegas Boulevard South",
    "city": "Las Vegas",
    "state": "NV",
    "zip_code": "89109",
    "latitude": 36.1046674,
    "longitude": -115.1723656,
    "website": "https://drink.brewdog.com/usa/las-vegas",
    "category": "Bar & Restaurant",
    "types": "bar, restaurant, food, point_of_interest, establishment"
  },
  {
    "place_id": "ChIJ0wupSBDFyIARvSWYVM4jeuc",
    "name": "Rum Runner Lounge",
    "street_address": "1801 East Tropicana Avenue",
    "city": "Las Vegas",
    "state": "NV",
    "zip_code": "89119",
    "latitude": 36.100367,
    "longitude": -115.127043,
    "website": "https://rumrunnervegas.com/",
    "category": "Bar & Restaurant",
    "types": "bar, restaurant, food, point_of_interest, establishment"
  },
  {
    "place_id": "ChIJGVzbC2vGyIARnN_wcer4G5s",
    "name": "PT's Gold",
    "street_address": "6235 South Decatur Boulevard",
    "city": "Las Vegas",
    "state": "NV",
    "zip_code": "89118",
    "latitude": 36.0764085,
    "longitude": -115.2087852,
    "website": "https://www.ptstaverns.com/locations/pts-gold/215-s-decatur/?utm_source=gmb&utm_medium=yext",
    "category": "Bar & Restaurant",
    "types": "casino, bar, restaurant, food, point_of_interest, establishment"
  },
  {
    "place_id": "ChIJaX8dcvHFyIARpXu1bfGD1P0",
    "name": "Yard House",
    "street_address": "6593 South Las Vegas Boulevard",
    "city": "Las Vegas",
    "state": "NV",
    "zip_code": "89119",
    "latitude": 36.068585,
    "longitude": -115.177918,
    "website": "https://www.yardhouse.com/locations/nv/las-vegas/las-vegas-town-square/8319?cmpid=br:yh_ag:ie_ch:loc_ca:YHGMB_sn:gmb_gt:las-vegas-nv-8319_pl:locurl_rd:1017",
    "category": "Bar & Restaurant",
    "types": "meal_takeaway, bar, restaurant, food, point_of_interest, establishment"
  },
  {
    "place_id": "ChIJd4WllIvGyIARV25Bdz9DK7E",
    "name": "O'Aces Bar & Grill",
    "street_address": "4955 South Decatur Boulevard",
    "city": "Las Vegas",
    "state": "NV",
    "zip_code": "89118",
    "latitude": 36.0989298,
    "longitude": -115.2082578,
    "website": "http://www.oacesgaming.com/",
    "category": "Bar & Restaurant",
    "types": "bar, restaurant, food, point_of_interest, establishment"
  },
  {
    "place_id": "ChIJAamrYQbFyIARsYArirXvi-o",
    "name": "Stake Out Bar & Grill",
    "street_address": "4800 South Maryland Parkway",
    "city": "Las Vegas",
    "state": "NV",
    "zip_code": "89119",
    "latitude": 36.1030556,
    "longitude": -115.1361111,
    "website": "http://www.stakeoutbar.com/",
    "category": "Bar & Restaurant",
    "types": "bar, restaurant, food, point_of_interest, establishment"
  },
  {
    "place_id": "ChIJv0wGc5zFyIARYBrgQOc9mtI",
    "name": "Corcoran's Irish Pub",
    "street_address": "5757 Wayne Newton Boulevard",
    "city": "Las Vegas",
    "state": "NV",
    "zip_code": "89119",
    "latitude": 36.08163529999999,
    "longitude": -115.1469546,
    "website": "http://corcorans-pub.keeq.io/",
    "category": "Bar & Restaurant",
    "types": "bar, restaurant, food, point_of_interest, establishment"
  },
  {
    "place_id": "ChIJAQAAty_EyIARUqXkK1Rbvto",
    "name": "TAP Sports Bar",
    "street_address": "3799 South Las Vegas Boulevard",
    "city": "Las Vegas",
    "state": "NV",
    "zip_code": "89109",
    "latitude": 36.10168609999999,
    "longitude": -115.1709601,
    "website": "https://mgmgrand.mgmresorts.com/en/restaurants/tap-sports-bar.html",
    "category": "Bar & Restaurant",
    "types": "bar, restaurant, food, point_of_interest, establishment"
  },
  {
    "place_id": "ChIJV7rLWX3FyIARPMB3HNSBbNg",
    "name": "PT's Gold",
    "street_address": "1661 East Sunset Road",
    "city": "Las Vegas",
    "state": "NV",
    "zip_code": "89119",
    "latitude": 36.0714226,
    "longitude": -115.1302258,
    "website": "https://www.ptstaverns.com/locations/pts-gold/sunset-east-of-paradise/?utm_source=gmb&utm_medium=yext",
    "category": "Bar & Restaurant",
    "types": "casino, bar, restaurant, point_of_interest, food, establishment"
  },
  {
    "place_id": "ChIJ42CtgTrByIARl81soOsE5Bw",
    "name": "Blue Ox Tavern",
    "street_address": "5825 West Sahara Avenue",
    "city": "Las Vegas",
    "state": "NV",
    "zip_code": "89146",
    "latitude": 36.1426544,
    "longitude": -115.2214279,
    "website": "http://blueoxtavern.com/",
    "category": "Bar & Restaurant",
    "types": "bar, restaurant, food, point_of_interest, establishment"
  },
  {
    "place_id": "ChIJJVnk5jDEyIARW3GhTPBL1Lg",
    "name": "Blondies Sports Bar & Grill",
    "street_address": "3663 South Las Vegas Boulevard",
    "city": "Las Vegas",
    "state": "NV",
    "zip_code": "89109",
    "latitude": 36.11036900000001,
    "longitude": -115.1693145,
    "website": "http://www.blondieslasvegas.com/",
    "category": "Bar & Restaurant",
    "types": "bar, restaurant, food, point_of_interest, establishment"
  },
  {
    "place_id": "ChIJs4b4Zz7EyIARR8FvqJOZCxs",
    "name": "Wolfgang Puck Bar & Grill",
    "street_address": "3799 South Las Vegas Boulevard",
    "city": "Las Vegas",
    "state": "NV",
    "zip_code": "89109",
    "latitude": 36.10247859999999,
    "longitude": -115.1695211,
    "website": "https://mgmgrand.mgmresorts.com/en/restaurants/wolfgang-grill-bar-restaurant.html",
    "category": "Bar & Restaurant",
    "types": "bar, restaurant, food, point_of_interest, establishment"
  },
  {
    "place_id": "ChIJsfmGjDvEyIARoMpbryeF0Gw",
    "name": "Yard House",
    "street_address": "3545 South Las Vegas Boulevard",
    "city": "Las Vegas",
    "state": "NV",
    "zip_code": "89109",
    "latitude": 36.1178004,
    "longitude": -115.1688858,
    "website": "https://www.yardhouse.com/locations/nv/las-vegas/las-vegas-the-linq/8353?cmpid=br:yh_ag:ie_ch:loc_ca:YHGMB_sn:gmb_gt:las-vegas-nv-8353_pl:locurl_rd:1050",
    "category": "Bar & Restaurant",
    "types": "bar, meal_takeaway, restaurant, food, point_of_interest, establishment"
  },
  {
    "place_id": "ChIJt4UKlXXFyIARzsesZud66ME",
    "name": "Village Pub",
    "street_address": "5757 Wayne Newton Boulevard",
    "city": "Las Vegas",
    "state": "NV",
    "zip_code": "89119",
    "latitude": 36.0860046,
    "longitude": -115.1401005,
    "website": "http://www.villagepubvegas.com/",
    "category": "Bar & Restaurant",
    "types": "bar, restaurant, food, point_of_interest, establishment"
  },
  {
    "place_id": "ChIJYUKC-8_FyIARvNQtkuWfaDg",
    "name": "Border Grill Mandalay Bay",
    "street_address": "3950 South Las Vegas Boulevard",
    "city": "Las Vegas",
    "state": "NV",
    "zip_code": "89119",
    "latitude": 36.0930948,
    "longitude": -115.1764093,
    "website": "https://mandalaybay.mgmresorts.com/en/restaurants/border-grill.html?icid=NS-AW-FB-GMB_BorderGrill-LV-MB",
    "category": "Bar & Restaurant",
    "types": "bar, meal_takeaway, restaurant, food, point_of_interest, establishment"
  },
  {
    "place_id": "ChIJO-pVllbHyIARejN2IWA9FYk",
    "name": "PKWY Tavern Decatur",
    "street_address": "4930 West Flamingo Road",
    "city": "Las Vegas",
    "state": "NV",
    "zip_code": "89103",
    "latitude": 36.11582500000001,
    "longitude": -115.208461,
    "website": "https://www.pkwytavern.com/decatur",
    "category": "Bar & Restaurant",
    "types": "bar, restaurant, food, point_of_interest, establishment"
  },
  {
    "place_id": "ChIJa3ffCjzEyIAR5_9QsqXySfc",
    "name": "Rockhouse",
    "street_address": "3377 South Las Vegas Boulevard",
    "city": "Las Vegas",
    "state": "NV",
    "zip_code": "89109",
    "latitude": 36.1227422,
    "longitude": -115.1703586,
    "website": "http://www.therockhousebar.com/",
    "category": "Bar & Restaurant",
    "types": "restaurant, night_club, bar, point_of_interest, food, establishment"
  },
  {
    "place_id": "ChIJU9On-o3GyIARF5SliO1yUqg",
    "name": "Flowing Tide Pub 6",
    "street_address": "4680 South Decatur Boulevard",
    "city": "Las Vegas",
    "state": "NV",
    "zip_code": "89103",
    "latitude": 36.1045494,
    "longitude": -115.2074406,
    "website": "https://flowingtidepub.com/",
    "category": "Bar & Restaurant",
    "types": "bar, restaurant, food, point_of_interest, establishment"
  },
  {
    "place_id": "ChIJBVPGQjnEyIAR-3gYQeETDOo",
    "name": "Tilted Kilt Pub and Eatery",
    "street_address": "3545 South Las Vegas Boulevard",
    "city": "Las Vegas",
    "state": "NV",
    "zip_code": "89109",
    "latitude": 36.1174423,
    "longitude": -115.1706961,
    "website": "https://tiltedkilt.com/las-vegas/",
    "category": "Bar & Restaurant",
    "types": "bar, restaurant, food, point_of_interest, establishment"
  },
  {
    "place_id": "ChIJqx-SxQfFyIARBoHVQSnujpw",
    "name": "PT's Pub",
    "street_address": "1089 East Tropicana Avenue",
    "city": "Las Vegas",
    "state": "NV",
    "zip_code": "89119",
    "latitude": 36.1003791,
    "longitude": -115.139442,
    "website": "https://www.ptstaverns.com/locations/pts-pub/tropicana-maryland-pkwy/?utm_source=gmb&utm_medium=yext",
    "category": "Bar & Restaurant",
    "types": "casino, bar, restaurant, food, point_of_interest, establishment"
  },
  {
    "place_id": "ChIJDTxgRK7GyIARGFt9f8OKfOs",
    "name": "Moondoggies bar",
    "street_address": "3240 Arville Street",
    "city": "Las Vegas",
    "state": "NV",
    "zip_code": "89102",
    "latitude": 36.13078840000001,
    "longitude": -115.198846,
    "website": "https://moondoggiesbar.com/",
    "category": "Bar & Restaurant",
    "types": "bar, restaurant, food, point_of_interest, establishment"
  },
  {
    "place_id": "ChIJJVPgbMXFyIAR4EA9EiiAEDE",
    "name": "Citizens Kitchen & Bar",
    "street_address": "3950 South Las Vegas Boulevard",
    "city": "Las Vegas",
    "state": "NV",
    "zip_code": "89119",
    "latitude": 36.0917789,
    "longitude": -115.1768454,
    "website": "https://www.sbe.com/restaurants/citizens-kitchen-bar/menu",
    "category": "Bar & Restaurant",
    "types": "cafe, bar, restaurant, food, point_of_interest, establishment"
  },
  {
    "place_id": "ChIJP0305yXEyIARXgJmLsf8fw8",
    "name": "Tommy Rocker's Mojave Beach Bar & Grill",
    "street_address": "4275 Dean Martin Drive",
    "city": "Las Vegas",
    "state": "NV",
    "zip_code": "89103",
    "latitude": 36.112132,
    "longitude": -115.1822045,
    "website": "http://www.tommyrocker.com/",
    "category": "Bar & Restaurant",
    "types": "casino, bar, restaurant, food, point_of_interest, establishment"
  },
  {
    "place_id": "ChIJK62WoDzEyIAR8G_u7po_F4o",
    "name": "Gordon Ramsay Pub & Grill",
    "street_address": "3570 Las Vegas Boulevard South",
    "city": "Las Vegas",
    "state": "NV",
    "zip_code": "89109",
    "latitude": 36.11739599999999,
    "longitude": -115.1757518,
    "website": "https://www.caesars.com/caesars-palace/restaurants/gordon-ramsay-pub-and-grill?utm_campaign=gmb&utm_source=google&utm_medium=local&utm_term=GordonRamsay&utm_content=restaurant&y_source=1_NDM2Njg3My03MTUtbG9jYXRpb24ud2Vic2l0ZQ%3D%3D",
    "category": "Bar & Restaurant",
    "types": "bar, restaurant, food, point_of_interest, establishment"
  },
  {
    "place_id": "ChIJLdLbJerEyIARi5A05B5m3RA",
    "name": "PT's Pub",
    "street_address": "2300 East Desert Inn Road",
    "city": "Las Vegas",
    "state": "NV",
    "zip_code": "89169",
    "latitude": 36.1302223,
    "longitude": -115.1197662,
    "website": "https://www.ptstaverns.com/locations/pts-pub/542-desert-inn-eastern/?utm_source=gmb&utm_medium=yext",
    "category": "Bar & Restaurant",
    "types": "casino, bar, restaurant, food, point_of_interest, establishment"
  },
  {
    "place_id": "ChIJhdP2CAvFyIARWBFzpbM4UF0",
    "name": "Flanker Kitchen + Sports Bar",
    "street_address": "3950 South Las Vegas Boulevard",
    "city": "Las Vegas",
    "state": "NV",
    "zip_code": "89119",
    "latitude": 36.0932049,
    "longitude": -115.1762991,
    "website": "http://www.flankerlv.com/",
    "category": "Bar & Restaurant",
    "types": "restaurant, bar, food, point_of_interest, establishment"
  },
  {
    "place_id": "ChIJJQi6K0zFyIAR6Scjmm8cwnY",
    "name": "Bourbon Street Sports Bar",
    "street_address": "7777 W Sahara Ave",
    "city": "Las Vegas",
    "state": "NV",
    "zip_code": "89117",
    "latitude": 36.14486539999999,
    "longitude": -115.1550691,
    "website": null,
    "category": "Bar & Restaurant",
    "types": "bar, restaurant, food, point_of_interest, establishment"
  },
  {
    "place_id": "ChIJ3WIuWzfEyIAR3Cng9xOjScI",
    "name": "Mon Ami Gabi",
    "street_address": "3655 South Las Vegas Boulevard",
    "city": "Las Vegas",
    "state": "NV",
    "zip_code": "89109",
    "latitude": 36.1128631,
    "longitude": -115.1724846,
    "website": "https://www.monamigabi.com/las-vegas/?utm_source=google&utm_medium=social&utm_campaign=MAGLV-GBiz",
    "category": "Bar & Restaurant",
    "types": "bar, restaurant, food, point_of_interest, establishment"
  },
  {
    "place_id": "ChIJ_aBK2TDEyIARAmgMqHIl3ho",
    "name": "Buffalo Wild Wings",
    "street_address": "3663 Las Vegas Boulevard South",
    "city": "Las Vegas",
    "state": "NV",
    "zip_code": "89109",
    "latitude": 36.1082936,
    "longitude": -115.1716424,
    "website": "https://www.buffalowildwings.com/locations/us/nv/las-vegas/3663-las-vegas-blvd/sports-bar-1387?utm_source=google%20my%20business&utm_medium=organic&utm_campaign=website%20link",
    "category": "Bar & Restaurant",
    "types": "meal_takeaway, bar, restaurant, point_of_interest, food, establishment"
  },
  {
    "place_id": "ChIJG7Z7oi3byIARpJkWug14alQ",
    "name": "Old Vegas Tavern",
    "street_address": "3850 East Desert Inn Road",
    "city": "Las Vegas",
    "state": "NV",
    "zip_code": "89121",
    "latitude": 36.12998629999999,
    "longitude": -115.0905569,
    "website": "http://www.oldvegastavern.com/",
    "category": "Bar & Restaurant",
    "types": "night_club, bar, restaurant, food, point_of_interest, establishment"
  },
  {
    "place_id": "ChIJe64G4Z_DyIAReqMDOgirTKQ",
    "name": "Hennessey's Tavern",
    "street_address": "425 Fremont Street",
    "city": "Las Vegas",
    "state": "NV",
    "zip_code": "89101",
    "latitude": 36.16923209999999,
    "longitude": -115.1410139,
    "website": "http://www.hennesseyslasvegas.com/",
    "category": "Bar & Restaurant",
    "types": "bar, restaurant, food, point_of_interest, establishment"
  },
  {
    "place_id": "ChIJ26jhHqrEyIARzxcd7a3Ap6Q",
    "name": "BARLEY POPS",
    "street_address": "3328 East Charleston Boulevard",
    "city": "Las Vegas",
    "state": "NV",
    "zip_code": "89104",
    "latitude": 36.1586319,
    "longitude": -115.0996849,
    "website": "http://www.barleypopslasvegas.com/",
    "category": "Bar & Restaurant",
    "types": "bar, restaurant, food, point_of_interest, establishment"
  },
  {
    "place_id": "ChIJYWp4iJ_DyIARned6fWa39ws",
    "name": "Chicago Brewing Co at Four Queens",
    "street_address": "202 Fremont Street",
    "city": "Las Vegas",
    "state": "NV",
    "zip_code": "89101",
    "latitude": 36.1702799,
    "longitude": -115.1439503,
    "website": "http://www.fourqueens.com/dining/chicago_brewing_co/index.php",
    "category": "Bar & Restaurant",
    "types": "bar, restaurant, food, point_of_interest, establishment"
  },
  {
    "place_id": "ChIJ6czae0jbyIARpe4uz76-i6o",
    "name": "The Plate Bar & Grill",
    "street_address": "2396 South Lamb Boulevard",
    "city": "Las Vegas",
    "state": "NV",
    "zip_code": "89104",
    "latitude": 36.1452659,
    "longitude": -115.082578,
    "website": "https://theplatebarandgrill.com/",
    "category": "Bar & Restaurant",
    "types": "bar, restaurant, food, point_of_interest, establishment"
  },
  {
    "place_id": "ChIJNcVs1VXByIARaX7ykQPgpuQ",
    "name": "Herbs and Rye",
    "street_address": "3713 West Sahara Avenue",
    "city": "Las Vegas",
    "state": "NV",
    "zip_code": "89102",
    "latitude": 36.1440401,
    "longitude": -115.1917877,
    "website": "http://www.herbsandrye.com/",
    "category": "Bar & Restaurant",
    "types": "bar, restaurant, food, point_of_interest, establishment"
  },
  {
    "place_id": "ChIJO8bo4ivFyIARm70v7RwQ864",
    "name": "Village Pub",
    "street_address": "3455 East Flamingo Road",
    "city": "Las Vegas",
    "state": "NV",
    "zip_code": "89121",
    "latitude": 36.1144444,
    "longitude": -115.1,
    "website": "http://www.villagepubvegas.com/",
    "category": "Bar & Restaurant",
    "types": "casino, bar, restaurant, food, point_of_interest, establishment"
  },
  {
    "place_id": "ChIJhU_yio_DyIARpQGpcw5ZS0k",
    "name": "ReBAR",
    "street_address": "1225 South Main Street",
    "city": "Las Vegas",
    "state": "NV",
    "zip_code": "89104",
    "latitude": 36.1565688,
    "longitude": -115.1534503,
    "website": "http://rebarlv.com/",
    "category": "Bar & Restaurant",
    "types": "bar, home_goods_store, store, restaurant, food, point_of_interest, establishment"
  },
  {
    "place_id": "ChIJw8iDdMbcyIARyldQmfMQ65k",
    "name": "Fred's Tavern",
    "street_address": "1645 North Lamb Boulevard",
    "city": "Las Vegas",
    "state": "NV",
    "zip_code": "89115",
    "latitude": 36.1892326,
    "longitude": -115.0804599,
    "website": null,
    "category": "Bar & Restaurant",
    "types": "bar, restaurant, food, point_of_interest, establishment"
  },
  {
    "place_id": "ChIJ23kAmX3DyIARsyhdGBA3PSQ",
    "name": "The Silver Stamp",
    "street_address": "222 East Imperial Avenue",
    "city": "Las Vegas",
    "state": "NV",
    "zip_code": "89104",
    "latitude": 36.1545473,
    "longitude": -115.1518165,
    "website": "http://silverstamplv.com/",
    "category": "Bar & Restaurant",
    "types": "bar, restaurant, food, point_of_interest, establishment"
  },
  {
    "place_id": "ChIJozwn40DFyIARot_tNsJWU9c",
    "name": "Dawg House Saloon & Sports Book",
    "street_address": "3000 South Las Vegas Boulevard",
    "city": "Las Vegas",
    "state": "NV",
    "zip_code": "89109",
    "latitude": 36.1344743,
    "longitude": -115.1677036,
    "website": "https://www.rwlasvegas.com/dining/dawg-house-saloon/",
    "category": "Bar & Restaurant",
    "types": "bar, restaurant, food, point_of_interest, establishment"
  },
  {
    "place_id": "ChIJVc96V_jDyIARBO45dfiSst0",
    "name": "18Bin Bar & Restaurant",
    "street_address": "107 East Charleston Boulevard",
    "city": "Las Vegas",
    "state": "NV",
    "zip_code": "89104",
    "latitude": 36.1590116,
    "longitude": -115.1524942,
    "website": "https://18binlv.com/",
    "category": "Bar & Restaurant",
    "types": "bar, restaurant, point_of_interest, food, establishment"
  },
  {
    "place_id": "ChIJu_QVNbzEyIARZ3NVoSdRLJA",
    "name": "Starboard Tack",
    "street_address": "2601 Atlantic Street",
    "city": "Las Vegas",
    "state": "NV",
    "zip_code": "89121",
    "latitude": 36.1423731,
    "longitude": -115.1146251,
    "website": "https://www.starboardtackvegas.com/",
    "category": "Bar & Restaurant",
    "types": "bar, restaurant, food, point_of_interest, establishment"
  },
  {
    "place_id": "ChIJ1wRv-YvDyIARqf-3Jwcmsng",
    "name": "Hard Hat Lounge",
    "street_address": "1675 South Industrial Road",
    "city": "Las Vegas",
    "state": "NV",
    "zip_code": "89102",
    "latitude": 36.1511262,
    "longitude": -115.1599113,
    "website": "https://hardhatloungelv.com/",
    "category": "Bar & Restaurant",
    "types": "bar, atm, night_club, finance, restaurant, food, point_of_interest, establishment"
  },
  {
    "place_id": "ChIJwSopE9nDyIARU03r9sthqgA",
    "name": "Davy's",
    "street_address": "1221 South Main Street",
    "city": "Las Vegas",
    "state": "NV",
    "zip_code": "89104",
    "latitude": 36.1567231,
    "longitude": -115.1535027,
    "website": "https://davyslv.com/",
    "category": "Bar & Restaurant",
    "types": "bar, restaurant, food, point_of_interest, establishment"
  },
  {
    "place_id": "ChIJ0Xg9fFK-yIARwSFk0ZhZlYM",
    "name": "Yard House",
    "street_address": "11011 West Charleston Boulevard",
    "city": "Las Vegas",
    "state": "NV",
    "zip_code": "89135",
    "latitude": 36.1571039,
    "longitude": -115.3342972,
    "website": "https://www.yardhouse.com/locations/nv/las-vegas/las-vegas-red-rock-resort/8327?cmpid=br:yh_ag:ie_ch:loc_ca:YHGMB_sn:gmb_gt:las-vegas-nv-8327_pl:locurl_rd:1025",
    "category": "Bar & Restaurant",
    "types": "meal_takeaway, bar, restaurant, food, point_of_interest, establishment"
  },
  {
    "place_id": "ChIJVxnpseG_yIARmDElBXzNUj4",
    "name": "The Bar @ Trails Village",
    "street_address": "1916 Village Center Circle",
    "city": "Las Vegas",
    "state": "NV",
    "zip_code": "89134",
    "latitude": 36.19350089999999,
    "longitude": -115.3039055,
    "website": "http://thebarlv.com/",
    "category": "Bar & Restaurant",
    "types": "bar, restaurant, food, point_of_interest, establishment"
  },
  {
    "place_id": "ChIJH7h3BsuVyIAR1iw3TRKqlnw",
    "name": "Miller's Tavern",
    "street_address": "9201 Del Webb Boulevard",
    "city": "Las Vegas",
    "state": "NV",
    "zip_code": "89134",
    "latitude": 36.2108128,
    "longitude": -115.2955404,
    "website": "http://www.millerstavernlv.com/",
    "category": "Bar & Restaurant",
    "types": "bar, restaurant, food, point_of_interest, establishment"
  },
  {
    "place_id": "ChIJgx4A8abqyIART37O5HQC5ro",
    "name": "Village Pub & Casino",
    "street_address": "2610 Regatta Drive",
    "city": "Las Vegas",
    "state": "NV",
    "zip_code": "89128",
    "latitude": 36.20679440000001,
    "longitude": -115.2683583,
    "website": "http://www.villagepubvegas.com/",
    "category": "Bar & Restaurant",
    "types": "casino, bar, restaurant, food, point_of_interest, establishment"
  },
  {
    "place_id": "ChIJQXDhSoa_yIAR26Vfc9iEFYU",
    "name": "PKWY Tavern Tivoli",
    "street_address": "450 South Rampart Boulevard",
    "city": "Las Vegas",
    "state": "NV",
    "zip_code": "89145",
    "latitude": 36.16664410000001,
    "longitude": -115.2855921,
    "website": "https://www.pkwytavern.com/locations/tivoli/",
    "category": "Bar & Restaurant",
    "types": "bar, restaurant, food, point_of_interest, establishment"
  },
  {
    "place_id": "ChIJCfjYRRqVyIARnwsaokAjP54",
    "name": "Tavern at the Falls",
    "street_address": "City Blvd",
    "city": "Las Vegas",
    "state": "NV",
    "zip_code": "89134",
    "latitude": 36.2139239,
    "longitude": -115.3186645,
    "website": "https://www.golfsummerlin.com/tavern_at_the_falls/",
    "category": "Restaurant",
    "types": "restaurant, food, point_of_interest, establishment"
  },
  {
    "place_id": "ChIJQZ1qjrbqyIAR1SvxgdBVZAI",
    "name": "Steiner's Pub",
    "street_address": "8410 West Cheyenne Avenue",
    "city": "Las Vegas",
    "state": "NV",
    "zip_code": "89129",
    "latitude": 36.219284,
    "longitude": -115.276863,
    "website": "http://www.steinerspub.com/",
    "category": "Bar & Restaurant",
    "types": "bar, restaurant, food, point_of_interest, establishment"
  },
  {
    "place_id": "ChIJ3_GIq6a_yIARUc_7pg7XtyM",
    "name": "The Pint",
    "street_address": "9941 West Charleston Boulevard",
    "city": "Las Vegas",
    "state": "NV",
    "zip_code": "89117",
    "latitude": 36.1573256,
    "longitude": -115.3135676,
    "website": "https://www.thepintlv.com/",
    "category": "Bar & Restaurant",
    "types": "bar, restaurant, food, point_of_interest, establishment"
  },
  {
    "place_id": "ChIJy-2oLk2-yIARKHsXmZgIh-k",
    "name": "Distill - A Local Bar",
    "street_address": "10820 West Charleston Boulevard",
    "city": "Las Vegas",
    "state": "NV",
    "zip_code": "89135",
    "latitude": 36.1607673,
    "longitude": -115.3315752,
    "website": "http://www.distillbar.com/",
    "category": "Bar & Restaurant",
    "types": "bar, restaurant, food, point_of_interest, establishment"
  },
  {
    "place_id": "ChIJC55xT5bAyIARnMQtt95PgRo",
    "name": "Mad Matty's Bar & Grill",
    "street_address": "8100 West Sahara Avenue",
    "city": "Las Vegas",
    "state": "NV",
    "zip_code": "89117",
    "latitude": 36.1442586,
    "longitude": -115.2683054,
    "website": "http://www.madmattys.com/",
    "category": "Bar & Restaurant",
    "types": "casino, bar, restaurant, food, point_of_interest, establishment"
  },
  {
    "place_id": "ChIJ_S6ypEKVyIARXXFDUlpiTpY",
    "name": "Bogeys Bar & Grill West",
    "street_address": "3370 Novat Street",
    "city": "Las Vegas",
    "state": "NV",
    "zip_code": "89129",
    "latitude": 36.2215736,
    "longitude": -115.3281597,
    "website": "http://www.bogeysvegas.com/",
    "category": "Bar & Restaurant",
    "types": "bar, restaurant, food, point_of_interest, establishment"
  },
  {
    "place_id": "ChIJLQpeTADAyIARayf7PIr5eA4",
    "name": "PT's Pub",
    "street_address": "8584 West Lake Mead Boulevard",
    "city": "Las Vegas",
    "state": "NV",
    "zip_code": "89128",
    "latitude": 36.2010956,
    "longitude": -115.2804073,
    "website": "https://www.ptstaverns.com/locations/pts-pub/lake-mead-rampart/?utm_source=gmb&utm_medium=yext",
    "category": "Bar & Restaurant",
    "types": "casino, bar, restaurant, food, point_of_interest, establishment"
  },
  {
    "place_id": "ChIJO6GIJDiVyIARjXqyASnVLHI",
    "name": "Timbers Bar & Grill",
    "street_address": "9180 West Cheyenne Avenue",
    "city": "Las Vegas",
    "state": "NV",
    "zip_code": "89129",
    "latitude": 36.2190094,
    "longitude": -115.2962036,
    "website": "https://timbersgaming.com/w-cheynne-fort-apache/",
    "category": "Bar & Restaurant",
    "types": "restaurant, bar, food, point_of_interest, establishment"
  },
  {
    "place_id": "ChIJ846QcU2-yIARiRDxfUlWn-w",
    "name": "BJ's Restaurant & Brewhouse",
    "street_address": "10840 West Charleston Boulevard",
    "city": "Las Vegas",
    "state": "NV",
    "zip_code": "89135",
    "latitude": 36.1596455,
    "longitude": -115.3319559,
    "website": "https://www.bjsrestaurants.com/locations/nv/summerlin?utm_source=google&utm_medium=organic&utm_campaign=google_my_business",
    "category": "Bar & Restaurant",
    "types": "restaurant, bar, food, point_of_interest, establishment"
  },
  {
    "place_id": "ChIJqcrxKS-_yIARi6FbNOkvX4E",
    "name": "Rustic House Boca Park",
    "street_address": "8820 West Charleston Boulevard",
    "city": "Las Vegas",
    "state": "NV",
    "zip_code": "89117",
    "latitude": 36.1594009,
    "longitude": -115.2882498,
    "website": "https://rustichouselv.com/menu/",
    "category": "Restaurant",
    "types": "restaurant, food, point_of_interest, establishment"
  },
  {
    "place_id": "ChIJEYrEu4O_yIARUQkGqRY3G2c",
    "name": "Honey Salt",
    "street_address": "1031 South Rampart Boulevard",
    "city": "Las Vegas",
    "state": "NV",
    "zip_code": "89145",
    "latitude": 36.1606254,
    "longitude": -115.2930049,
    "website": "http://www.honeysalt.com/",
    "category": "Restaurant",
    "types": "restaurant, food, point_of_interest, establishment"
  },
  {
    "place_id": "ChIJeaOsPxG_yIAR4zgkLuFE1Wo",
    "name": "Frankie's Uptown - A Neighborhood Bar",
    "street_address": "1770 Festival Plaza Drive",
    "city": "Las Vegas",
    "state": "NV",
    "zip_code": "89135",
    "latitude": 36.1522735,
    "longitude": -115.3326735,
    "website": "http://frankiesuptown.com/",
    "category": "Bar & Restaurant",
    "types": "bar, restaurant, food, point_of_interest, establishment"
  },
  {
    "place_id": "ChIJXaVl2Q6VyIAR3DfGbCXbf4k",
    "name": "Edge of Town Bar & Grille",
    "street_address": "10490 West Cheyenne Avenue",
    "city": "Las Vegas",
    "state": "NV",
    "zip_code": "89129",
    "latitude": 36.21889100000001,
    "longitude": -115.3254134,
    "website": "http://www.edgeoftownlasvegas.com/",
    "category": "Bar & Restaurant",
    "types": "bar, restaurant, food, point_of_interest, establishment"
  },
  {
    "place_id": "ChIJdYdvgVS-yIARvxtsLxyG7ng",
    "name": "Lazy Dog Restaurant & Bar",
    "street_address": "1725 Festival Plaza Drive",
    "city": "Las Vegas",
    "state": "NV",
    "zip_code": "89135",
    "latitude": 36.1528386,
    "longitude": -115.3338232,
    "website": "https://lazydogrestaurants.com/locations/summerlin-nv",
    "category": "Bar & Restaurant",
    "types": "bar, restaurant, food, point_of_interest, establishment"
  },
  {
    "place_id": "ChIJ_UctnHi_yIAR2ceLuoZoiv8",
    "name": "The Martini",
    "street_address": "1205 South Fort Apache Road",
    "city": "Las Vegas",
    "state": "NV",
    "zip_code": "89117",
    "latitude": 36.15722219999999,
    "longitude": -115.2930556,
    "website": "http://themartinilv.com/",
    "category": "Bar & Restaurant",
    "types": "bar, restaurant, food, point_of_interest, establishment"
  },
  {
    "place_id": "ChIJ9wmmgYjAyIARU5z121Uefqc",
    "name": "Calico Jack's Saloon",
    "street_address": "8200 West Charleston Boulevard",
    "city": "Las Vegas",
    "state": "NV",
    "zip_code": "89117",
    "latitude": 36.159346,
    "longitude": -115.2713758,
    "website": "http://calicojackssaloon.com/",
    "category": "Bar & Restaurant",
    "types": "night_club, bar, restaurant, food, point_of_interest, establishment"
  },
  {
    "place_id": "ChIJm1IxQJW_yIARxyaWuo5TJy8",
    "name": "Waterside Caf\u00e9",
    "street_address": "221 South Rampart Boulevard",
    "city": "Las Vegas",
    "state": "NV",
    "zip_code": "89145",
    "latitude": 36.1744425,
    "longitude": -115.2923623,
    "website": "https://theresortatsummerlin.com/dining/casual-dining/waterside-cafe/",
    "category": "Restaurant",
    "types": "restaurant, food, point_of_interest, establishment"
  },
  {
    "place_id": "ChIJiWHdA6DAyIAR8SrJdbOCspk",
    "name": "Lakes Lounge",
    "street_address": "2920 Lake East Drive",
    "city": "Las Vegas",
    "state": "NV",
    "zip_code": "89117",
    "latitude": 36.1384305,
    "longitude": -115.2843015,
    "website": "http://www.thelakeslounge.com/",
    "category": "Bar & Restaurant",
    "types": "bar, restaurant, food, point_of_interest, establishment"
  },
  {
    "place_id": "ChIJy59U1kO-yIAR7BATajTvqoc",
    "name": "John Cutter",
    "street_address": "11770 West Charleston Boulevard",
    "city": "Las Vegas",
    "state": "NV",
    "zip_code": "89135",
    "latitude": 36.1593777,
    "longitude": -115.3514336,
    "website": "https://johncutterlv.com/",
    "category": "Bar & Restaurant",
    "types": "bar, restaurant, food, point_of_interest, establishment"
  },
  {
    "place_id": "ChIJaYalS_K_yIARJ7npiDjBWRs",
    "name": "90 NINETY Bar + Grill",
    "street_address": "9090 Alta Drive",
    "city": "Las Vegas",
    "state": "NV",
    "zip_code": "89145",
    "latitude": 36.1691872,
    "longitude": -115.2900938,
    "website": "http://suncoast.boydgaming.com/dine/sc-90-ninety-bar-grill",
    "category": "Bar & Restaurant",
    "types": "bar, restaurant, food, point_of_interest, establishment"
  },
  {
    "place_id": "ChIJFRrTqePryIARHs2zLTk5Ucg",
    "name": "Distill - A Local Bar",
    "street_address": "7790 West Cheyenne Avenue",
    "city": "Las Vegas",
    "state": "NV",
    "zip_code": "89129",
    "latitude": 36.2187557,
    "longitude": -115.2645422,
    "website": "http://distillbar.com/locations/summerlin/",
    "category": "Bar & Restaurant",
    "types": "bar, restaurant, food, point_of_interest, establishment"
  },
  {
    "place_id": "ChIJ01ZABVW-yIARUaTE3hX5Ikw",
    "name": "Grape Street Wine Bar",
    "street_address": "2120 Festival Plaza Drive",
    "city": "Las Vegas",
    "state": "NV",
    "zip_code": "89135",
    "latitude": 36.1486981,
    "longitude": -115.3331133,
    "website": "http://grapestreetdowntownsummerlin.com/",
    "category": "Bar & Restaurant",
    "types": "bar, restaurant, food, point_of_interest, establishment"
  },
  {
    "place_id": "ChIJM1QqTHC_yIARSJqpIEaScq0",
    "name": "Chicago Brewing Company",
    "street_address": "2201 South Fort Apache Road",
    "city": "Las Vegas",
    "state": "NV",
    "zip_code": "89117",
    "latitude": 36.14744,
    "longitude": -115.29808,
    "website": "http://chicagobrewinglv.com/",
    "category": "Bar & Restaurant",
    "types": "bar, restaurant, food, point_of_interest, establishment"
  },
  {
    "place_id": "ChIJXwArXFW-yIAR4FuhwZGW_NM",
    "name": "Dave & Buster's Las Vegas - Summerlin",
    "street_address": "2130 Park Centre Drive",
    "city": "Las Vegas",
    "state": "NV",
    "zip_code": "89135",
    "latitude": 36.1488753,
    "longitude": -115.3320327,
    "website": "https://www.daveandbusters.com/us/en/about/locations/las-vegas-summerlin",
    "category": "Bar & Restaurant",
    "types": "restaurant, bar, food, point_of_interest, establishment"
  },
  {
    "place_id": "ChIJBdWXs6y_yIAROvE0e98CAkY",
    "name": "MacKenzie River Pizza, Grill & Pub",
    "street_address": "1550 South Pavilion Center Drive",
    "city": "Las Vegas",
    "state": "NV",
    "zip_code": "89135",
    "latitude": 36.1539922,
    "longitude": -115.329407,
    "website": "https://locations.mackenzieriverpizza.com/locations/nv/las-vegas/1550-s-pavilion-center-dr",
    "category": "Restaurant",
    "types": "restaurant, food, point_of_interest, establishment"
  },
  {
    "place_id": "ChIJBcjyPQDXyIARVokNycVKQGU",
    "name": "Johnny Mac's Water Street Tavern",
    "street_address": "117 South Water Street",
    "city": "Henderson",
    "state": "NV",
    "zip_code": "89015",
    "latitude": 36.0335521,
    "longitude": -114.9836868,
    "website": "https://johnnymacswings.com/",
    "category": "Restaurant",
    "types": "restaurant, food, point_of_interest, establishment"
  },
  {
    "place_id": "ChIJF93vUfLRyIARUo4m3hTDjTQ",
    "name": "Flowing Tide Pub 12",
    "street_address": "700 West Galleria Drive",
    "city": "Henderson",
    "state": "NV",
    "zip_code": "89011",
    "latitude": 36.07105170000001,
    "longitude": -115.0182882,
    "website": "https://www.flowingtidepub.com/",
    "category": "Bar & Restaurant",
    "types": "bar, restaurant, food, point_of_interest, establishment"
  },
  {
    "place_id": "ChIJ623shR_XyIARigOOkqPHx1U",
    "name": "Sticks Tavern",
    "street_address": "203 South Water Street",
    "city": "Henderson",
    "state": "NV",
    "zip_code": "89015",
    "latitude": 36.0320453,
    "longitude": -114.9819021,
    "website": "https://stickstavern.com/",
    "category": "Bar & Restaurant",
    "types": "bar, restaurant, food, point_of_interest, establishment"
  },
  {
    "place_id": "ChIJYScvNAXUyIAR_TjCmPUIAH4",
    "name": "Hammers Grill & Bar",
    "street_address": "771 East Horizon Drive",
    "city": "Henderson",
    "state": "NV",
    "zip_code": "89015",
    "latitude": 36.0133354,
    "longitude": -114.9600762,
    "website": "https://www.hammersgrillandbar.com/",
    "category": "Bar & Restaurant",
    "types": "bar, restaurant, food, point_of_interest, establishment"
  },
  {
    "place_id": "ChIJ0TuKoPvQyIAR9GyS4UbITps",
    "name": "PKWY Tavern Marks",
    "street_address": "445 Marks Street",
    "city": "Henderson",
    "state": "NV",
    "zip_code": "89014",
    "latitude": 36.057828,
    "longitude": -115.0379439,
    "website": "https://www.pkwytavern.com/",
    "category": "Bar & Restaurant",
    "types": "bar, restaurant, food, point_of_interest, establishment"
  },
  {
    "place_id": "ChIJHXgvCGrVyIARdpphcQkoq6A",
    "name": "Sunset Tavern",
    "street_address": "886 South Boulder Highway",
    "city": "Henderson",
    "state": "NV",
    "zip_code": "89015",
    "latitude": 36.0254609,
    "longitude": -114.9637288,
    "website": "https://sunsettavern015.com/?utm_source=gmb&utm_medium=referral",
    "category": "Bar & Restaurant",
    "types": "casino, bar, restaurant, food, point_of_interest, establishment"
  },
  {
    "place_id": "ChIJP--mfDHUyIAR7YF-qmb3D78",
    "name": "PT's Pub",
    "street_address": "1331 South Boulder Highway",
    "city": "Henderson",
    "state": "NV",
    "zip_code": "89015",
    "latitude": 36.0147389,
    "longitude": -114.9583268,
    "website": "https://www.ptstaverns.com/locations/pts-pub/boulder-hwy-horizon/?utm_source=gmb&utm_medium=yext",
    "category": "Bar & Restaurant",
    "types": "casino, bar, restaurant, food, point_of_interest, establishment"
  },
  {
    "place_id": "ChIJ1QRd2xDRyIAR_R3UaFpWtTo",
    "name": "Village Pub",
    "street_address": "193 North Gibson Road",
    "city": "Henderson",
    "state": "NV",
    "zip_code": "89014",
    "latitude": 36.04103849999999,
    "longitude": -115.030014,
    "website": "http://www.villagepubvegas.com/",
    "category": "Bar & Restaurant",
    "types": "casino, bar, restaurant, food, point_of_interest, establishment"
  },
  {
    "place_id": "ChIJQeYtri3VyIARbSRMk0YM1zk",
    "name": "Putter's Bar and Grill Horizon",
    "street_address": "646 East Horizon Drive",
    "city": "Henderson",
    "state": "NV",
    "zip_code": "89015",
    "latitude": 36.01168059999999,
    "longitude": -114.9646072,
    "website": "https://www.puttersvegas.com/",
    "category": "Bar & Restaurant",
    "types": "bar, restaurant, food, point_of_interest, establishment"
  },
  {
    "place_id": "ChIJFTCK_-HQyIARWpLEg603LHs",
    "name": "Joe's Place",
    "street_address": "375 North Gibson Road",
    "city": "Henderson",
    "state": "NV",
    "zip_code": "89014",
    "latitude": 36.0530776,
    "longitude": -115.0301971,
    "website": "http://www.joesplacevegas.com/",
    "category": "Bar & Restaurant",
    "types": "bar, restaurant, point_of_interest, food, establishment"
  },
  {
    "place_id": "ChIJZQuwXj3RyIARuct0VoFDBnQ",
    "name": "Aces Bar & Grill (East)",
    "street_address": "35 South Gibson Road",
    "city": "Henderson",
    "state": "NV",
    "zip_code": "89012",
    "latitude": 36.0303163,
    "longitude": -115.03001,
    "website": "https://acesgrill.top/",
    "category": "Bar & Restaurant",
    "types": "bar, restaurant, food, point_of_interest, establishment"
  },
  {
    "place_id": "ChIJcTZlIJnWyIARsYLxIA905os",
    "name": "Johnny Mac's Sports Bar & Grill",
    "street_address": "842 South Boulder Highway",
    "city": "Henderson",
    "state": "NV",
    "zip_code": "89015",
    "latitude": 36.02669849999999,
    "longitude": -114.964943,
    "website": "https://johnnymacswings.com/",
    "category": "Bar & Restaurant",
    "types": "bar, restaurant, food, point_of_interest, establishment"
  },
  {
    "place_id": "ChIJqdrohgbUyIARS3N21IzTdzI",
    "name": "PT's Gold",
    "street_address": "61 West Horizon Ridge Parkway",
    "city": "Henderson",
    "state": "NV",
    "zip_code": "89012",
    "latitude": 36.01281650000001,
    "longitude": -114.9937533,
    "website": "https://www.ptstaverns.com/locations/pts-gold/horizon-horizon-ridge/?utm_source=gmb&utm_medium=yext",
    "category": "Bar & Restaurant",
    "types": "casino, bar, restaurant, food, point_of_interest, establishment"
  },
  {
    "place_id": "ChIJ-zv2uqDVyIARusMjRB_aONo",
    "name": "Remedy's Conestoga Way",
    "street_address": "530 Conestoga Way",
    "city": "Henderson",
    "state": "NV",
    "zip_code": "89002",
    "latitude": 35.99338869999999,
    "longitude": -114.9330984,
    "website": "https://remedysconestogaway.shop/",
    "category": "Bar & Restaurant",
    "types": "bar, restaurant, food, point_of_interest, establishment"
  },
  {
    "place_id": "ChIJkaLvFKXXyIAR0MeKa8BEdiU",
    "name": "Biscuits and Bourbon",
    "street_address": "109 South Water Street",
    "city": "Henderson",
    "state": "NV",
    "zip_code": "89015",
    "latitude": 36.0339279,
    "longitude": -114.9840105,
    "website": "http://www.bandbonwater.com/",
    "category": "Restaurant",
    "types": "restaurant, food, point_of_interest, establishment"
  },
  {
    "place_id": "ChIJUYO5AmPXyIARSID184AhbM0",
    "name": "MacKenzie River Pizza, Grill & Pub",
    "street_address": "222 South Water Street",
    "city": "Henderson",
    "state": "NV",
    "zip_code": "89015",
    "latitude": 36.0312242,
    "longitude": -114.9819947,
    "website": "https://locations.mackenzieriverpizza.com/locations/nv/henderson/222-s-water-street",
    "category": "Restaurant",
    "types": "restaurant, point_of_interest, food, establishment"
  },
  {
    "place_id": "ChIJB361r7XXyIARnWWAyIQSg_0",
    "name": "BLVD Grille",
    "street_address": "46 South Water Street",
    "city": "Henderson",
    "state": "NV",
    "zip_code": "89015",
    "latitude": 36.0344054,
    "longitude": -114.9852067,
    "website": "http://theblvdgrille.com/",
    "category": "Restaurant",
    "types": "restaurant, food, point_of_interest, establishment"
  },
  {
    "place_id": "ChIJafQzk_XRyIARCeGLdRGDHJM",
    "name": "Carl & Martin's Bar",
    "street_address": "2920 North Green Valley Parkway",
    "city": "Henderson",
    "state": "NV",
    "zip_code": "89014",
    "latitude": 36.0764198,
    "longitude": -115.0818549,
    "website": "https://carlandmartinsbar.com/",
    "category": "Bar & Restaurant",
    "types": "bar, restaurant, food, point_of_interest, establishment"
  },
  {
    "place_id": "ChIJ--qLuhPQyIARDiyntSoNAKU",
    "name": "Village Pub & Poker",
    "street_address": "4563 East Sunset Road",
    "city": "Henderson",
    "state": "NV",
    "zip_code": "89014",
    "latitude": 36.070588,
    "longitude": -115.074333,
    "website": "http://www.villagepubvegas.com/",
    "category": "Bar & Restaurant",
    "types": "casino, bar, restaurant, food, point_of_interest, establishment"
  },
  {
    "place_id": "ChIJ21FxdhHQyIARIRSoOdakNRk",
    "name": "Dylan's Grill and Pub",
    "street_address": "4401 East Sunset Road",
    "city": "Henderson",
    "state": "NV",
    "zip_code": "89014",
    "latitude": 36.0704777,
    "longitude": -115.0773278,
    "website": null,
    "category": "Bar & Restaurant",
    "types": "bar, restaurant, food, point_of_interest, establishment"
  },
  {
    "place_id": "ChIJa6vERwPQyIARmjuXJLrokKI",
    "name": "Rush Hour Bar & Grill",
    "street_address": "3985 East Sunset Road",
    "city": "Las Vegas",
    "state": "NV",
    "zip_code": "89120",
    "latitude": 36.0706721,
    "longitude": -115.0878367,
    "website": null,
    "category": "Bar & Restaurant",
    "types": "bar, restaurant, food, point_of_interest, establishment"
  },
  {
    "place_id": "ChIJcUEzNj_ryIARnFqotZdaTzE",
    "name": "Bogeys Bar & Grill East",
    "street_address": "3088 East Sunset Road",
    "city": "Las Vegas",
    "state": "NV",
    "zip_code": "89120",
    "latitude": 36.0719017,
    "longitude": -115.1076787,
    "website": "http://www.bogeysvegas.com/",
    "category": "Bar & Restaurant",
    "types": "bar, restaurant, food, point_of_interest, establishment"
  },
  {
    "place_id": "ChIJ32NbglfRyIARd8CjSSUOqcY",
    "name": "The Oak Room",
    "street_address": "2235 Village Walk Drive",
    "city": "Henderson",
    "state": "NV",
    "zip_code": "89052",
    "latitude": 36.0211147,
    "longitude": -115.0863539,
    "website": "https://www.oakroomlv.com/",
    "category": "Bar & Restaurant",
    "types": "restaurant, bar, food, point_of_interest, establishment"
  },
  {
    "place_id": "ChIJy273LJDayIAR2yHyyjwK7IU",
    "name": "Butch Cassidy's Bar & Grill",
    "street_address": "5225 East Tropicana Avenue",
    "city": "Las Vegas",
    "state": "NV",
    "zip_code": "89122",
    "latitude": 36.0999209,
    "longitude": -115.0587711,
    "website": null,
    "category": "Bar & Restaurant",
    "types": "bar, restaurant, food, point_of_interest, establishment"
  },
  {
    "place_id": "ChIJh1iVlt3RyIARtzQD_phig3k",
    "name": "PKWY Tavern District",
    "street_address": "2235 Village Walk Drive",
    "city": "Henderson",
    "state": "NV",
    "zip_code": "89052",
    "latitude": 36.02097449999999,
    "longitude": -115.0862478,
    "website": "https://www.pkwytavern.com/locations/district/",
    "category": "Bar & Restaurant",
    "types": "bar, restaurant, food, point_of_interest, establishment"
  },
  {
    "place_id": "ChIJq2TtQbXPyIARfcpU73kVvJM",
    "name": "Village Pub & Poker",
    "street_address": "8515 South Eastern Avenue",
    "city": "Las Vegas",
    "state": "NV",
    "zip_code": "89123",
    "latitude": 36.0343291,
    "longitude": -115.1192015,
    "website": "http://www.villagepubvegas.com/",
    "category": "Bar & Restaurant",
    "types": "casino, bar, restaurant, food, point_of_interest, establishment"
  },
  {
    "place_id": "ChIJie59atTPyIARAI9PR42F1BE",
    "name": "Gin Mill",
    "street_address": "2561 Windmill Parkway",
    "city": "Henderson",
    "state": "NV",
    "zip_code": "89074",
    "latitude": 36.0414548,
    "longitude": -115.0983702,
    "website": "https://www.ginmillbar.com/",
    "category": "Bar & Restaurant",
    "types": "bar, restaurant, food, point_of_interest, establishment"
  },
  {
    "place_id": "ChIJKT36PUrOyIAR5QWvVgKjDW4",
    "name": "Kopper Keg South",
    "street_address": "2375 East Torino Avenue",
    "city": "Las Vegas",
    "state": "NV",
    "zip_code": "89123",
    "latitude": 36.0291141,
    "longitude": -115.119377,
    "website": "https://www.kopperkeglv.com/?utm_source=local&utm_medium=organic&utm_campaign=gmb",
    "category": "Bar & Restaurant",
    "types": "bar, restaurant, food, point_of_interest, establishment"
  },
  {
    "place_id": "ChIJV0E3kDjOyIARUg3pWLZOKeM",
    "name": "Great American Pub",
    "street_address": "9310 South Eastern Avenue",
    "city": "Las Vegas",
    "state": "NV",
    "zip_code": "89123",
    "latitude": 36.0202451,
    "longitude": -115.1168616,
    "website": "https://www.ptstaverns.com/locations/great-american-pub/great-american-pub-1",
    "category": "Bar & Restaurant",
    "types": "bar, restaurant, food, point_of_interest, establishment"
  },
  {
    "place_id": "ChIJ3-gZ1PjQyIARuNIFuUB_vV8",
    "name": "Sierra Gold",
    "street_address": "1341 West Warm Springs Road",
    "city": "Henderson",
    "state": "NV",
    "zip_code": "89014",
    "latitude": 36.0556955,
    "longitude": -115.0434377,
    "website": "https://www.ptstaverns.com/locations/sierra-gold/warm-springs-stephanie/?utm_source=gmb&utm_medium=yext",
    "category": "Bar & Restaurant",
    "types": "casino, bar, restaurant, food, point_of_interest, establishment"
  },
  {
    "place_id": "ChIJ9b7lahfRyIAR0pK0Pt1Lnes",
    "name": "Craggy Range Sports Bar & Grill",
    "street_address": "200 South Green Valley Parkway",
    "city": "Henderson",
    "state": "NV",
    "zip_code": "89012",
    "latitude": 36.0196975,
    "longitude": -115.0815216,
    "website": "http://www.thecraggyrange.com/",
    "category": "Bar & Restaurant",
    "types": "bar, restaurant, food, point_of_interest, establishment"
  },
  {
    "place_id": "ChIJ11BWAKzPyIARGmuu4NwsVfo",
    "name": "Rockys Bar + Grill",
    "street_address": "8540 South Maryland Parkway",
    "city": "Las Vegas",
    "state": "NV",
    "zip_code": "89123",
    "latitude": 36.03469,
    "longitude": -115.135487,
    "website": "http://www.rockyslv.com/",
    "category": "Bar & Restaurant",
    "types": "bar, restaurant, food, point_of_interest, establishment"
  },
  {
    "place_id": "ChIJJcJ9rl7QyIAR-VXgtuIcBT4",
    "name": "PT's Gold",
    "street_address": "1540 West Sunset Road",
    "city": "Henderson",
    "state": "NV",
    "zip_code": "89014",
    "latitude": 36.0641848,
    "longitude": -115.0520229,
    "website": "https://www.ptstaverns.com/locations/pts-gold/sunset-whitney-ranch/?utm_source=gmb&utm_medium=yext",
    "category": "Bar & Restaurant",
    "types": "casino, bar, restaurant, food, point_of_interest, establishment"
  },
  {
    "place_id": "ChIJ_THTglTOyIARIQhQMeSonck",
    "name": "Mulligans Border Bar & Grill",
    "street_address": "1235 East Pebble Road",
    "city": "Las Vegas",
    "state": "NV",
    "zip_code": "89123",
    "latitude": 36.0276953,
    "longitude": -115.1357795,
    "website": "http://mulligansborderbarandgrill.com/",
    "category": "Bar & Restaurant",
    "types": "bar, restaurant, food, point_of_interest, establishment"
  },
  {
    "place_id": "ChIJjUxecqrRyIARN8ufG4mm_mo",
    "name": "Lazy Dog Restaurant & Bar",
    "street_address": "594 North Stephanie Street",
    "city": "Henderson",
    "state": "NV",
    "zip_code": "89014",
    "latitude": 36.0617314,
    "longitude": -115.0455883,
    "website": "https://www.lazydogrestaurants.com/locations/henderson-nv",
    "category": "Bar & Restaurant",
    "types": "bar, restaurant, point_of_interest, food, establishment"
  },
  {
    "place_id": "ChIJSw1qQfHRyIAROEVWV2B2C7s",
    "name": "Yard House",
    "street_address": "1301 West Sunset Road",
    "city": "Henderson",
    "state": "NV",
    "zip_code": "89014",
    "latitude": 36.0608676,
    "longitude": -115.0410004,
    "website": "https://www.yardhouse.com/locations/nv/henderson/henderson-sunset-station/8397?cmpid=br:yh_ag:ie_ch:loc_ca:YHGMB_sn:gmb_gt:henderson-nv-8397_pl:locurl_rd:1090",
    "category": "Bar & Restaurant",
    "types": "meal_takeaway, bar, restaurant, food, point_of_interest, establishment"
  },
  {
    "place_id": "ChIJAyM9_qnPyIARxyQMg4wQv9I",
    "name": "Sierra Gold",
    "street_address": "9465 South Eastern Avenue",
    "city": "Las Vegas",
    "state": "NV",
    "zip_code": "89123",
    "latitude": 36.0174981,
    "longitude": -115.1192942,
    "website": "https://www.ptstaverns.com/locations/sierra-gold/598-eastern-serene-silverado-ranch/?utm_source=gmb&utm_medium=yext",
    "category": "Bar & Restaurant",
    "types": "casino, bar, restaurant, food, point_of_interest, establishment"
  },
  {
    "place_id": "ChIJjetgg0DOyIARr6tFHadvPJo",
    "name": "Twin Peaks",
    "street_address": "9510 South Eastern Avenue",
    "city": "Las Vegas",
    "state": "NV",
    "zip_code": "89123",
    "latitude": 36.0161738,
    "longitude": -115.1180997,
    "website": "https://twinpeaksrestaurant.com/locations/henderson-nv",
    "category": "Bar & Restaurant",
    "types": "bar, restaurant, point_of_interest, food, establishment"
  },
  {
    "place_id": "ChIJ9x_yrk7RyIARzMjzu9D1mtw",
    "name": "DJ's All American Tavern",
    "street_address": "237 North Stephanie Street",
    "city": "Henderson",
    "state": "NV",
    "zip_code": "89074",
    "latitude": 36.04418580000001,
    "longitude": -115.0482018,
    "website": "https://djstaverns.com/",
    "category": "Bar & Restaurant",
    "types": "bar, restaurant, food, point_of_interest, establishment"
  },
  {
    "place_id": "ChIJNzmVL5zRyIAR_1uXrKP3gbE",
    "name": "Timbers Bar & Grill",
    "street_address": "1450 West Horizon Ridge Parkway",
    "city": "Henderson",
    "state": "NV",
    "zip_code": "89012",
    "latitude": 36.0232408,
    "longitude": -115.0479081,
    "website": "http://www.timbersgaming.com/",
    "category": "Bar & Restaurant",
    "types": "bar, restaurant, food, point_of_interest, establishment"
  },
  {
    "place_id": "ChIJtRCNbfzPyIAR7pqutP0rSRY",
    "name": "PT's Pub",
    "street_address": "3470 East Sunset Road",
    "city": "Las Vegas",
    "state": "NV",
    "zip_code": "89120",
    "latitude": 36.0718192,
    "longitude": -115.0991768,
    "website": "https://www.ptstaverns.com/locations/pts-pub/sunset-pecos/?utm_source=gmb&utm_medium=yext",
    "category": "Bar & Restaurant",
    "types": "casino, bar, restaurant, food, point_of_interest, establishment"
  },
  {
    "place_id": "ChIJ4f0o9yfOyIARP7_FkG20eHE",
    "name": "PT's Ranch",
    "street_address": "2430 East Pebble Road",
    "city": "Henderson",
    "state": "NV",
    "zip_code": "89074",
    "latitude": 36.02824390000001,
    "longitude": -115.1177888,
    "website": "https://www.ptstaverns.com/locations/pts-ranch/pebble-eastern/?utm_source=gmb&utm_medium=yext",
    "category": "Bar & Restaurant",
    "types": "casino, bar, restaurant, food, point_of_interest, establishment"
  },
  {
    "place_id": "ChIJHSqsCj7FyIARugciD_bAaDM",
    "name": "Office 6 Lounge & Bar",
    "street_address": "2570 East Tropicana Avenue",
    "city": "Las Vegas",
    "state": "NV",
    "zip_code": "89121",
    "latitude": 36.1009707,
    "longitude": -115.1148578,
    "website": "http://www.office6bar.com/",
    "category": "Bar & Restaurant",
    "types": "bar, restaurant, food, point_of_interest, establishment"
  },
  {
    "place_id": "ChIJ7cvR_0_RyIARUPrnc2lepN8",
    "name": "Distill - A Local Bar",
    "street_address": "1231 American Pacific Drive",
    "city": "Henderson",
    "state": "NV",
    "zip_code": "89074",
    "latitude": 36.0413085,
    "longitude": -115.0402688,
    "website": "https://distillbar.com/",
    "category": "Bar & Restaurant",
    "types": "bar, restaurant, food, point_of_interest, establishment"
  },
  {
    "place_id": "ChIJ735P9CrRyIARMA5-VCbMDlw",
    "name": "Lodge at Stephanie",
    "street_address": "65 South Stephanie Street",
    "city": "Henderson",
    "state": "NV",
    "zip_code": "89012",
    "latitude": 36.0258847,
    "longitude": -115.0479701,
    "website": "https://www.thelodgevegas.com/",
    "category": "Bar & Restaurant",
    "types": "bar, restaurant, food, point_of_interest, establishment"
  },
  {
    "place_id": "ChIJV2z_IYDNyIAR_db_8MrO6qU",
    "name": "Red Barrel Neighborhood Tavern",
    "street_address": "11261 South Eastern Avenue",
    "city": "Henderson",
    "state": "NV",
    "zip_code": "89052",
    "latitude": 35.98713059999999,
    "longitude": -115.1013547,
    "website": "http://www.redbarrellv.com/",
    "category": "Bar & Restaurant",
    "types": "restaurant, bar, food, point_of_interest, establishment"
  },
  {
    "place_id": "ChIJcWui0P3NyIARNc6uIn19DPI",
    "name": "Village Pub",
    "street_address": "10900 South Eastern Avenue",
    "city": "Henderson",
    "state": "NV",
    "zip_code": "89052",
    "latitude": 35.9947241,
    "longitude": -115.1004386,
    "website": "http://www.villagepubvegas.com/",
    "category": "Bar & Restaurant",
    "types": "bar, restaurant, food, point_of_interest, establishment"
  },
  {
    "place_id": "ChIJaQTTPnLOyIAR9jg7b5OQays",
    "name": "Kopper Keg St. Rose",
    "street_address": "3051 Saint Rose Parkway",
    "city": "Henderson",
    "state": "NV",
    "zip_code": "89052",
    "latitude": 36.0003981,
    "longitude": -115.1225886,
    "website": "https://www.kopperkeglv.com/?utm_source=local&utm_medium=organic&utm_campaign=gmb",
    "category": "Bar & Restaurant",
    "types": "bar, restaurant, food, point_of_interest, establishment"
  },
  {
    "place_id": "ChIJ67rBNTWQ44kRa3S5s8BmxGE",
    "name": "Remedy's Tavern",
    "street_address": "3265 Saint Rose Parkway",
    "city": "Henderson",
    "state": "NV",
    "zip_code": "89052",
    "latitude": 35.99780140000001,
    "longitude": -115.1263336,
    "website": "https://www.distillbar.com/",
    "category": "Bar & Restaurant",
    "types": "bar, restaurant, point_of_interest, food, establishment"
  },
  {
    "place_id": "ChIJx1FhoA_OyIARD3dLrk_TLoQ",
    "name": "The Beach House Las Vegas",
    "street_address": "790 Coronado Center Drive",
    "city": "Henderson",
    "state": "NV",
    "zip_code": "89052",
    "latitude": 36.0029112,
    "longitude": -115.1076137,
    "website": "http://beachhousevegas.com/",
    "category": "Bar & Restaurant",
    "types": "bar, restaurant, food, point_of_interest, establishment"
  },
  {
    "place_id": "ChIJCWrCfxHOyIAROk1AGju9ri8",
    "name": "Born and Raised\u00ae Henderson",
    "street_address": "10050 South Eastern Avenue",
    "city": "Henderson",
    "state": "NV",
    "zip_code": "89052",
    "latitude": 36.0064497,
    "longitude": -115.1115197,
    "website": "http://www.bornandraisedlv.com/?utm_source=google-gmb-maps&utm_medium=gmb-website-button&utm_campaign=locl.io&utm_content=29991985-0911-4884-aa8f-aeb206806853",
    "category": "Bar & Restaurant",
    "types": "bar, restaurant, food, point_of_interest, establishment"
  },
  {
    "place_id": "ChIJMVP77HzOyIARy8O0fwSt-So",
    "name": "Lucky's",
    "street_address": "10648 South Maryland Parkway",
    "city": "Henderson",
    "state": "NV",
    "zip_code": "89052",
    "latitude": 35.996881,
    "longitude": -115.137185,
    "website": "https://www.ptstaverns.com/locations/lucky-s/lucky-s-2",
    "category": "Bar & Restaurant",
    "types": "bar, casino, restaurant, food, point_of_interest, establishment"
  },
  {
    "place_id": "ChIJl_ROU2DOyIARqkuRmSNpyg4",
    "name": "Goldfinger's Bar & Grill",
    "street_address": "1115 East Pyle Avenue",
    "city": "Las Vegas",
    "state": "NV",
    "zip_code": "89183",
    "latitude": 36.005924,
    "longitude": -115.1389547,
    "website": "http://goldfingersbarandgrill.com/",
    "category": "Bar & Restaurant",
    "types": "bar, restaurant, food, point_of_interest, establishment"
  },
  {
    "place_id": "ChIJffEwFhLOyIARj3j1yI-4TzM",
    "name": "PT's Gold",
    "street_address": "10075 South Eastern Avenue",
    "city": "Henderson",
    "state": "NV",
    "zip_code": "89052",
    "latitude": 36.00542,
    "longitude": -115.11314,
    "website": "https://www.ptstaverns.com/locations/pts-gold/st-rose-eastern/?utm_source=gmb&utm_medium=yext",
    "category": "Bar & Restaurant",
    "types": "casino, bar, restaurant, food, point_of_interest, establishment"
  },
  {
    "place_id": "ChIJMUMfqwfOyIARDp_DjyP7TLw",
    "name": "Winchell's Pub & Grill",
    "street_address": "10620 South Eastern Avenue",
    "city": "Henderson",
    "state": "NV",
    "zip_code": "89052",
    "latitude": 35.998436,
    "longitude": -115.1033478,
    "website": "https://www.winchellspub.com/",
    "category": "Bar & Restaurant",
    "types": "casino, bar, restaurant, food, point_of_interest, establishment"
  },
  {
    "place_id": "ChIJ2X5JSGPOyIARvijLU8BSDvI",
    "name": "Fireside Restaurant & Tavern",
    "street_address": "1785 East Cactus Avenue",
    "city": "Las Vegas",
    "state": "NV",
    "zip_code": "89183",
    "latitude": 35.9994789,
    "longitude": -115.1279893,
    "website": "http://www.orbtaverns.com/",
    "category": "Bar & Restaurant",
    "types": "bar, restaurant, food, point_of_interest, establishment"
  },
  {
    "place_id": "ChIJXbkiYPzNyIAR49HTauTmY9o",
    "name": "Black Mountain Grill",
    "street_address": "11021 South Eastern Avenue",
    "city": "Henderson",
    "state": "NV",
    "zip_code": "89052",
    "latitude": 35.9921089,
    "longitude": -115.102896,
    "website": "http://www.blackmountaingrill.com/",
    "category": "Bar & Restaurant",
    "types": "night_club, bar, restaurant, point_of_interest, food, establishment"
  },
  {
    "place_id": "ChIJYz5wqazNyIAR-qHRUYWfysc",
    "name": "Rounders Volunteer",
    "street_address": "3480 Volunteer Boulevard",
    "city": "Henderson",
    "state": "NV",
    "zip_code": "89044",
    "latitude": 35.96060560000001,
    "longitude": -115.141206,
    "website": "https://www.rounderslv.com/",
    "category": "Bar & Restaurant",
    "types": "bar, restaurant, food, point_of_interest, establishment"
  },
  {
    "place_id": "ChIJdbalLwTOyIARh-_Cp40eHhg",
    "name": "Giuseppe's Bar & Grille Henderson",
    "street_address": "2630 West Horizon Ridge Parkway",
    "city": "Henderson",
    "state": "NV",
    "zip_code": "89052",
    "latitude": 36.0017503,
    "longitude": -115.1023346,
    "website": "https://www.giuseppeslv.com/",
    "category": "Bar & Restaurant",
    "types": "bar, restaurant, food, point_of_interest, establishment"
  },
  {
    "place_id": "ChIJd_-B4Q7OyIARLP_gePFekZw",
    "name": "Applebee's Grill + Bar",
    "street_address": "10305 South Eastern Avenue",
    "city": "Henderson",
    "state": "NV",
    "zip_code": "89052",
    "latitude": 36.0019605,
    "longitude": -115.1088848,
    "website": "https://restaurants.applebees.com/en-us/nv/henderson/10305-s.-eastern-ave.-82074?utm_source=google&utm_medium=organic&utm_campaign=google_my_business&utm_term=82074&utm_content=website",
    "category": "Bar & Restaurant",
    "types": "restaurant, bar, food, point_of_interest, establishment"
  },
  {
    "place_id": "ChIJcQd0qRLNyIARFLoSOFUDWQM",
    "name": "Rounders Bicentennial",
    "street_address": "2940 Bicentennial Parkway",
    "city": "Henderson",
    "state": "NV",
    "zip_code": "89052",
    "latitude": 35.9413923,
    "longitude": -115.1182075,
    "website": "http://www.rounderslv.com/",
    "category": "Bar & Restaurant",
    "types": "bar, restaurant, food, point_of_interest, establishment"
  },
  {
    "place_id": "ChIJYeSS0_nRyIARryiudzzfW2w",
    "name": "PT's Gold",
    "street_address": "690 South Green Valley Parkway",
    "city": "Henderson",
    "state": "NV",
    "zip_code": "89052",
    "latitude": 36.0035022,
    "longitude": -115.0827497,
    "website": "https://www.ptstaverns.com/locations/pts-gold/571-green-valley-horizon-ridge/?utm_source=gmb&utm_medium=yext",
    "category": "Bar & Restaurant",
    "types": "casino, bar, restaurant, food, point_of_interest, establishment"
  },
  {
    "place_id": "ChIJ0V9fxnLNyIAROYlUfvHSmVE",
    "name": "PT's Gold",
    "street_address": "2890 Bicentennial Parkway",
    "city": "Henderson",
    "state": "NV",
    "zip_code": "89044",
    "latitude": 35.94329920000001,
    "longitude": -115.1172346,
    "website": "https://www.ptstaverns.com/locations/pts-gold/anthem-bicentennial-pkwy/?utm_source=gmb&utm_medium=yext",
    "category": "Bar & Restaurant",
    "types": "casino, bar, restaurant, food, point_of_interest, establishment"
  },
  {
    "place_id": "ChIJvbOIaQ7OyIARL-LO9f4VRZU",
    "name": "Buffalo Wild Wings",
    "street_address": "10271 South Eastern Avenue",
    "city": "Henderson",
    "state": "NV",
    "zip_code": "89052",
    "latitude": 36.003204,
    "longitude": -115.1111064,
    "website": "https://www.buffalowildwings.com/locations/us/nv/henderson/10271-s-eastern-ave/sports-bar-151?utm_source=google%20my%20business&utm_medium=organic&utm_campaign=website%20link",
    "category": "Bar & Restaurant",
    "types": "meal_takeaway, bar, restaurant, point_of_interest, food, establishment"
  },
  {
    "place_id": "ChIJwcF_ZGfPyIARIMdI-AvJXJA",
    "name": "Winchell's Pub & Grill",
    "street_address": "199 East Warm Springs Road",
    "city": "Las Vegas",
    "state": "NV",
    "zip_code": "89119",
    "latitude": 36.0566749,
    "longitude": -115.1636963,
    "website": "https://www.winchellspub.com/",
    "category": "Bar & Restaurant",
    "types": "bar, restaurant, food, point_of_interest, establishment"
  },
  {
    "place_id": "ChIJRahXy2XPyIARLZqPRrpHxkc",
    "name": "PT's Pub",
    "street_address": "310 East Warm Springs Road",
    "city": "Las Vegas",
    "state": "NV",
    "zip_code": "89119",
    "latitude": 36.0577476,
    "longitude": -115.158586,
    "website": "https://www.ptstaverns.com/locations/pts-pub/warm-springs-placid/?utm_source=gmb&utm_medium=yext",
    "category": "Bar & Restaurant",
    "types": "casino, bar, restaurant, food, point_of_interest, establishment"
  },
  {
    "place_id": "ChIJW8L7KVnPyIAR55L43oDCHFc",
    "name": "17\u00b0 South Booze & Bites",
    "street_address": "7200 South Las Vegas Boulevard",
    "city": "Las Vegas",
    "state": "NV",
    "zip_code": "89119",
    "latitude": 36.0596893,
    "longitude": -115.1715273,
    "website": "https://www.tahitivillage.com/eat-drink/17-south/",
    "category": "Bar & Restaurant",
    "types": "bar, restaurant, food, point_of_interest, establishment"
  },
  {
    "place_id": "ChIJpaPNPnTHyIARA5nwoX7yTKc",
    "name": "Great American Pub",
    "street_address": "6945 South Buffalo Drive",
    "city": "Las Vegas",
    "state": "NV",
    "zip_code": "89113",
    "latitude": 36.062038,
    "longitude": -115.261326,
    "website": "https://www.ptstaverns.com/locations/great-american-pub/great-american-pub-2",
    "category": "Bar & Restaurant",
    "types": "bar, restaurant, food, point_of_interest, establishment"
  },
  {
    "place_id": "ChIJR-q3okrByIAR8YUSraSTcdQ",
    "name": "PT's Gold",
    "street_address": "8416 West Desert Inn Road",
    "city": "Las Vegas",
    "state": "NV",
    "zip_code": "89117",
    "latitude": 36.1303156,
    "longitude": -115.2745172,
    "website": "https://www.ptstaverns.com/",
    "category": "Bar & Restaurant",
    "types": "bar, restaurant, food, point_of_interest, establishment"
  },
  {
    "place_id": "ChIJHUYHpEy_yIARce8tzpjWGyE",
    "name": "SG Bar",
    "street_address": "9580 West Flamingo Road",
    "city": "Las Vegas",
    "state": "NV",
    "zip_code": "89147",
    "latitude": 36.11559020000001,
    "longitude": -115.3012263,
    "website": "https://www.ptstaverns.com/locations/sg-bar/215-flamingo/?utm_source=gmb&utm_medium=yext",
    "category": "Bar & Restaurant",
    "types": "casino, bar, restaurant, food, point_of_interest, establishment"
  },
  {
    "place_id": "ChIJIxQ1rOrHyIAR0tAca_ZfYO8",
    "name": "PT's Gold",
    "street_address": "6570 South Buffalo Drive",
    "city": "Las Vegas",
    "state": "NV",
    "zip_code": "89113",
    "latitude": 36.0687921,
    "longitude": -115.2601824,
    "website": "https://www.ptstaverns.com/locations/pts-gold/215-s-buffalo/?utm_source=gmb&utm_medium=yext",
    "category": "Bar & Restaurant",
    "types": "casino, bar, restaurant, food, point_of_interest, establishment"
  },
  {
    "place_id": "ChIJg19p54XHyIARNNQSeFxTNx0",
    "name": "Scoundrels Tavern",
    "street_address": "6945 South Rainbow Boulevard",
    "city": "Las Vegas",
    "state": "NV",
    "zip_code": "89118",
    "latitude": 36.06249390000001,
    "longitude": -115.2433413,
    "website": "https://scoundrelslv.com/",
    "category": "Bar & Restaurant",
    "types": "bar, restaurant, food, point_of_interest, establishment"
  },
  {
    "place_id": "ChIJRYJy_DfGyIAR6Zi1sTYDX1w",
    "name": "Sierra Gold",
    "street_address": "6515 South Jones Boulevard",
    "city": "Las Vegas",
    "state": "NV",
    "zip_code": "89118",
    "latitude": 36.0702792,
    "longitude": -115.2249484,
    "website": "https://www.ptstaverns.com/locations/sierra-gold/215-south-jones/?utm_source=gmb&utm_medium=yext",
    "category": "Bar & Restaurant",
    "types": "casino, bar, restaurant, food, point_of_interest, establishment"
  },
  {
    "place_id": "ChIJG7YnME7HyIARA8Cqq-ft4SA",
    "name": "Sean Patrick's",
    "street_address": "8255 West Flamingo Road",
    "city": "Las Vegas",
    "state": "NV",
    "zip_code": "89147",
    "latitude": 36.1142663,
    "longitude": -115.2712102,
    "website": "https://www.ptstaverns.com/locations/sean-patricks/flamingo-cimarron/?utm_source=gmb&utm_medium=yext",
    "category": "Bar & Restaurant",
    "types": "casino, bar, restaurant, food, point_of_interest, establishment"
  },
  {
    "place_id": "ChIJUfoSLRnHyIART7hhw3MkYD8",
    "name": "Taps & Barrels Beerhouse",
    "street_address": "6111 South Buffalo Drive",
    "city": "Las Vegas",
    "state": "NV",
    "zip_code": "89113",
    "latitude": 36.0771259,
    "longitude": -115.2613114,
    "website": "http://tapsbarrelslv.com/",
    "category": "Bar & Restaurant",
    "types": "bar, restaurant, food, point_of_interest, establishment"
  },
  {
    "place_id": "ChIJE-qUdK24yIARh6zeKheLTXg",
    "name": "Brooksy's",
    "street_address": "9295 West Flamingo Road",
    "city": "Las Vegas",
    "state": "NV",
    "zip_code": "89147",
    "latitude": 36.1143474,
    "longitude": -115.2945235,
    "website": "http://www.brooksys.net/",
    "category": "Bar & Restaurant",
    "types": "bar, restaurant, food, point_of_interest, establishment"
  },
  {
    "place_id": "ChIJK-4_sUDHyIARNrHmdHGw3i8",
    "name": "Rounders South Buffalo",
    "street_address": "4455 South Buffalo Drive",
    "city": "Las Vegas",
    "state": "NV",
    "zip_code": "89147",
    "latitude": 36.107995,
    "longitude": -115.261608,
    "website": "https://www.rounderslv.com/",
    "category": "Bar & Restaurant",
    "types": "bar, restaurant, food, point_of_interest, establishment"
  },
  {
    "place_id": "ChIJ64bVXxvHyIARyiu1gY8ft00",
    "name": "595 Craft And Kitchen",
    "street_address": "4950 South Rainbow Boulevard",
    "city": "Las Vegas",
    "state": "NV",
    "zip_code": "89118",
    "latitude": 36.0987547,
    "longitude": -115.2424371,
    "website": "http://595craftandkitchen.com/",
    "category": "Bar & Restaurant",
    "types": "bar, liquor_store, store, restaurant, food, point_of_interest, establishment"
  },
  {
    "place_id": "ChIJ0wxbz-bAyIAReC0MXK_zy64",
    "name": "Mr D's Sports Bar and Grill",
    "street_address": "1810 South Rainbow Boulevard",
    "city": "Las Vegas",
    "state": "NV",
    "zip_code": "89146",
    "latitude": 36.151352,
    "longitude": -115.242615,
    "website": "http://mrdssportsbar.com/",
    "category": "Bar & Restaurant",
    "types": "bar, restaurant, food, point_of_interest, establishment"
  },
  {
    "place_id": "ChIJc8Tq35XByIARIil8egbZEYo",
    "name": "Bourbon Street Sports Bar",
    "street_address": "7777 West Sahara Avenue",
    "city": "Las Vegas",
    "state": "NV",
    "zip_code": "89117",
    "latitude": 36.1433191,
    "longitude": -115.2600969,
    "website": "http://bourbon-bar-lv.edan.io/",
    "category": "Bar & Restaurant",
    "types": "bar, restaurant, food, point_of_interest, establishment"
  },
  {
    "place_id": "ChIJcz15n2HGyIARFDDLgfOPB2k",
    "name": "PT's Pub",
    "street_address": "5355 South Decatur Boulevard",
    "city": "Las Vegas",
    "state": "NV",
    "zip_code": "89118",
    "latitude": 36.0920652,
    "longitude": -115.2083387,
    "website": "https://www.ptstaverns.com/locations/pts-pub/hacienda-decatur/?utm_source=gmb&utm_medium=yext",
    "category": "Bar & Restaurant",
    "types": "casino, bar, restaurant, food, point_of_interest, establishment"
  },
  {
    "place_id": "ChIJ_-SIFpe4yIARk2XOmtbg100",
    "name": "Yorky's",
    "street_address": "5325 South Fort Apache Road",
    "city": "Las Vegas",
    "state": "NV",
    "zip_code": "89148",
    "latitude": 36.0920219,
    "longitude": -115.2983398,
    "website": "http://www.villagepubvegas.com/",
    "category": "Bar & Restaurant",
    "types": "bar, casino, restaurant, food, point_of_interest, establishment"
  },
  {
    "place_id": "ChIJrc4F2gfGyIAR9vRNkaUy8UE",
    "name": "PT's Gold",
    "street_address": "3835 West Martin Avenue",
    "city": "Las Vegas",
    "state": "NV",
    "zip_code": "89118",
    "latitude": 36.0677358,
    "longitude": -115.1911259,
    "website": "https://www.ptstaverns.com/locations/pts-gold/valley-view-sunset/?utm_source=gmb&utm_medium=yext",
    "category": "Bar & Restaurant",
    "types": "casino, bar, restaurant, food, point_of_interest, establishment"
  },
  {
    "place_id": "ChIJE7fQwYHHyIARI964-mSnpKM",
    "name": "Giuseppe's Bar & Grille Las Vegas",
    "street_address": "6065 South Durango Drive",
    "city": "Las Vegas",
    "state": "NV",
    "zip_code": "89113",
    "latitude": 36.0786377,
    "longitude": -115.2797698,
    "website": "https://www.giuseppeslv.com/",
    "category": "Bar & Restaurant",
    "types": "bar, restaurant, food, point_of_interest, establishment"
  },
  {
    "place_id": "ChIJv7kOwmS4yIARFu9iVOmjJgs",
    "name": "PT's Gold",
    "street_address": "6610 South Fort Apache Road",
    "city": "Las Vegas",
    "state": "NV",
    "zip_code": "89148",
    "latitude": 36.06806729999999,
    "longitude": -115.2974593,
    "website": "https://www.ptstaverns.com/locations/pts-gold/fort-apache-sunset/?utm_source=gmb&utm_medium=yext",
    "category": "Bar & Restaurant",
    "types": "casino, bar, restaurant, food, point_of_interest, establishment"
  },
  {
    "place_id": "ChIJj6REmjvHyIAR05aq9tW5PbU",
    "name": "Magoo\u2019s Bar and Grill",
    "street_address": "4045 South Buffalo Drive",
    "city": "Las Vegas",
    "state": "NV",
    "zip_code": "89147",
    "latitude": 36.11532019999999,
    "longitude": -115.2629465,
    "website": "http://magoo-s-bar-grill.keeq.io/",
    "category": "Bar & Restaurant",
    "types": "bar, restaurant, food, point_of_interest, establishment"
  },
  {
    "place_id": "ChIJ8QM6_73GyIARNTLbs7oCcgg",
    "name": "PT's Pub",
    "street_address": "4825 West Flamingo Road",
    "city": "Las Vegas",
    "state": "NV",
    "zip_code": "89103",
    "latitude": 36.1148603,
    "longitude": -115.2067657,
    "website": "https://www.ptstaverns.com/locations/pts-pub/flamingo-decatur/?utm_source=gmb&utm_medium=yext",
    "category": "Bar & Restaurant",
    "types": "casino, bar, restaurant, food, point_of_interest, establishment"
  },
  {
    "place_id": "ChIJKR9TC7y4yIART4GZPGJ_4AE",
    "name": "PT's Pub",
    "street_address": "9435 West Tropicana Avenue",
    "city": "Las Vegas",
    "state": "NV",
    "zip_code": "89147",
    "latitude": 36.09955590000001,
    "longitude": -115.3003463,
    "website": "https://www.ptstaverns.com/locations/pts-pub/tropicana-ft-apache/?utm_source=gmb&utm_medium=yext",
    "category": "Bar & Restaurant",
    "types": "casino, bar, restaurant, food, point_of_interest, establishment"
  },
  {
    "place_id": "ChIJW0zUmoeVyIAR9uS6QwLjH6k",
    "name": "The Standard Tavern",
    "street_address": "8675 West Rome Boulevard",
    "city": "Las Vegas",
    "state": "NV",
    "zip_code": "89149",
    "latitude": 36.2802124,
    "longitude": -115.2850341,
    "website": "https://thestandardlv.com/",
    "category": "Bar & Restaurant",
    "types": "bar, restaurant, food, point_of_interest, establishment"
  },
  {
    "place_id": "ChIJsX2hTMfryIARCI3aGN6yezU",
    "name": "PT'S Gold",
    "street_address": "7770 West Ann Road",
    "city": "Las Vegas",
    "state": "NV",
    "zip_code": "89149",
    "latitude": 36.2637018,
    "longitude": -115.265561,
    "website": "https://www.ptstaverns.com/",
    "category": "Bar & Restaurant",
    "types": "casino, bar, restaurant, food, point_of_interest, establishment"
  },
  {
    "place_id": "ChIJUdMs-UuTyIARQCSePCA5iDg",
    "name": "PT's Gold",
    "street_address": "7550 Oso Blanca Road",
    "city": "Las Vegas",
    "state": "NV",
    "zip_code": "89149",
    "latitude": 36.2968962,
    "longitude": -115.2893838,
    "website": "https://www.ptstaverns.com/locations/pts-gold/oso-blanca-north-decatur/?utm_source=gmb&utm_medium=yext",
    "category": "Bar & Restaurant",
    "types": "casino, bar, restaurant, food, point_of_interest, establishment"
  },
  {
    "place_id": "ChIJw_dlqazryIAR8J241YCqakk",
    "name": "Flowing Tide Pub 8",
    "street_address": "6420 Centennial Center Boulevard",
    "city": "Las Vegas",
    "state": "NV",
    "zip_code": "89149",
    "latitude": 36.2757931,
    "longitude": -115.2689317,
    "website": "https://flowingtidepub.com/",
    "category": "Bar & Restaurant",
    "types": "bar, restaurant, food, point_of_interest, establishment"
  },
  {
    "place_id": "ChIJRZ-eVJ7ryIARM-Q7lE3gwyk",
    "name": "PKWY Tavern Centennial",
    "street_address": "5990 Centennial Center Boulevard",
    "city": "Las Vegas",
    "state": "NV",
    "zip_code": "89149",
    "latitude": 36.2719424,
    "longitude": -115.2631531,
    "website": "https://www.pkwytavern.com/",
    "category": "Restaurant",
    "types": "restaurant, food, point_of_interest, establishment"
  },
  {
    "place_id": "ChIJK8BqAauUyIARtoWBpCOgFT4",
    "name": "Distill - A Local Bar - Centennial",
    "street_address": "6430 North Durango Drive",
    "city": "Las Vegas",
    "state": "NV",
    "zip_code": "89149",
    "latitude": 36.2777063,
    "longitude": -115.285902,
    "website": "https://www.distillbar.com/",
    "category": "Bar & Restaurant",
    "types": "bar, restaurant, food, point_of_interest, establishment"
  },
  {
    "place_id": "ChIJBS7xeGKTyIARJFTtxnJexiM",
    "name": "Skye Bar & Grill",
    "street_address": "9830 West Skye Canyon Park Drive",
    "city": "Las Vegas",
    "state": "NV",
    "zip_code": "89166",
    "latitude": 36.31515280000001,
    "longitude": -115.3101514,
    "website": "https://www.skyebarandgrill.com/",
    "category": "Bar & Restaurant",
    "types": "bar, restaurant, food, point_of_interest, establishment"
  },
  {
    "place_id": "ChIJy3lZE7rsyIARrgGL6lM_Xv0",
    "name": "Lucky's",
    "street_address": "8025 Farm Road",
    "city": "Las Vegas",
    "state": "NV",
    "zip_code": "89131",
    "latitude": 36.2982124,
    "longitude": -115.2707121,
    "website": "https://www.ptstaverns.com/locations/lucky-s/lucky-s",
    "category": "Bar & Restaurant",
    "types": "bar, restaurant, food, point_of_interest, establishment"
  },
  {
    "place_id": "ChIJcWQhX8nsyIARQAzcC6iBg_4",
    "name": "The Lodge Grand Teton",
    "street_address": "8350 Grand Teton Drive",
    "city": "Las Vegas",
    "state": "NV",
    "zip_code": "89131",
    "latitude": 36.30660200000001,
    "longitude": -115.2772369,
    "website": "https://lodgeteton.top/",
    "category": "Bar & Restaurant",
    "types": "bar, restaurant, food, point_of_interest, establishment"
  },
  {
    "place_id": "ChIJp0uF8lSTyIARK60Y7DQ2q_c",
    "name": "Kopper Keg North",
    "street_address": "8725 West Deer Springs Way",
    "city": "Las Vegas",
    "state": "NV",
    "zip_code": "89149",
    "latitude": 36.2842718,
    "longitude": -115.2858612,
    "website": "https://www.kopperkeglv.com/",
    "category": "Bar & Restaurant",
    "types": "bar, restaurant, food, point_of_interest, establishment"
  },
  {
    "place_id": "ChIJERhc5lfqyIARwtAqbbIEbB8",
    "name": "Big Dog's Brewing Company",
    "street_address": "4543 North Rancho Drive",
    "city": "Las Vegas",
    "state": "NV",
    "zip_code": "89130",
    "latitude": 36.2423352,
    "longitude": -115.235755,
    "website": "http://www.bigdogsbrews.com/",
    "category": "Bar & Restaurant",
    "types": "casino, bar, restaurant, food, point_of_interest, establishment"
  },
  {
    "place_id": "ChIJEdTfRlKTyIARdyOP7Jz72V0",
    "name": "Timbers Bar & Grill",
    "street_address": "7045 North Durango Drive",
    "city": "Las Vegas",
    "state": "NV",
    "zip_code": "89149",
    "latitude": 36.289111,
    "longitude": -115.288387,
    "website": "http://timbersgaming.com/",
    "category": "Bar & Restaurant",
    "types": "bar, restaurant, food, point_of_interest, establishment"
  },
  {
    "place_id": "ChIJF3VXjW7ryIARc7lmhdgfVow",
    "name": "Timbers Bar & Grill",
    "street_address": "7240 West Azure Drive",
    "city": "Las Vegas",
    "state": "NV",
    "zip_code": "89130",
    "latitude": 36.2744825,
    "longitude": -115.2520522,
    "website": "http://timbersgaming.com/",
    "category": "Bar & Restaurant",
    "types": "restaurant, bar, point_of_interest, food, establishment"
  },
  {
    "place_id": "ChIJW4NweT7qyIAReGVMblXDKdU",
    "name": "PT's Pub",
    "street_address": "4420 North Decatur Boulevard",
    "city": "Las Vegas",
    "state": "NV",
    "zip_code": "89130",
    "latitude": 36.239483,
    "longitude": -115.2070618,
    "website": "https://www.ptstaverns.com/locations/pts-pub/craig-decatur/?utm_source=gmb&utm_medium=yext",
    "category": "Bar & Restaurant",
    "types": "casino, bar, restaurant, food, point_of_interest, establishment"
  },
  {
    "place_id": "ChIJHwTWvF3qyIARBKqdmG6gV1E",
    "name": "Timbers Bar & Grill",
    "street_address": "4061 North Rancho Drive",
    "city": "Las Vegas",
    "state": "NV",
    "zip_code": "89130",
    "latitude": 36.2341905,
    "longitude": -115.2282148,
    "website": "http://timbersgaming.com/",
    "category": "Bar & Restaurant",
    "types": "bar, restaurant, food, point_of_interest, establishment"
  },
  {
    "place_id": "ChIJQyBS8U2TyIARwdQzCGuAh3E",
    "name": "Shucks Tavern & Oyster Bar - Durango Rd",
    "street_address": "7155 North Durango Drive",
    "city": "Las Vegas",
    "state": "NV",
    "zip_code": "89149",
    "latitude": 36.2907197,
    "longitude": -115.2882569,
    "website": "http://shuckstaverns.com/",
    "category": "Bar & Restaurant",
    "types": "bar, restaurant, food, point_of_interest, establishment"
  },
  {
    "place_id": "ChIJbSdidcjpyIARra-Nq-HW3p4",
    "name": "Scoundrels Pub II",
    "street_address": "4850 Camino Al Norte",
    "city": "North Las Vegas",
    "state": "NV",
    "zip_code": "89031",
    "latitude": 36.2476126,
    "longitude": -115.1534547,
    "website": "http://www.scoundrelspubii.com/",
    "category": "Bar & Restaurant",
    "types": "bar, restaurant, food, point_of_interest, establishment"
  },
  {
    "place_id": "ChIJ97lsf6XpyIARhMb1mbJ8rkg",
    "name": "PT's Gold",
    "street_address": "812 West Ann Road",
    "city": "North Las Vegas",
    "state": "NV",
    "zip_code": "89031",
    "latitude": 36.2622015,
    "longitude": -115.1535555,
    "website": "https://www.ptstaverns.com/locations/pts-gold/ann-camino-al-norte/?utm_source=gmb&utm_medium=yext",
    "category": "Bar & Restaurant",
    "types": "casino, bar, restaurant, food, point_of_interest, establishment"
  },
  {
    "place_id": "ChIJRSs_PV3pyIARHpvq2y_qYkE",
    "name": "Sierra Gold",
    "street_address": "6929 North Aliante Parkway",
    "city": "North Las Vegas",
    "state": "NV",
    "zip_code": "89084",
    "latitude": 36.286392,
    "longitude": -115.178506,
    "website": "https://www.ptstaverns.com/locations/sierra-gold/215-aliante/?utm_source=gmb&utm_medium=yext",
    "category": "Bar & Restaurant",
    "types": "casino, bar, restaurant, food, point_of_interest, establishment"
  },
  {
    "place_id": "ChIJ0WWHIvvoyIARi4xUZr6aMFE",
    "name": "Sean Patrick's",
    "street_address": "6788 North 5th Street",
    "city": "North Las Vegas",
    "state": "NV",
    "zip_code": "89084",
    "latitude": 36.2833316,
    "longitude": -115.1331071,
    "website": "https://www.ptstaverns.com/locations/sean-patricks/deer-springs-5th-st/?utm_source=gmb&utm_medium=yext",
    "category": "Bar & Restaurant",
    "types": "casino, bar, restaurant, food, point_of_interest, establishment"
  },
  {
    "place_id": "ChIJya6B64HpyIARt2AEnNPqLUA",
    "name": "Sean Patrick's",
    "street_address": "3290 West Ann Road",
    "city": "North Las Vegas",
    "state": "NV",
    "zip_code": "89031",
    "latitude": 36.2619084,
    "longitude": -115.1841453,
    "website": "https://www.ptstaverns.com/locations/sean-patricks/ann-simmons/?utm_source=gmb&utm_medium=yext",
    "category": "Bar & Restaurant",
    "types": "casino, bar, restaurant, food, point_of_interest, establishment"
  },
  {
    "place_id": "ChIJBZqLgYPpyIARGoBsv-_iftI",
    "name": "Winchell's Pub & Grill",
    "street_address": "5445 Simmons Street",
    "city": "North Las Vegas",
    "state": "NV",
    "zip_code": "89031",
    "latitude": 36.258757,
    "longitude": -115.180416,
    "website": "https://www.winchellspub.com/",
    "category": "Bar & Restaurant",
    "types": "bar, restaurant, food, point_of_interest, establishment"
  },
  {
    "place_id": "ChIJyS1yULfpyIARn_1GxYoKo_Y",
    "name": "Northstar Bar and Grill",
    "street_address": "5150 Camino Al Norte",
    "city": "North Las Vegas",
    "state": "NV",
    "zip_code": "89031",
    "latitude": 36.2541156,
    "longitude": -115.1526478,
    "website": "http://www.northstarbargrill.com/",
    "category": "Bar & Restaurant",
    "types": "meal_delivery, bar, meal_takeaway, restaurant, food, point_of_interest, establishment"
  },
  {
    "place_id": "ChIJK3wxK2DpyIARB8nQh7m0ZL4",
    "name": "Servehzah Bottle Shop & Tap Room",
    "street_address": "640 East Deer Springs Way",
    "city": "North Las Vegas",
    "state": "NV",
    "zip_code": "89086",
    "latitude": 36.28400070000001,
    "longitude": -115.1331487,
    "website": "https://servehzah.com/deersprings",
    "category": "Bar & Restaurant",
    "types": "bar, restaurant, food, point_of_interest, establishment"
  },
  {
    "place_id": "ChIJG73jVjLpyIARWhe14W52U-o",
    "name": "Juan's Flaming Fajitas & Cantina",
    "street_address": "2660 West Centennial Parkway",
    "city": "North Las Vegas",
    "state": "NV",
    "zip_code": "89084",
    "latitude": 36.2775766,
    "longitude": -115.1781079,
    "website": "https://juansflamingfajitas.com/",
    "category": "Restaurant",
    "types": "restaurant, food, point_of_interest, establishment"
  },
  {
    "place_id": "ChIJ4xVwnkq_yIARiOf7y0e2s1c",
    "name": "Great American Pub",
    "street_address": "4145 South Grand Canyon Drive",
    "city": "Las Vegas",
    "state": "NV",
    "zip_code": "89147",
    "latitude": 36.1146485,
    "longitude": -115.3074424,
    "website": "https://www.ptstaverns.com/locations/great-american-pub/great-american-pub",
    "category": "Bar & Restaurant",
    "types": "bar, restaurant, food, point_of_interest, establishment"
  },
  {
    "place_id": "ChIJ7ye2i0q_yIARxvaopZW5Ars",
    "name": "PKWY Tavern Flamingo",
    "street_address": "9820 West Flamingo Road",
    "city": "Las Vegas",
    "state": "NV",
    "zip_code": "89147",
    "latitude": 36.1158944,
    "longitude": -115.3061624,
    "website": "https://www.pkwytavern.com/locations/flamingo/",
    "category": "Bar & Restaurant",
    "types": "bar, restaurant, food, point_of_interest, establishment"
  },
  {
    "place_id": "ChIJm1W5pLW4yIARMIPD1dNTJ0w",
    "name": "The Bar @ Flamingo & Grand Canyon",
    "street_address": "4340 South Grand Canyon Drive",
    "city": "Las Vegas",
    "state": "NV",
    "zip_code": "89147",
    "latitude": 36.1105554,
    "longitude": -115.3057635,
    "website": "http://www.thebarlv.com/",
    "category": "Bar & Restaurant",
    "types": "bar, restaurant, food, point_of_interest, establishment"
  },
  {
    "place_id": "ChIJqa60pDC_yIARcMxo4RplXiE",
    "name": "PT's Gold",
    "street_address": "3770 South Hualapai Way",
    "city": "Las Vegas",
    "state": "NV",
    "zip_code": "89147",
    "latitude": 36.1213205,
    "longitude": -115.3143882,
    "website": "https://www.ptstaverns.com/locations/pts-gold/hualapai-twain/?utm_source=gmb&utm_medium=yext",
    "category": "Bar & Restaurant",
    "types": "casino, bar, restaurant, food, point_of_interest, establishment"
  },
  {
    "place_id": "ChIJCWyqpDjPyIARngmiZf-t5rY",
    "name": "Steiner's-A Nevada Style Pub",
    "street_address": "8168 Las Vegas Boulevard South",
    "city": "Las Vegas",
    "state": "NV",
    "zip_code": "89123",
    "latitude": 36.0408139,
    "longitude": -115.1715952,
    "website": "http://www.steinerspub.com/",
    "category": "Bar & Restaurant",
    "types": "bar, restaurant, food, point_of_interest, establishment"
  },
  {
    "place_id": "ChIJy3e1lFnPyIARp2SlBhs2ACk",
    "name": "Home Plate Grill & Bar",
    "street_address": "2460 West Warm Springs Road",
    "city": "Las Vegas",
    "state": "NV",
    "zip_code": "89119",
    "latitude": 36.0572972,
    "longitude": -115.1755744,
    "website": "https://www.homeplategrillandbar.com/",
    "category": "Bar & Restaurant",
    "types": "bar, restaurant, food, point_of_interest, establishment"
  },
  {
    "place_id": "ChIJw4BRSyjFyIARz1IWiWhcC7o",
    "name": "Ichabod's Lounge and Restaurant",
    "street_address": "3300 East Flamingo Road",
    "city": "Las Vegas",
    "state": "NV",
    "zip_code": "89121",
    "latitude": 36.1166537,
    "longitude": -115.1035524,
    "website": "https://www.ichabodslounge.net/",
    "category": "Bar & Restaurant",
    "types": "casino, night_club, bar, restaurant, food, point_of_interest, establishment"
  },
  {
    "place_id": "ChIJfU3wq-bayIARsewNMzXICeM",
    "name": "Aces & Ales",
    "street_address": "3740 South Nellis Boulevard",
    "city": "Las Vegas",
    "state": "NV",
    "zip_code": "89121",
    "latitude": 36.1214105,
    "longitude": -115.0647999,
    "website": "http://acesandales.com/",
    "category": "Bar & Restaurant",
    "types": "bar, restaurant, food, point_of_interest, establishment"
  },
  {
    "place_id": "ChIJ_-mygfDbyIAR_yyiQJZPS_M",
    "name": "Old Vegas Lounge",
    "street_address": "4130 South Sandhill Road",
    "city": "Las Vegas",
    "state": "NV",
    "zip_code": "89121",
    "latitude": 36.1149235,
    "longitude": -115.0910496,
    "website": "https://www.oldvegaslounge.com/",
    "category": "Bar & Restaurant",
    "types": "bar, restaurant, food, point_of_interest, establishment"
  },
  {
    "place_id": "ChIJy9vBRlTdyIARrXT5iuiTRaU",
    "name": "Stonehouse Bar & Grill",
    "street_address": "3889 East Craig Road",
    "city": "North Las Vegas",
    "state": "NV",
    "zip_code": "89030",
    "latitude": 36.2399608,
    "longitude": -115.0900317,
    "website": null,
    "category": "Bar & Restaurant",
    "types": "bar, restaurant, food, point_of_interest, establishment"
  },
  {
    "place_id": "ChIJjQxwguLpyIARSB6ouSY8juQ",
    "name": "Foothills Tavern",
    "street_address": "2343 West Gowan Road",
    "city": "North Las Vegas",
    "state": "NV",
    "zip_code": "89032",
    "latitude": 36.22444909999999,
    "longitude": -115.1742401,
    "website": "https://www.foothillstavern.net/",
    "category": "Bar & Restaurant",
    "types": "bar, restaurant, food, point_of_interest, establishment"
  },
  {
    "place_id": "ChIJzW7LCZHcyIARme1hp5svahw",
    "name": "Buck's Tavern",
    "street_address": "1204 North Nellis Boulevard",
    "city": "Las Vegas",
    "state": "NV",
    "zip_code": "89110",
    "latitude": 36.18177489999999,
    "longitude": -115.0618761,
    "website": "http://www.buckstavernlasvegas.com/",
    "category": "Bar & Restaurant",
    "types": "night_club, bar, restaurant, food, point_of_interest, establishment"
  },
  {
    "place_id": "ChIJa9gLk3_DyIARYJIMKWKIpS4",
    "name": "Letty's de Leticia's Cocina",
    "street_address": "807 South Main Street",
    "city": "Las Vegas",
    "state": "NV",
    "zip_code": "89101",
    "latitude": 36.1627495,
    "longitude": -115.1512894,
    "website": "https://www.fooddiscoveryapp.com/las-vegas/lettys-de-leticias-cocina",
    "category": "Restaurant",
    "types": "restaurant, food, point_of_interest, establishment"
  },
  {
    "place_id": "ChIJm_Gas0vJyIARDBxilGqsu-w",
    "name": "Village Pub Mountains Edge",
    "street_address": "10150 South Rainbow Boulevard",
    "city": "Las Vegas",
    "state": "NV",
    "zip_code": "89178",
    "latitude": 36.005081,
    "longitude": -115.2431475,
    "website": "http://www.villagepubvegas.com/",
    "category": "Restaurant",
    "types": "restaurant, food, point_of_interest, establishment"
  },
  {
    "place_id": "ChIJiy0vytbHyIARDhuVvNyF0CI",
    "name": "Village Pub & Poker",
    "street_address": "7575 South Rainbow Boulevard",
    "city": "Las Vegas",
    "state": "NV",
    "zip_code": "89139",
    "latitude": 36.05104279999999,
    "longitude": -115.2440738,
    "website": "https://www.villagepubvegas.com/",
    "category": "Bar & Restaurant",
    "types": "casino, bar, restaurant, food, point_of_interest, establishment"
  },
  {
    "place_id": "ChIJJT2QeSTJyIAR5fQIfW_g-sE",
    "name": "Distill - A Local Bar - Southern Highlands",
    "street_address": "4830 West Pyle Avenue",
    "city": "Las Vegas",
    "state": "NV",
    "zip_code": "89141",
    "latitude": 36.00654600000001,
    "longitude": -115.2064544,
    "website": "https://www.distillbar.com/",
    "category": "Bar & Restaurant",
    "types": "bar, restaurant, food, point_of_interest, establishment"
  },
  {
    "place_id": "ChIJaWdHTS_GyIAR6dNe-qTUVSo",
    "name": "Lucky's",
    "street_address": "7345 South Jones Boulevard",
    "city": "Las Vegas",
    "state": "NV",
    "zip_code": "89139",
    "latitude": 36.05556370000001,
    "longitude": -115.2253438,
    "website": "https://www.ptstaverns.com/locations/lucky-s/lucky-s-1",
    "category": "Bar & Restaurant",
    "types": "bar, casino, restaurant, food, point_of_interest, establishment"
  },
  {
    "place_id": "ChIJKZL9Td_IyIARsPxWgYQ_yzE",
    "name": "PT's Gold",
    "street_address": "4880 West Silverado Ranch Boulevard",
    "city": "Las Vegas",
    "state": "NV",
    "zip_code": "89139",
    "latitude": 36.0142603,
    "longitude": -115.2071288,
    "website": "https://www.ptstaverns.com/locations/pts-gold/silverado-ranch-decatur/?utm_source=gmb&utm_medium=yext",
    "category": "Bar & Restaurant",
    "types": "casino, bar, restaurant, food, point_of_interest, establishment"
  },
  {
    "place_id": "ChIJuTH1-z3IyIARAxQ_7U-nRyA",
    "name": "Rounders Blue Diamond",
    "street_address": "8030 Blue Diamond Road",
    "city": "Las Vegas",
    "state": "NV",
    "zip_code": "89178",
    "latitude": 36.0206629,
    "longitude": -115.2660444,
    "website": "http://www.rounderslv.com/",
    "category": "Bar & Restaurant",
    "types": "bar, restaurant, food, point_of_interest, establishment"
  },
  {
    "place_id": "ChIJW82BG9HHyIARA6kzD2IstZU",
    "name": "Distill - A Local Bar",
    "street_address": "7150 South Durango Drive",
    "city": "Las Vegas",
    "state": "NV",
    "zip_code": "89113",
    "latitude": 36.0583534,
    "longitude": -115.2784576,
    "website": "http://www.distillbar.com/",
    "category": "Bar & Restaurant",
    "types": "bar, restaurant, food, point_of_interest, establishment"
  },
  {
    "place_id": "ChIJ7RKpS-jHyIARKNH-Dh9XVzk",
    "name": "PT's Gold",
    "street_address": "7355 South Buffalo Drive",
    "city": "Las Vegas",
    "state": "NV",
    "zip_code": "89113",
    "latitude": 36.0546542,
    "longitude": -115.2621343,
    "website": "https://www.ptstaverns.com/locations/pts-gold/buffalo-warm-springs/?utm_source=gmb&utm_medium=yext",
    "category": "Bar & Restaurant",
    "types": "casino, bar, restaurant, food, point_of_interest, establishment"
  },
  {
    "place_id": "ChIJmRfcgu7HyIARPKLR2O4OOUg",
    "name": "Born And Raised\u00ae Las Vegas",
    "street_address": "7260 South Cimarron Road",
    "city": "Las Vegas",
    "state": "NV",
    "zip_code": "89113",
    "latitude": 36.0563306,
    "longitude": -115.2695545,
    "website": "http://www.bornandraisedlv.com/?utm_source=google-gmb-maps&utm_medium=gmb-website-button&utm_campaign=locl.io&utm_content=22695c1b-ba62-43a1-9378-71109ea59746",
    "category": "Bar & Restaurant",
    "types": "bar, restaurant, point_of_interest, food, establishment"
  },
  {
    "place_id": "ChIJxeRvDlDHyIARcce36yjAcpo",
    "name": "BJ's Restaurant & Brewhouse",
    "street_address": "7190 South Rainbow Boulevard",
    "city": "Las Vegas",
    "state": "NV",
    "zip_code": "89118",
    "latitude": 36.05782279999999,
    "longitude": -115.2424849,
    "website": "https://www.bjsrestaurants.com/locations/nv/las-vegas",
    "category": "Restaurant",
    "types": "restaurant, point_of_interest, food, establishment"
  },
  {
    "place_id": "ChIJN3Mvuy7JyIARRWVwJ_uWV7M",
    "name": "PT's Gold",
    "street_address": "9363 South Buffalo Drive",
    "city": "Las Vegas",
    "state": "NV",
    "zip_code": "89178",
    "latitude": 36.01828,
    "longitude": -115.2623138,
    "website": "https://www.ptstaverns.com/locations/pts-gold/574-buffalo-and-blue-diamond/?utm_source=gmb&utm_medium=yext",
    "category": "Bar & Restaurant",
    "types": "casino, bar, restaurant, food, point_of_interest, establishment"
  },
  {
    "place_id": "ChIJq1qNdTMryYARLZSHA5mVyUw",
    "name": "Maxx's Food & Drink",
    "street_address": "708 Nevada Way",
    "city": "Boulder City",
    "state": "NV",
    "zip_code": "89005",
    "latitude": 35.97465129999999,
    "longitude": -114.8407821,
    "website": "http://maxxsattheoasis.com/",
    "category": "Bar & Restaurant",
    "types": "bar, restaurant, food, point_of_interest, establishment"
  },
  {
    "place_id": "ChIJ2-iN1DUryYARs-slHITY-z8",
    "name": "The Dillinger",
    "street_address": "1224 Arizona Street",
    "city": "Boulder City",
    "state": "NV",
    "zip_code": "89005",
    "latitude": 35.9783633,
    "longitude": -114.8358145,
    "website": "https://www.thedillinger.com/",
    "category": "Bar & Restaurant",
    "types": "restaurant, bar, food, point_of_interest, establishment"
  },
  {
    "place_id": "ChIJUxCVdRIryYARdhuMSIOmox8",
    "name": "Beer Zombies Boulder City",
    "street_address": "567 Nevada Way",
    "city": "Boulder City",
    "state": "NV",
    "zip_code": "89005",
    "latitude": 35.97690559999999,
    "longitude": -114.8381039,
    "website": "http://www.thebeerzombies.com/",
    "category": "Bar & Restaurant",
    "types": "bar, restaurant, food, point_of_interest, establishment"
  },
  {
    "place_id": "ChIJ4QodnTYryYAR_g4GkJwL5Qg",
    "name": "Boulder Dam Brewing Co.",
    "street_address": "453 Nevada Way",
    "city": "Boulder City",
    "state": "NV",
    "zip_code": "89005",
    "latitude": 35.9784891,
    "longitude": -114.8368469,
    "website": "http://boulderdambrewing.com/?y_source=1_MjMzODgzNzktNzE1LWxvY2F0aW9uLndlYnNpdGU%3D",
    "category": "Bar & Restaurant",
    "types": "restaurant, bar, food, point_of_interest, establishment"
  },
  {
    "place_id": "ChIJif2XPDcryYARy-KptXq2G-8",
    "name": "Hangar 502",
    "street_address": "502 Nevada Way",
    "city": "Boulder City",
    "state": "NV",
    "zip_code": "89005",
    "latitude": 35.9778935,
    "longitude": -114.8378547,
    "website": "https://hangar502.com/",
    "category": "Restaurant",
    "types": "restaurant, food, point_of_interest, establishment"
  },
  {
    "place_id": "ChIJk-E6qinVzoAR8zxdGqoRC3M",
    "name": "Boulder Creek Grill",
    "street_address": "1501 Veterans Memorial Drive",
    "city": "Boulder City",
    "state": "NV",
    "zip_code": "89005",
    "latitude": 35.9605097,
    "longitude": -114.8579853,
    "website": "https://www.bouldercreekgc.com/boulder-creek-grill-menu/",
    "category": "Bar & Restaurant",
    "types": "bar, restaurant, food, point_of_interest, establishment"
  },
  {
    "place_id": "ChIJpd04jeIryYARqADQGNarw70",
    "name": "Big T's Cantina",
    "street_address": "550 Nevada Way",
    "city": "Boulder City",
    "state": "NV",
    "zip_code": "89005",
    "latitude": 35.9772471,
    "longitude": -114.8383364,
    "website": "https://www.facebook.com/bigtscantina",
    "category": "Bar & Restaurant",
    "types": "bar, restaurant, food, point_of_interest, establishment"
  },
  {
    "place_id": "ChIJn2jmQy0ryYAREuD-1PxjM60",
    "name": "Pit Stop",
    "street_address": "802 Buchanan Boulevard",
    "city": "Boulder City",
    "state": "NV",
    "zip_code": "89005",
    "latitude": 35.97262799999999,
    "longitude": -114.845549,
    "website": "http://www.boulderpitstop.com/",
    "category": "Restaurant",
    "types": "restaurant, food, point_of_interest, establishment"
  },
  {
    "place_id": "ChIJnZLGIAAryYAR83TyzTEhS58",
    "name": "Boulder City Restaurant 1933",
    "street_address": "1305 Arizona Street",
    "city": "Boulder City",
    "state": "NV",
    "zip_code": "89005",
    "latitude": 35.9779581,
    "longitude": -114.8365158,
    "website": "http://restaurant1933.com/",
    "category": "Restaurant",
    "types": "restaurant, food, point_of_interest, establishment"
  },
  {
    "place_id": "ChIJNQRjOdUqyYARx-pBC0Vq0KQ",
    "name": "The Patio at Chilly Jilly'z",
    "street_address": "1672 Boulder City Parkway",
    "city": "Boulder City",
    "state": "NV",
    "zip_code": "89005",
    "latitude": 35.9692841,
    "longitude": -114.8585733,
    "website": "https://thepatioatchillyjillyz.com/",
    "category": "Restaurant",
    "types": "restaurant, food, point_of_interest, establishment"
  },
  {
    "place_id": "ChIJyfpqrWwryYARPKfToJ0Azfc",
    "name": "Cornish Pasty Co",
    "street_address": "1300 Arizona Street",
    "city": "Boulder City",
    "state": "NV",
    "zip_code": "89005",
    "latitude": 35.97830909999999,
    "longitude": -114.8365101,
    "website": "http://www.cornishpastyco.com/",
    "category": "Bar & Restaurant",
    "types": "bar, restaurant, food, point_of_interest, establishment"
  },
  {
    "place_id": "ChIJv_R3bTMryYAR7MdP40qkFvY",
    "name": "Southwest Diner",
    "street_address": "761 Nevada Way",
    "city": "Boulder City",
    "state": "NV",
    "zip_code": "89005",
    "latitude": 35.9744719,
    "longitude": -114.8403159,
    "website": "http://www.southwestdinerbouldercity.com/",
    "category": "Restaurant",
    "types": "restaurant, food, point_of_interest, establishment"
  },
  {
    "place_id": "ChIJycMETy0ryYARnK7ujXKVpsg",
    "name": "Fox Smokehouse BBQ",
    "street_address": "930 Nevada Way",
    "city": "Boulder City",
    "state": "NV",
    "zip_code": "89005",
    "latitude": 35.97454570000001,
    "longitude": -114.8433642,
    "website": "http://www.foxsmokehousebbq.com/",
    "category": "Restaurant",
    "types": "restaurant, food, point_of_interest, establishment"
  }
]