[
  {
    "place_id": "ChIJOYrwQGZA6IkRSQyNOQBup7Q",
    "name": "Billie's 1890 Saloon",
    "street_address": "304 Main Street",
    "city": "Port Jefferson",
    "state": "NY",
    "zip_code": "11777",
    "latitude": 40.9450332,
    "longitude": -73.0680829,
    "website": "http://www.billies1890.com/",
    "category": "Bar & Restaurant",
    "types": "bar, restaurant, food, point_of_interest, establishment"
  },
  {
    "place_id": "ChIJf_zqSYFB6IkRBZHwVOxID2U",
    "name": "The Whiskey Barrel",
    "street_address": "138 Main Street",
    "city": "Port Jefferson",
    "state": "NY",
    "zip_code": "11777",
    "latitude": 40.9454981,
    "longitude": -73.068578,
    "website": "http://www.thewhiskeybarrelpj.com/",
    "category": "Restaurant",
    "types": "restaurant, point_of_interest, food, establishment"
  },
  {
    "place_id": "ChIJ06UQZRJB6IkRL2gzRfE5u4g",
    "name": "Port Bistro and Pub",
    "street_address": "201 Main Street",
    "city": "Port Jefferson",
    "state": "NY",
    "zip_code": "11777",
    "latitude": 40.94585439999999,
    "longitude": -73.06830430000001,
    "website": "http://portbistroandpub.com/",
    "category": "Bar & Restaurant",
    "types": "bar, restaurant, food, point_of_interest, establishment"
  },
  {
    "place_id": "ChIJhb8PpSY_6IkRgnooeVAnQ3w",
    "name": "The Bench",
    "street_address": "1095 New York 25A",
    "city": "Stony Brook",
    "state": "NY",
    "zip_code": "11790",
    "latitude": 40.9203017,
    "longitude": -73.129227,
    "website": "http://www.thebenchbar.com/",
    "category": "Bar & Restaurant",
    "types": "restaurant, bar, food, point_of_interest, establishment"
  },
  {
    "place_id": "ChIJ38OKrVlA6IkRBkg60bYokBI",
    "name": "Grumpy Jack's",
    "street_address": "28 Oakland Avenue",
    "city": "Port Jefferson",
    "state": "NY",
    "zip_code": "11777",
    "latitude": 40.9370985,
    "longitude": -73.0542392,
    "website": "https://www.grumpyjacksportjeff.com/",
    "category": "Bar & Restaurant",
    "types": "restaurant, food, bar, point_of_interest, establishment"
  },
  {
    "place_id": "ChIJR2_mCp0_6IkRElzxL4nX84g",
    "name": "Country Corner",
    "street_address": "270 Main Street",
    "city": "Setauket- East Setauket",
    "state": "NY",
    "zip_code": "11733",
    "latitude": 40.9430556,
    "longitude": -73.1022222,
    "website": "http://www.countrycornerli.com/",
    "category": "Bar & Restaurant",
    "types": "restaurant, bar, food, point_of_interest, establishment"
  },
  {
    "place_id": "ChIJHcFWLWZA6IkRLmzJ40fRscw",
    "name": "Portside Bar & Grill",
    "street_address": "242 Traders Cove",
    "city": "Port Jefferson",
    "state": "NY",
    "zip_code": "11777",
    "latitude": 40.94548109999999,
    "longitude": -73.067663,
    "website": "https://instagram.com/portsideportjeff?igshid=NTc4MTIwNjQ2YQ==",
    "category": "Bar & Restaurant",
    "types": "bar, restaurant, food, point_of_interest, establishment"
  },
  {
    "place_id": "ChIJ4yAQd8I_6IkRiAY9sLYYkMY",
    "name": "Schnitzels",
    "street_address": "77 Main Street",
    "city": "Stony Brook",
    "state": "NY",
    "zip_code": "11790",
    "latitude": 40.916231,
    "longitude": -73.1462779,
    "website": "http://eat-schnitzels.com/",
    "category": "Restaurant",
    "types": "restaurant, food, point_of_interest, establishment"
  },
  {
    "place_id": "ChIJeVGFjARB6IkRwGNdIurVm9Q",
    "name": "Alice's Eat Drink & Repeat",
    "street_address": "1037 New York 112",
    "city": "Port Jefferson Station",
    "state": "NY",
    "zip_code": "11776",
    "latitude": 40.9234996,
    "longitude": -73.0445802,
    "website": "http://alicesportsbar.com/",
    "category": "Bar & Restaurant",
    "types": "bar, restaurant, point_of_interest, food, establishment"
  },
  {
    "place_id": "ChIJmwlAi1hA6IkRSs97qV15_RQ",
    "name": "Tara Inn",
    "street_address": "1519 Main Street",
    "city": "Port Jefferson",
    "state": "NY",
    "zip_code": "11777",
    "latitude": 40.9357163,
    "longitude": -73.0555124,
    "website": "https://www.facebook.com/tara.inn.7/?paipv=0&eav=AfZbESRTdHR49PovPNQTQNlQ8GQbml9H4dTkLg6DN-ffCj4XLRtnbLRUZWxfr8DFDLc&_rdr",
    "category": "Bar & Restaurant",
    "types": "bar, restaurant, point_of_interest, food, establishment"
  },
  {
    "place_id": "ChIJmzzPysVB6IkRtaHs0NusloQ",
    "name": "Prohibition Port Jefferson",
    "street_address": "115 Main Street",
    "city": "Port Jefferson",
    "state": "NY",
    "zip_code": "11777",
    "latitude": 40.9462948,
    "longitude": -73.0686472,
    "website": "http://www.prohibitionpj.com/",
    "category": "Restaurant",
    "types": "restaurant, food, point_of_interest, establishment"
  },
  {
    "place_id": "ChIJ1UAOXsU-6IkRJbvh9mr8hB4",
    "name": "Mirabelle Tavern",
    "street_address": "150 Main Street",
    "city": "Stony Brook",
    "state": "NY",
    "zip_code": "11790",
    "latitude": 40.919212,
    "longitude": -73.14828399999999,
    "website": "https://www.mirabelleatthreevillageinn.com/",
    "category": "Bar & Restaurant",
    "types": "restaurant, food, bar, point_of_interest, establishment"
  },
  {
    "place_id": "ChIJfTNKJfVB6IkRw2mq9_VnYps",
    "name": "The Turn at Port Jefferson Country Club",
    "street_address": "44 Fairway Drive",
    "city": "Port Jefferson",
    "state": "NY",
    "zip_code": "11777",
    "latitude": 40.9631173,
    "longitude": -73.0525261,
    "website": "https://www.lessings.com/corporate/weddings/venue/port-jefferson-country-club",
    "category": "Bar & Restaurant",
    "types": "bar, restaurant, food, point_of_interest, establishment"
  },
  {
    "place_id": "ChIJQ3BrI2ZA6IkR2mtZQQj9K_g",
    "name": "Barito Tacos & Cocktails",
    "street_address": "201 Main Street",
    "city": "Port Jefferson",
    "state": "NY",
    "zip_code": "11777",
    "latitude": 40.9457283,
    "longitude": -73.0682855,
    "website": "https://www.baritomexican.com/",
    "category": "Bar & Restaurant",
    "types": "restaurant, food, bar, point_of_interest, establishment"
  },
  {
    "place_id": "ChIJ2zHQIdA-6IkR9eldwFoMDBk",
    "name": "Sweet Mama's",
    "street_address": "121 Main Street",
    "city": "Stony Brook",
    "state": "NY",
    "zip_code": "11790",
    "latitude": 40.917478,
    "longitude": -73.1465314,
    "website": "https://www.sweetmamasli.com/",
    "category": "Restaurant",
    "types": "restaurant, food, point_of_interest, establishment"
  },
  {
    "place_id": "ChIJ-SSYIpk_6IkRKSMfoHEzUxA",
    "name": "DJ'S Clam Shack Stony Brook",
    "street_address": "1007 North Country Road",
    "city": "Stony Brook",
    "state": "NY",
    "zip_code": "11790",
    "latitude": 40.9227784,
    "longitude": -73.1276305,
    "website": "https://www.djsclamshack.com/stony-brook/",
    "category": "Restaurant",
    "types": "restaurant, point_of_interest, food, establishment"
  },
  {
    "place_id": "ChIJx41rl9M-6IkRCf_EEc3s9pQ",
    "name": "Country House",
    "street_address": "1175 North Country Road",
    "city": "Stony Brook",
    "state": "NY",
    "zip_code": "11790",
    "latitude": 40.91269389999999,
    "longitude": -73.142057,
    "website": "http://www.countryhouserestaurant.com/",
    "category": "Restaurant",
    "types": "restaurant, point_of_interest, food, establishment"
  },
  {
    "place_id": "ChIJUcPC4lhA6IkR27r9dWLct-0",
    "name": "PJ Lobster House",
    "street_address": "134 Main Street",
    "city": "Port Jefferson",
    "state": "NY",
    "zip_code": "11777",
    "latitude": 40.945464,
    "longitude": -73.0687971,
    "website": "https://pjlobsterhouse.com/",
    "category": "Restaurant",
    "types": "restaurant, food, point_of_interest, establishment"
  },
  {
    "place_id": "ChIJhRUDsBMm6IkRtdtAIA6nYoE",
    "name": "Benchwarmer's Tavern and Grill",
    "street_address": "23 New York 25A",
    "city": "Mount Sinai",
    "state": "NY",
    "zip_code": "11766",
    "latitude": 40.933479,
    "longitude": -73.0347976,
    "website": "http://benchwarmersmountsinai.com/",
    "category": "Bar & Restaurant",
    "types": "restaurant, food, bar, point_of_interest, establishment"
  },
  {
    "place_id": "ChIJ-fu90mdA6IkRk4xMtliny7M",
    "name": "Pasta Pasta",
    "street_address": "234 East Main Street",
    "city": "Port Jefferson",
    "state": "NY",
    "zip_code": "11777",
    "latitude": 40.94557109999999,
    "longitude": -73.06734449999999,
    "website": "http://www.pastapastaportjeff.com/",
    "category": "Restaurant",
    "types": "restaurant, food, point_of_interest, establishment"
  },
  {
    "place_id": "ChIJh_NQC-5A6IkRfDKyTjRAVGs",
    "name": "Zorba the Greek",
    "street_address": "572 Jefferson Plaza",
    "city": "Port Jefferson Station",
    "state": "NY",
    "zip_code": "11776",
    "latitude": 40.9293622,
    "longitude": -73.0522201,
    "website": "https://www.zorbathegreekpjs.net/",
    "category": "Bar & Restaurant",
    "types": "bar, restaurant, point_of_interest, food, establishment"
  },
  {
    "place_id": "ChIJW23rBHZJ6IkR68QNupAqfns",
    "name": "The Edge At Lulu's",
    "street_address": "388 Medford Avenue",
    "city": "Patchogue",
    "state": "NY",
    "zip_code": "11772",
    "latitude": 40.7815124,
    "longitude": -73.0088231,
    "website": null,
    "category": "Bar & Restaurant",
    "types": "bar, restaurant, food, point_of_interest, establishment"
  },
  {
    "place_id": "ChIJ3Z65vBhJ6IkRN2iGnHXKEtg",
    "name": "Tap Room",
    "street_address": "114 West Main Street",
    "city": "Patchogue",
    "state": "NY",
    "zip_code": "11772",
    "latitude": 40.76566139999999,
    "longitude": -73.01773,
    "website": "https://taproomofny.com/locations/patchogue/",
    "category": "Bar & Restaurant",
    "types": "restaurant, bar, food, point_of_interest, establishment"
  },
  {
    "place_id": "ChIJS8nNZxBI6IkRV582CBrzYDU",
    "name": "The Irish Times Pub",
    "street_address": "975 Main Street",
    "city": "Holbrook",
    "state": "NY",
    "zip_code": "11741",
    "latitude": 40.8080649,
    "longitude": -73.0744185,
    "website": "http://www.irishtimespubny.com/",
    "category": "Bar & Restaurant",
    "types": "restaurant, food, bar, point_of_interest, establishment"
  },
  {
    "place_id": "ChIJR2Ao7ndJ6IkR-LmKkdMU1zE",
    "name": "Whiskey Neat",
    "street_address": "124 East Main Street",
    "city": "Patchogue",
    "state": "NY",
    "zip_code": "11772",
    "latitude": 40.7656517,
    "longitude": -73.01215359999999,
    "website": "https://www.whiskeyneatny.com/",
    "category": "Bar & Restaurant",
    "types": "restaurant, food, bar, point_of_interest, establishment"
  },
  {
    "place_id": "ChIJtSkySCJJ6IkRHgAkzdcA1jM",
    "name": "James Joyce",
    "street_address": "49 South Ocean Avenue",
    "city": "Patchogue",
    "state": "NY",
    "zip_code": "11772",
    "latitude": 40.7648179,
    "longitude": -73.01453769999999,
    "website": "http://www.jamesjoyceny.com/",
    "category": "Bar & Restaurant",
    "types": "bar, restaurant, point_of_interest, food, establishment"
  },
  {
    "place_id": "ChIJizPqG8dI6IkR4ia4tkSVHys",
    "name": "Rudi's Bar & Grill",
    "street_address": "554 New York 112",
    "city": "Patchogue",
    "state": "NY",
    "zip_code": "11772",
    "latitude": 40.78770349999999,
    "longitude": -73.00958179999999,
    "website": "http://www.rudisbarandgrill.com/",
    "category": "Bar & Restaurant",
    "types": "bar, restaurant, food, point_of_interest, establishment"
  },
  {
    "place_id": "ChIJU_pAHXVJ6IkRK1-tOwkB4ys",
    "name": "Cavanaugh's",
    "street_address": "255 Blue Point Avenue",
    "city": "Blue Point",
    "state": "NY",
    "zip_code": "11715",
    "latitude": 40.75308220000001,
    "longitude": -73.0377966,
    "website": "http://www.cavanaughsbluepoint.com/",
    "category": "Bar & Restaurant",
    "types": "restaurant, bar, food, point_of_interest, establishment"
  },
  {
    "place_id": "ChIJ07EN6hRJ6IkRDHxkjWw9Jz4",
    "name": "Dublin Deck Tiki Bar and Grill",
    "street_address": "327 River Avenue",
    "city": "Patchogue",
    "state": "NY",
    "zip_code": "11772",
    "latitude": 40.75354069999999,
    "longitude": -73.0200499,
    "website": "https://www.dublindeck.com/",
    "category": "Restaurant",
    "types": "restaurant, point_of_interest, food, establishment"
  },
  {
    "place_id": "ChIJaV0PbQBJ6IkRO8WJJLb0Feg",
    "name": "Spycoast Kitchen & Cocktails",
    "street_address": "76 West Main Street",
    "city": "Patchogue",
    "state": "NY",
    "zip_code": "11772",
    "latitude": 40.7656994,
    "longitude": -73.01691439999999,
    "website": "http://spycoastpub.com/",
    "category": "Bar & Restaurant",
    "types": "restaurant, bar, food, point_of_interest, establishment"
  },
  {
    "place_id": "ChIJ222okyFJ6IkRQCEGIH6cGfs",
    "name": "Reese's 1900",
    "street_address": "70 North Ocean Avenue",
    "city": "Patchogue",
    "state": "NY",
    "zip_code": "11772",
    "latitude": 40.7670021,
    "longitude": -73.0151884,
    "website": "http://www.reeses1900.com/",
    "category": "Bar & Restaurant",
    "types": "restaurant, food, bar, point_of_interest, establishment"
  },
  {
    "place_id": "ChIJAQ8KJSJJ6IkRESj5PD2GS1M",
    "name": "Village Idiot Pub",
    "street_address": "8 East Main Street",
    "city": "Patchogue",
    "state": "NY",
    "zip_code": "11772",
    "latitude": 40.7655245,
    "longitude": -73.01485799999999,
    "website": "https://villageidiotpubs.com/villageidiotpatchogue?utm_source=google",
    "category": "Bar & Restaurant",
    "types": "restaurant, bar, food, point_of_interest, establishment"
  },
  {
    "place_id": "ChIJvRLLfkFI6IkRi-xO6_s7OAs",
    "name": "Karvers Grille",
    "street_address": "480 Patchogue-Holbrook Road",
    "city": "Holbrook",
    "state": "NY",
    "zip_code": "11741",
    "latitude": 40.7943872,
    "longitude": -73.0581041,
    "website": "https://karversgrille.com/",
    "category": "Restaurant",
    "types": "restaurant, food, point_of_interest, establishment"
  },
  {
    "place_id": "ChIJn02NWCFJ6IkRB_VxhTAoqEU",
    "name": "RHUM",
    "street_address": "13 East Main Street",
    "city": "Patchogue",
    "state": "NY",
    "zip_code": "11772",
    "latitude": 40.7658333,
    "longitude": -73.0147222,
    "website": "http://www.rhumpatchogue.com/",
    "category": "Bar & Restaurant",
    "types": "bar, restaurant, food, point_of_interest, establishment"
  },
  {
    "place_id": "ChIJq6HTuQRI6IkRcS_k15S4kVo",
    "name": "Momo's Sports Bar",
    "street_address": "350 Union Avenue",
    "city": "Holbrook",
    "state": "NY",
    "zip_code": "11741",
    "latitude": 40.81099700000001,
    "longitude": -73.08011619999999,
    "website": "http://www.momossportsbarandgrill.com/",
    "category": "Bar & Restaurant",
    "types": "bar, restaurant, food, point_of_interest, establishment"
  },
  {
    "place_id": "ChIJBanWGCJJ6IkR5VwjYX6LVWY",
    "name": "Arooga's",
    "street_address": "1 West Main Street",
    "city": "Patchogue",
    "state": "NY",
    "zip_code": "11772",
    "latitude": 40.7658224,
    "longitude": -73.01538649999999,
    "website": "http://aroogas-ny.com/",
    "category": "Bar & Restaurant",
    "types": "restaurant, bar, point_of_interest, food, establishment"
  },
  {
    "place_id": "ChIJAwB1nXhJ6IkRWwYkPFflXVE",
    "name": "Lulu\u2019s Lobster & Wing Shack",
    "street_address": "388 Medford Avenue",
    "city": "Patchogue",
    "state": "NY",
    "zip_code": "11772",
    "latitude": 40.7814341,
    "longitude": -73.00883639999999,
    "website": null,
    "category": "Bar & Restaurant",
    "types": "restaurant, bar, point_of_interest, food, establishment"
  },
  {
    "place_id": "ChIJLWLrc1pP6IkRCThRAdpo1Wo",
    "name": "Petey's Taps & Caps Grill",
    "street_address": "668 South Country Road",
    "city": "East Patchogue",
    "state": "NY",
    "zip_code": "11772",
    "latitude": 40.7570345,
    "longitude": -72.9649088,
    "website": "http://www.peteystapsandcaps.com/",
    "category": "Bar & Restaurant",
    "types": "bar, restaurant, food, point_of_interest, establishment"
  },
  {
    "place_id": "ChIJC6TaDo5J6IkR2itweGpdNac",
    "name": "Momos Too Sports Bar & Grill",
    "street_address": "667 Montauk Highway",
    "city": "Bayport",
    "state": "NY",
    "zip_code": "11705",
    "latitude": 40.7472668,
    "longitude": -73.0578349,
    "website": "http://www.momossportsbarandgrill.com/",
    "category": "Bar & Restaurant",
    "types": "bar, restaurant, food, point_of_interest, establishment"
  },
  {
    "place_id": "ChIJg2RzfzlJ6IkRCr7YuvuPtxo",
    "name": "People's Pub Bayport",
    "street_address": "291 Bayport Avenue",
    "city": "Bayport",
    "state": "NY",
    "zip_code": "11705",
    "latitude": 40.7459271,
    "longitude": -73.05043739999999,
    "website": "https://www.peoplespubbayport.com/",
    "category": "Bar & Restaurant",
    "types": "restaurant, bar, point_of_interest, food, establishment"
  },
  {
    "place_id": "ChIJ_UWx01VT74kRHjmErLrA630",
    "name": "The Point Bar & Grill",
    "street_address": "697 Montauk Highway",
    "city": "Montauk",
    "state": "NY",
    "zip_code": "11954",
    "latitude": 41.0333737,
    "longitude": -71.9467698,
    "website": "https://www.pointbarandgrill.com/",
    "category": "Bar & Restaurant",
    "types": "bar, restaurant, point_of_interest, food, establishment"
  },
  {
    "place_id": "ChIJizoSblSr6IkRhHzT8L9dN8A",
    "name": "Shagwong",
    "street_address": "774 Montauk Highway",
    "city": "Montauk",
    "state": "NY",
    "zip_code": "11954",
    "latitude": 41.03515,
    "longitude": -71.9429111,
    "website": "http://shagwongtavern.com/",
    "category": "Bar & Restaurant",
    "types": "bar, restaurant, food, point_of_interest, establishment"
  },
  {
    "place_id": "ChIJx6OA0Uur6IkRiLX2DgfIblM",
    "name": "The Montauket",
    "street_address": "88 Firestone Road",
    "city": "Montauk",
    "state": "NY",
    "zip_code": "11954",
    "latitude": 41.0542431,
    "longitude": -71.95757379999999,
    "website": "https://www.themontauket.com/",
    "category": "Bar & Restaurant",
    "types": "restaurant, bar, point_of_interest, food, establishment"
  },
  {
    "place_id": "ChIJw4WCLqhU74kRbyIE3Rx2IY0",
    "name": "668 The Gig Shack",
    "street_address": "782 Montauk Highway",
    "city": "Montauk",
    "state": "NY",
    "zip_code": "11954",
    "latitude": 41.0353076,
    "longitude": -71.9427122,
    "website": "http://www.668thegigshack.com/",
    "category": "Bar & Restaurant",
    "types": "restaurant, food, bar, point_of_interest, establishment"
  },
  {
    "place_id": "ChIJRbb3Pt9V74kRgj1a9mZxUSA",
    "name": "Gin Beach Cafe",
    "street_address": "467 East Lake Drive",
    "city": "Montauk",
    "state": "NY",
    "zip_code": "11954",
    "latitude": 41.07279549999999,
    "longitude": -71.92733729999999,
    "website": "https://www.ginbeachcafe.com/",
    "category": "Restaurant",
    "types": "restaurant, food, point_of_interest, establishment"
  },
  {
    "place_id": "ChIJU5pASyZV74kRNIGt6pqM0pA",
    "name": "Gosman's Clam Bar",
    "street_address": "484 West Lake Drive",
    "city": "Montauk",
    "state": "NY",
    "zip_code": "11954",
    "latitude": 41.07548579999999,
    "longitude": -71.93785919999999,
    "website": "http://www.gosmans.com/",
    "category": "Restaurant",
    "types": "restaurant, food, point_of_interest, establishment"
  },
  {
    "place_id": "ChIJ7VRQe9hF6IkRDLBy_oodwVU",
    "name": "The Dock Bar & Grill",
    "street_address": "482 West Lake Drive",
    "city": "Montauk",
    "state": "NY",
    "zip_code": "11954",
    "latitude": 41.0747318,
    "longitude": -71.9380642,
    "website": "http://www.thedockmontauk.com/",
    "category": "Bar & Restaurant",
    "types": "restaurant, food, bar, point_of_interest, establishment"
  },
  {
    "place_id": "ChIJG3YZb5RT74kRsMwlDBs6FjQ",
    "name": "Bird on the Roof",
    "street_address": "47 South Elmwood Avenue",
    "city": "Montauk",
    "state": "NY",
    "zip_code": "11954",
    "latitude": 41.0336271,
    "longitude": -71.9442753,
    "website": "http://www.birdontheroof.com/",
    "category": "Bar & Restaurant",
    "types": "restaurant, bar, point_of_interest, food, establishment"
  },
  {
    "place_id": "ChIJIYGy5_Cs6IkRQajNWDobs-M",
    "name": "The Beach Club at Gurney's Montauk",
    "street_address": "290 Old Montauk Highway",
    "city": "Montauk",
    "state": "NY",
    "zip_code": "11954",
    "latitude": 41.0155385,
    "longitude": -71.9917213,
    "website": "https://www.gurneysresorts.com/montauk",
    "category": "Restaurant",
    "types": "restaurant, point_of_interest, food, establishment"
  },
  {
    "place_id": "ChIJGWvdFXVT74kRmDCxwEhmznk",
    "name": "Sel Rrose Montauk",
    "street_address": "4 South Elmwood Avenue",
    "city": "Montauk",
    "state": "NY",
    "zip_code": "11954",
    "latitude": 41.0323803,
    "longitude": -71.947071,
    "website": "https://www.selrrose.com/location/sel-rrose-montauk/",
    "category": "Bar & Restaurant",
    "types": "restaurant, night_club, bar, food, point_of_interest, establishment"
  },
  {
    "place_id": "ChIJ37WO5cJV74kR5MQQD5Q21Nw",
    "name": "Seaside House Bar",
    "street_address": "57 Flamingo Avenue",
    "city": "Montauk",
    "state": "NY",
    "zip_code": "11954",
    "latitude": 41.0713173,
    "longitude": -71.942574,
    "website": "https://www.seasidehousebar.com/",
    "category": "Restaurant",
    "types": "restaurant, food, point_of_interest, establishment"
  },
  {
    "place_id": "ChIJ7QDpw6lU74kRyYPb4kSvbPA",
    "name": "Tauk at Trail's End",
    "street_address": "63 South Euclid Avenue",
    "city": "Montauk",
    "state": "NY",
    "zip_code": "11954",
    "latitude": 41.03608329999999,
    "longitude": -71.9442979,
    "website": "http://taukattrailsend.com/",
    "category": "Bar & Restaurant",
    "types": "night_club, bar, restaurant, food, point_of_interest, establishment"
  },
  {
    "place_id": "ChIJl3MS3Var6IkR3SiATkDJkP4",
    "name": "Sea Salt",
    "street_address": "90 2nd House Road",
    "city": "Montauk",
    "state": "NY",
    "zip_code": "11954",
    "latitude": 41.0363586,
    "longitude": -71.9548777,
    "website": "http://www.soleeast.com/",
    "category": "Bar & Restaurant",
    "types": "bar, restaurant, food, point_of_interest, establishment"
  },
  {
    "place_id": "ChIJXSts-IxU74kRlXbjobd4x5c",
    "name": "The Crow's Nest",
    "street_address": "4 Old West Lake Drive",
    "city": "Montauk",
    "state": "NY",
    "zip_code": "11954",
    "latitude": 41.0471967,
    "longitude": -71.91304040000001,
    "website": "http://www.crowsnestmtk.com/",
    "category": "Restaurant",
    "types": "restaurant, lodging, point_of_interest, food, establishment"
  },
  {
    "place_id": "ChIJVVVRGahU74kRnOGNKmNiBdw",
    "name": "Hooked",
    "street_address": "34 South Etna Avenue",
    "city": "Montauk",
    "state": "NY",
    "zip_code": "11954",
    "latitude": 41.0350974,
    "longitude": -71.9411983,
    "website": "http://www.hookedmtk.com/",
    "category": "Restaurant",
    "types": "restaurant, point_of_interest, food, establishment"
  },
  {
    "place_id": "ChIJn0zTxSZV74kRgdHIPhhICkY",
    "name": "Inlet Seafood Restaurant",
    "street_address": "541 East Lake Drive",
    "city": "Montauk",
    "state": "NY",
    "zip_code": "11954",
    "latitude": 41.076684,
    "longitude": -71.935452,
    "website": "http://www.inletseafood.com/",
    "category": "Restaurant",
    "types": "restaurant, food, point_of_interest, establishment"
  },
  {
    "place_id": "ChIJb3oBKUlT74kROIwzRgcg7tU",
    "name": "MTK Lobster House",
    "street_address": "716 Montauk Highway",
    "city": "Montauk",
    "state": "NY",
    "zip_code": "11954",
    "latitude": 41.03384459999999,
    "longitude": -71.9451383,
    "website": "http://www.mtklobsterhouse.com/",
    "category": "Restaurant",
    "types": "restaurant, food, point_of_interest, establishment"
  },
  {
    "place_id": "ChIJN2EK2VdT74kRZ4a000eEozU",
    "name": "South Edison",
    "street_address": "17 South Edison Street",
    "city": "Montauk",
    "state": "NY",
    "zip_code": "11954",
    "latitude": 41.0346495,
    "longitude": -71.9421805,
    "website": "http://www.southedison.com/",
    "category": "Bar & Restaurant",
    "types": "restaurant, food, bar, point_of_interest, establishment"
  },
  {
    "place_id": "ChIJjYQaBFZT74kR1KJB1S40n4g",
    "name": "Muse @ The End",
    "street_address": "41 South Euclid Avenue",
    "city": "Montauk",
    "state": "NY",
    "zip_code": "11954",
    "latitude": 41.03513,
    "longitude": -71.9456648,
    "website": "https://www.museattheendmontauk.com/",
    "category": "Bar & Restaurant",
    "types": "bar, restaurant, food, point_of_interest, establishment"
  },
  {
    "place_id": "ChIJqwd9crCs6IkRMg1EfGTgXeQ",
    "name": "Surfside Inn",
    "street_address": "685 Old Montauk Highway",
    "city": "Montauk",
    "state": "NY",
    "zip_code": "11954",
    "latitude": 41.0270014,
    "longitude": -71.963016,
    "website": "http://surfsideinnmontauk.com/",
    "category": "Bar & Restaurant",
    "types": "lodging, bar, restaurant, point_of_interest, food, establishment"
  },
  {
    "place_id": "ChIJcVkfElGr6IkRAqOCmNnZ4T8",
    "name": "Navy Beach Restaurant, Montauk | Seafood Restaurant",
    "street_address": "16 Navy Road",
    "city": "Montauk",
    "state": "NY",
    "zip_code": "11954",
    "latitude": 41.0444393,
    "longitude": -71.9598816,
    "website": "http://www.navybeach.com/",
    "category": "Bar & Restaurant",
    "types": "bar, restaurant, point_of_interest, food, establishment"
  },
  {
    "place_id": "ChIJKYiY8ydV74kRA9OrWf76mpQ",
    "name": "Clam and Chowder House at Salivar's Dock",
    "street_address": "470 West Lake Drive",
    "city": "Montauk",
    "state": "NY",
    "zip_code": "11954",
    "latitude": 41.07380320000001,
    "longitude": -71.9389094,
    "website": "http://clamandchowderhouse.com/",
    "category": "Bar & Restaurant",
    "types": "restaurant, food, bar, point_of_interest, establishment"
  },
  {
    "place_id": "ChIJGVnnJFar6IkRv5FR6BsgrLs",
    "name": "RUSCHMEYERS",
    "street_address": "161 2nd House Road",
    "city": "Montauk",
    "state": "NY",
    "zip_code": "11954",
    "latitude": 41.0395486,
    "longitude": -71.9603633,
    "website": "http://ruschmeyers.com/",
    "category": "Bar & Restaurant",
    "types": "night_club, lodging, restaurant, food, point_of_interest, establishment"
  },
  {
    "place_id": "ChIJ-8CyTEyr6IkRdc-Q2lox9lY",
    "name": "Harvest on Fort Pond",
    "street_address": "11 South Emery Street",
    "city": "Montauk",
    "state": "NY",
    "zip_code": "11954",
    "latitude": 41.033632,
    "longitude": -71.9481213,
    "website": "http://www.harvestfortpond.com/",
    "category": "Restaurant",
    "types": "restaurant, food, point_of_interest, establishment"
  },
  {
    "place_id": "ChIJs1myRdpU74kRygPSjTNZvp8",
    "name": "Westlake Fish House",
    "street_address": "352 West Lake Drive",
    "city": "Montauk",
    "state": "NY",
    "zip_code": "11954",
    "latitude": 41.06727649999999,
    "longitude": -71.9375537,
    "website": "http://westlakefishhouse.com/",
    "category": "Restaurant",
    "types": "meal_takeaway, restaurant, food, point_of_interest, establishment"
  },
  {
    "place_id": "ChIJq-pQXvy66IkR4_sosmglna4",
    "name": "Rowdy Hall",
    "street_address": "177 Main Street",
    "city": "Amagansett",
    "state": "NY",
    "zip_code": "11930",
    "latitude": 40.9751274,
    "longitude": -72.1419372,
    "website": "http://www.rowdyhall.com/",
    "category": "Bar & Restaurant",
    "types": "restaurant, bar, food, point_of_interest, establishment"
  },
  {
    "place_id": "ChIJ_6Uk1Im76IkRFeNaSplhE3o",
    "name": "Highway",
    "street_address": "290 Montauk Highway",
    "city": "East Hampton",
    "state": "NY",
    "zip_code": "11937",
    "latitude": 40.951832,
    "longitude": -72.2360381,
    "website": "https://highwayrestaurant.com/",
    "category": "Bar & Restaurant",
    "types": "restaurant, bar, food, point_of_interest, establishment"
  },
  {
    "place_id": "ChIJ19PnYyyl6IkR3ZVb1cyPmLU",
    "name": "The Blend At Three Mile Harbor",
    "street_address": "367 County Road 40",
    "city": "East Hampton",
    "state": "NY",
    "zip_code": "11937",
    "latitude": 40.9977678,
    "longitude": -72.181842,
    "website": "http://www.theblendatthreemileharbor.com/",
    "category": "Restaurant",
    "types": "restaurant, food, point_of_interest, establishment"
  },
  {
    "place_id": "ChIJrZkgVae66IkR2HGHO22tVys",
    "name": "Meeting House",
    "street_address": "4 Amagansett Square",
    "city": "Amagansett",
    "state": "NY",
    "zip_code": "11930",
    "latitude": 40.974282,
    "longitude": -72.1419053,
    "website": "https://www.meetinghouseamg.com/",
    "category": "Bar & Restaurant",
    "types": "restaurant, bar, food, point_of_interest, establishment"
  },
  {
    "place_id": "ChIJaxbjbOS66IkRHaxH-m6qg8U",
    "name": "East Hampton Grill",
    "street_address": "99 North Main Street",
    "city": "East Hampton",
    "state": "NY",
    "zip_code": "11937",
    "latitude": 40.96906649999999,
    "longitude": -72.1824173,
    "website": "http://www.easthamptongrill.com",
    "category": "Bar & Restaurant",
    "types": "bar, restaurant, food, point_of_interest, establishment"
  },
  {
    "place_id": "ChIJNQODTfy66IkRvFFC83KOBZ0",
    "name": "Blue Parrot",
    "street_address": "33A Main Street",
    "city": "East Hampton",
    "state": "NY",
    "zip_code": "11937",
    "latitude": 40.9634765,
    "longitude": -72.1859568,
    "website": "http://www.blueparroteasthampton.com/",
    "category": "Bar & Restaurant",
    "types": "bar, restaurant, food, point_of_interest, establishment"
  },
  {
    "place_id": "ChIJZ6QlRxK76IkRBfLvgRvsi6I",
    "name": "Rosie\u2019s Amagansett",
    "street_address": "195 Main Street",
    "city": "Amagansett",
    "state": "NY",
    "zip_code": "11930",
    "latitude": 40.9751743,
    "longitude": -72.14175209999999,
    "website": "http://www.rosiesamagansett.com/",
    "category": "Restaurant",
    "types": "restaurant, food, point_of_interest, establishment"
  },
  {
    "place_id": "ChIJ05XDU6e66IkR-O30-w7Vyog",
    "name": "Jack\u2019s Stir Brew Coffee",
    "street_address": "146 Montauk Highway",
    "city": "Amagansett",
    "state": "NY",
    "zip_code": "11930",
    "latitude": 40.9744603,
    "longitude": -72.1421319,
    "website": "http://www.jacksstirbrew.com/",
    "category": "Restaurant",
    "types": "bakery, cafe, restaurant, point_of_interest, food, store, establishment"
  },
  {
    "place_id": "ChIJ5_axAwqw6IkR7DLTG6V8kPY",
    "name": "Hampton Chutney Co.",
    "street_address": "107 Newtown Lane",
    "city": "East Hampton",
    "state": "NY",
    "zip_code": "11937",
    "latitude": 40.9650468,
    "longitude": -72.1914269,
    "website": "https://hamptonchutney.com/?utm_source=google",
    "category": "Restaurant",
    "types": "restaurant, point_of_interest, food, establishment"
  },
  {
    "place_id": "ChIJR2qJI-S66IkRDsNCmihMqXU",
    "name": "Nick & Toni's",
    "street_address": "136 North Main Street",
    "city": "East Hampton",
    "state": "NY",
    "zip_code": "11937",
    "latitude": 40.970181,
    "longitude": -72.181375,
    "website": "http://www.nickandtonis.com/",
    "category": "Restaurant",
    "types": "restaurant, food, point_of_interest, establishment"
  },
  {
    "place_id": "ChIJwanxYiG76IkR4eWlg7N1QgQ",
    "name": "Village Bistro East Hampton",
    "street_address": "10 Main Street",
    "city": "East Hampton",
    "state": "NY",
    "zip_code": "11937",
    "latitude": 40.96364319999999,
    "longitude": -72.1846668,
    "website": "https://www.villagebistroeh.com/",
    "category": "Restaurant",
    "types": "restaurant, food, point_of_interest, establishment"
  },
  {
    "place_id": "ChIJO6BXTxi96IkRPSCkk4nR0vs",
    "name": "The Clubhouse",
    "street_address": "174 Daniels Hole Road",
    "city": "East Hampton",
    "state": "NY",
    "zip_code": "11937",
    "latitude": 40.9613024,
    "longitude": -72.2401462,
    "website": "https://www.clubhousehamptons.com/",
    "category": "Bar & Restaurant",
    "types": "restaurant, bowling_alley, bar, point_of_interest, food, establishment"
  },
  {
    "place_id": "ChIJ3X8tQQC76IkRn9d3pJf8zoU",
    "name": "1770 House Restaurant & Inn",
    "street_address": "143 Main Street",
    "city": "East Hampton",
    "state": "NY",
    "zip_code": "11937",
    "latitude": 40.95886830000001,
    "longitude": -72.19037159999999,
    "website": "http://www.1770house.com/",
    "category": "Restaurant",
    "types": "lodging, restaurant, point_of_interest, food, establishment"
  },
  {
    "place_id": "ChIJj_Tucuy66IkRaxeABDctD1k",
    "name": "Smokin' Wolf BBQ & More",
    "street_address": "199 Pantigo Road",
    "city": "East Hampton",
    "state": "NY",
    "zip_code": "11937",
    "latitude": 40.9681575,
    "longitude": -72.16973709999999,
    "website": "http://www.smokinwolfbbq.com/",
    "category": "Restaurant",
    "types": "meal_takeaway, restaurant, food, point_of_interest, establishment"
  },
  {
    "place_id": "ChIJ8RuVQ5S76IkR6AIbprewAPE",
    "name": "MARS & EL TURCO",
    "street_address": "44 Three Mile Harbor Road",
    "city": "East Hampton",
    "state": "NY",
    "zip_code": "11937",
    "latitude": 40.97567889999999,
    "longitude": -72.18165239999999,
    "website": null,
    "category": "Bar & Restaurant",
    "types": "restaurant, night_club, bar, point_of_interest, food, establishment"
  },
  {
    "place_id": "ChIJsy0LVTf36IkRkDeH7MzYDGg",
    "name": "flora",
    "street_address": "149 Main Street",
    "city": "Westhampton Beach",
    "state": "NY",
    "zip_code": "11978",
    "latitude": 40.8098799,
    "longitude": -72.6414365,
    "website": "http://florawhb.com/",
    "category": "Restaurant",
    "types": "restaurant, point_of_interest, food, establishment"
  },
  {
    "place_id": "ChIJJQ3uq3_36IkRIXNe1u6xUm4",
    "name": "Hampton Wings & Things",
    "street_address": "Old Riverhead Road",
    "city": "Westhampton Beach",
    "state": "NY",
    "zip_code": "11978",
    "latitude": 40.8274289,
    "longitude": -72.6463509,
    "website": "http://www.hamptonwingsandthings.com/",
    "category": "Restaurant",
    "types": "restaurant, point_of_interest, food, establishment"
  },
  {
    "place_id": "ChIJTyVu-7j36IkRAVIDSnZlPtM",
    "name": "John Scott's Surf Shack",
    "street_address": "540 Dune Road",
    "city": "Westhampton Beach",
    "state": "NY",
    "zip_code": "11978",
    "latitude": 40.7849592,
    "longitude": -72.6827758,
    "website": "http://www.johnscottssurfshack.com/",
    "category": "Bar & Restaurant",
    "types": "bar, restaurant, food, point_of_interest, establishment"
  },
  {
    "place_id": "ChIJz4HGgNn36IkRwIm8IVEVXR8",
    "name": "Local Provisions",
    "street_address": "121A Main Street",
    "city": "Westhampton Beach",
    "state": "NY",
    "zip_code": "11978",
    "latitude": 40.8097309,
    "longitude": -72.6427918,
    "website": "http://www.localprovisionswhb.com/",
    "category": "Restaurant",
    "types": "cafe, restaurant, food, point_of_interest, establishment"
  },
  {
    "place_id": "ChIJmT-1xrn36IkRWoVwoKVVJEE",
    "name": "Fauna",
    "street_address": "6 Parlato Drive",
    "city": "Westhampton Beach",
    "state": "NY",
    "zip_code": "11978",
    "latitude": 40.80917849999999,
    "longitude": -72.6418881,
    "website": "https://faunawhb.com/",
    "category": "Restaurant",
    "types": "restaurant, food, point_of_interest, establishment"
  },
  {
    "place_id": "ChIJzfaG9ZD26IkRPtJtkIgs9bY",
    "name": "Boom Burger",
    "street_address": "85 Montauk Highway",
    "city": "Westhampton Beach",
    "state": "NY",
    "zip_code": "11978",
    "latitude": 40.82175529999999,
    "longitude": -72.6476662,
    "website": "https://boomburgerwhb.com/",
    "category": "Restaurant",
    "types": "restaurant, food, point_of_interest, establishment"
  },
  {
    "place_id": "ChIJtclQkuv26IkRtT2L7mZtm9E",
    "name": "Margarita Grille",
    "street_address": "83 Main Street",
    "city": "Westhampton Beach",
    "state": "NY",
    "zip_code": "11978",
    "latitude": 40.8093187,
    "longitude": -72.6439225,
    "website": "http://www.themargaritagrille.com/",
    "category": "Bar & Restaurant",
    "types": "bar, restaurant, food, point_of_interest, establishment"
  },
  {
    "place_id": "ChIJT8vul-v26IkR0W7nADiix_Q",
    "name": "Sydney's Taylor Made Cuisine",
    "street_address": "32 Mill Road",
    "city": "Westhampton Beach",
    "state": "NY",
    "zip_code": "11978",
    "latitude": 40.81107739999999,
    "longitude": -72.64156150000001,
    "website": "http://www.sydneysgourmet.com/",
    "category": "Restaurant",
    "types": "grocery_or_supermarket, cafe, restaurant, point_of_interest, food, store, establishment"
  },
  {
    "place_id": "ChIJxzS3yKr36IkR9v_cgALfwh8",
    "name": "The Ketch",
    "street_address": "62 Montauk Highway",
    "city": "Westhampton",
    "state": "NY",
    "zip_code": "11977",
    "latitude": 40.8196611,
    "longitude": -72.6670717,
    "website": "https://www.the-ketch.net/",
    "category": "Bar & Restaurant",
    "types": "restaurant, meal_takeaway, bar, point_of_interest, food, establishment"
  },
  {
    "place_id": "ChIJnYWo6sT36IkRzTULlm8EZog",
    "name": "Ivy On Main",
    "street_address": "103 Main Street",
    "city": "Westhampton Beach",
    "state": "NY",
    "zip_code": "11978",
    "latitude": 40.8095375,
    "longitude": -72.6433433,
    "website": "https://www.ivywesthamptonbeach.com/",
    "category": "Bar & Restaurant",
    "types": "restaurant, food, bar, point_of_interest, establishment"
  },
  {
    "place_id": "ChIJf0-7g5f26IkRD2oQJlS8h_o",
    "name": "Joe's American Grill",
    "street_address": "240 Montauk Highway",
    "city": "Westhampton Beach",
    "state": "NY",
    "zip_code": "11978",
    "latitude": 40.82157169999999,
    "longitude": -72.64144519999999,
    "website": "http://www.joesamericangrill.com/",
    "category": "Bar & Restaurant",
    "types": "bar, restaurant, food, point_of_interest, establishment"
  },
  {
    "place_id": "ChIJNa_FeJf26IkR3h8j2BotP2M",
    "name": "Baby Moon",
    "street_address": "238 Montauk Highway",
    "city": "Westhampton Beach",
    "state": "NY",
    "zip_code": "11978",
    "latitude": 40.821654,
    "longitude": -72.6418319,
    "website": "http://www.babymoon-restaurant.com/",
    "category": "Restaurant",
    "types": "meal_takeaway, restaurant, food, point_of_interest, establishment"
  },
  {
    "place_id": "ChIJraWeC-z26IkR_yzu9fTZvck",
    "name": "The Patio",
    "street_address": "54 Main Street",
    "city": "Westhampton Beach",
    "state": "NY",
    "zip_code": "11978",
    "latitude": 40.80916630000001,
    "longitude": -72.6450622,
    "website": "http://www.thepatiowhb.com/",
    "category": "Restaurant",
    "types": "restaurant, point_of_interest, food, establishment"
  },
  {
    "place_id": "ChIJMeqLZiH26IkRQon7WObSE4w",
    "name": "Brewology295 | Speonk",
    "street_address": "295 Montauk Highway",
    "city": "Remsenburg-Speonk",
    "state": "NY",
    "zip_code": "11972",
    "latitude": 40.8190889,
    "longitude": -72.7033306,
    "website": "http://www.brewology295.com/",
    "category": "Bar & Restaurant",
    "types": "restaurant, bar, food, point_of_interest, establishment"
  },
  {
    "place_id": "ChIJ99aEZFX36IkRj06J4FXfkBY",
    "name": "Salt & Loft",
    "street_address": "145 Main Street",
    "city": "Westhampton Beach",
    "state": "NY",
    "zip_code": "11978",
    "latitude": 40.80985659999999,
    "longitude": -72.6417946,
    "website": "http://www.saltandloft.com/",
    "category": "Restaurant",
    "types": "restaurant, food, point_of_interest, establishment"
  },
  {
    "place_id": "ChIJyRAHYKz36IkRvJY-2fmKIpI",
    "name": "Daphne's Westhampton",
    "street_address": "115 Main Street",
    "city": "Westhampton Beach",
    "state": "NY",
    "zip_code": "11978",
    "latitude": 40.80971099999999,
    "longitude": -72.6429737,
    "website": "http://www.daphnesny.com/",
    "category": "Restaurant",
    "types": "restaurant, food, point_of_interest, establishment"
  },
  {
    "place_id": "ChIJ-RolGBaZ6IkR2gt6A1CN6ck",
    "name": "The 1901 Grill",
    "street_address": "26 Sunnyside Avenue",
    "city": "Shelter Island Heights",
    "state": "NY",
    "zip_code": "11965",
    "latitude": 41.0775612,
    "longitude": -72.3588841,
    "website": "https://the1901grill.com/",
    "category": "Bar & Restaurant",
    "types": "restaurant, bar, food, point_of_interest, establishment"
  },
  {
    "place_id": "ChIJL-LuwMyY6IkRLf58BH4tkdI",
    "name": "PORT Waterfront Bar & Grill",
    "street_address": "104 3rd Street",
    "city": "Greenport",
    "state": "NY",
    "zip_code": "11944",
    "latitude": 41.10088330000001,
    "longitude": -72.3621752,
    "website": "https://www.portbarandgrill.com/",
    "category": "Bar & Restaurant",
    "types": "bar, restaurant, food, point_of_interest, establishment"
  },
  {
    "place_id": "ChIJV7FUozSf6IkRvOYk7AiTd_0",
    "name": "Andy\u2019s Restaurant Greenport New York",
    "street_address": "34 Front Street",
    "city": "Greenport",
    "state": "NY",
    "zip_code": "11944",
    "latitude": 41.10244640000001,
    "longitude": -72.3599724,
    "website": "https://www.andysnofo.com/",
    "category": "Bar & Restaurant",
    "types": "bar, restaurant, point_of_interest, food, establishment"
  },
  {
    "place_id": "ChIJSf5WNZqY6IkRdBccst6gdw4",
    "name": "The Islander",
    "street_address": "63 North Ferry Road",
    "city": "Shelter Island",
    "state": "NY",
    "zip_code": "11964",
    "latitude": 41.0726834,
    "longitude": -72.3397492,
    "website": "http://www.theislandersi.com/",
    "category": "Restaurant",
    "types": "restaurant, food, point_of_interest, establishment"
  },
  {
    "place_id": "ChIJ-0uGhMCY6IkRT4k5Cr7uxEk",
    "name": "Stars Cafe",
    "street_address": "17 Grand Avenue",
    "city": "Shelter Island Heights",
    "state": "NY",
    "zip_code": "11965",
    "latitude": 41.08345509999999,
    "longitude": -72.3549105,
    "website": "https://www.starscafeshelterisland.com/",
    "category": "Restaurant",
    "types": "cafe, bakery, store, restaurant, point_of_interest, food, establishment"
  },
  {
    "place_id": "ChIJN8cyoemf6IkRwpq-V2SbE00",
    "name": "Anker",
    "street_address": "47 Front Street",
    "city": "Greenport",
    "state": "NY",
    "zip_code": "11944",
    "latitude": 41.10206609999999,
    "longitude": -72.36021269999999,
    "website": "http://www.ankerny.com/",
    "category": "Restaurant",
    "types": "restaurant, food, point_of_interest, establishment"
  },
  {
    "place_id": "ChIJGxEc34WY6IkRHuvj-T9bUsk",
    "name": "Commander Cody's Fish Shoppe",
    "street_address": "41 Smith Street",
    "city": "Shelter Island",
    "state": "NY",
    "zip_code": "11964",
    "latitude": 41.0645111,
    "longitude": -72.3412525,
    "website": null,
    "category": "Restaurant",
    "types": "meal_takeaway, restaurant, food, point_of_interest, establishment"
  },
  {
    "place_id": "ChIJa-IjNTOf6IkRAwfKxnY_-zs",
    "name": "Front Street Station",
    "street_address": "212 Front Street",
    "city": "Greenport",
    "state": "NY",
    "zip_code": "11944",
    "latitude": 41.1020517,
    "longitude": -72.362312,
    "website": "http://frontstreetgreenport.com/",
    "category": "Bar & Restaurant",
    "types": "restaurant, food, bar, point_of_interest, establishment"
  },
  {
    "place_id": "ChIJzdk4ezOf6IkRJ-kiBNGSJGk",
    "name": "First and South Restaurant & Bar",
    "street_address": "100 South Street",
    "city": "Greenport",
    "state": "NY",
    "zip_code": "11944",
    "latitude": 41.1035584,
    "longitude": -72.3611964,
    "website": "https://www.firstandsouth.com/",
    "category": "Bar & Restaurant",
    "types": "restaurant, food, bar, point_of_interest, establishment"
  },
  {
    "place_id": "ChIJAaXXx4SY6IkR1qDPxZr_b4k",
    "name": "Kyle's",
    "street_address": "27 North Ferry Road",
    "city": "Shelter Island",
    "state": "NY",
    "zip_code": "11964",
    "latitude": 41.06789319999999,
    "longitude": -72.3363755,
    "website": null,
    "category": "Restaurant",
    "types": "bakery, store, restaurant, food, point_of_interest, establishment"
  },
  {
    "place_id": "ChIJ1Su3onii6IkRR5ElHI7LA5k",
    "name": "Vine Street Caf\u00e9",
    "street_address": "41 South Ferry Road",
    "city": "Shelter Island",
    "state": "NY",
    "zip_code": "11964",
    "latitude": 41.06314620000001,
    "longitude": -72.3264222,
    "website": "http://www.vinestreetcafe.com/",
    "category": "Bar & Restaurant",
    "types": "restaurant, bar, food, point_of_interest, establishment"
  },
  {
    "place_id": "ChIJAQBQh8CY6IkRUo4RCbSYdNY",
    "name": "The Chequit Restaurant",
    "street_address": "23 Grand Avenue",
    "city": "Shelter Island Heights",
    "state": "NY",
    "zip_code": "11965",
    "latitude": 41.08370719999999,
    "longitude": -72.3552077,
    "website": "https://www.thechequithotel.com/food-drink",
    "category": "Bar & Restaurant",
    "types": "restaurant, lodging, bar, food, point_of_interest, establishment"
  },
  {
    "place_id": "ChIJ07BMcmqf6IkRWnwUawq8eCc",
    "name": "Hellenic",
    "street_address": "5145 Main Road",
    "city": "East Marion",
    "state": "NY",
    "zip_code": "11939",
    "latitude": 41.12004,
    "longitude": -72.350639,
    "website": "http://www.thehellenic.com/",
    "category": "Bar & Restaurant",
    "types": "bar, restaurant, food, point_of_interest, establishment"
  },
  {
    "place_id": "ChIJOyxu6TSf6IkR4AwCSif9Qts",
    "name": "Bruce & Son",
    "street_address": "208 Main Street",
    "city": "Greenport",
    "state": "NY",
    "zip_code": "11944",
    "latitude": 41.102707,
    "longitude": -72.358949,
    "website": "http://bruceandsongreenport.com/",
    "category": "Restaurant",
    "types": "restaurant, point_of_interest, food, establishment"
  },
  {
    "place_id": "ChIJj5Y2whGh6IkRfvCAL5xzxtA",
    "name": "Opties and Dinghies",
    "street_address": "87 North Ferry Road",
    "city": "Shelter Island",
    "state": "NY",
    "zip_code": "11964",
    "latitude": 41.0745223,
    "longitude": -72.3418769,
    "website": "http://optiesanddinghies.com/",
    "category": "Restaurant",
    "types": "restaurant, point_of_interest, food, establishment"
  },
  {
    "place_id": "ChIJMxVGczSf6IkRkBw8UcPipBw",
    "name": "Stirling Sake",
    "street_address": "477 Main Street",
    "city": "Greenport",
    "state": "NY",
    "zip_code": "11944",
    "latitude": 41.10501989999999,
    "longitude": -72.36039319999999,
    "website": "http://stirlingsake.com/",
    "category": "Restaurant",
    "types": "restaurant, point_of_interest, food, establishment"
  },
  {
    "place_id": "ChIJ8zfQVpTy6IkR5MyYREGnTTo",
    "name": "The Bays Bar & Grill",
    "street_address": "214 West Montauk Highway",
    "city": "Hampton Bays",
    "state": "NY",
    "zip_code": "11946",
    "latitude": 40.87245009999999,
    "longitude": -72.5408312,
    "website": null,
    "category": "Bar & Restaurant",
    "types": "bar, restaurant, point_of_interest, food, establishment"
  },
  {
    "place_id": "ChIJLymVnmft6IkRV9xeAXe8QqI",
    "name": "Good Ground Tavern",
    "street_address": "239 East Montauk Highway",
    "city": "Hampton Bays",
    "state": "NY",
    "zip_code": "11946",
    "latitude": 40.88539269999999,
    "longitude": -72.5032319,
    "website": "https://canoeplace.com/dining/",
    "category": "Restaurant",
    "types": "restaurant, food, point_of_interest, establishment"
  },
  {
    "place_id": "ChIJ0xlyF3rt6IkRgiIdZDgca4U",
    "name": "The Station Bar",
    "street_address": "22 Shinnecock Road",
    "city": "Hampton Bays",
    "state": "NY",
    "zip_code": "11946",
    "latitude": 40.8564396,
    "longitude": -72.5099056,
    "website": "http://www.thestationbarhamptons.com/",
    "category": "Bar & Restaurant",
    "types": "bar, restaurant, food, point_of_interest, establishment"
  },
  {
    "place_id": "ChIJe5952qLy6IkR8L35p9dZgg0",
    "name": "Buckleys Inn Between",
    "street_address": "139 West Montauk Highway",
    "city": "Hampton Bays",
    "state": "NY",
    "zip_code": "11946",
    "latitude": 40.8763701,
    "longitude": -72.5319712,
    "website": "http://www.buckleysinnbetween.com/",
    "category": "Bar & Restaurant",
    "types": "restaurant, bar, food, point_of_interest, establishment"
  },
  {
    "place_id": "ChIJYy-xu3Xt6IkRrB2pP-PJE7k",
    "name": "Fishtales",
    "street_address": "31 Alanson Lane",
    "city": "Hampton Bays",
    "state": "NY",
    "zip_code": "11946",
    "latitude": 40.8521027,
    "longitude": -72.5084431,
    "website": "https://fishtalesli.com/",
    "category": "Bar & Restaurant",
    "types": "bar, restaurant, point_of_interest, food, establishment"
  },
  {
    "place_id": "ChIJZUMSSKnt6IkR7quCee6PLJU",
    "name": "Sundays On The Bay",
    "street_address": "369 Dune Road",
    "city": "Hampton Bays",
    "state": "NY",
    "zip_code": "11946",
    "latitude": 40.8419231,
    "longitude": -72.4804712,
    "website": "http://www.sundaysonthebay.com/",
    "category": "Bar & Restaurant",
    "types": "bar, restaurant, food, point_of_interest, establishment"
  },
  {
    "place_id": "ChIJR-hVDUbt6IkRQVXz2unX5YU",
    "name": "RUMBA Island Inspired Cuisine & Rum Bar",
    "street_address": "43 Canoe Place Road",
    "city": "Hampton Bays",
    "state": "NY",
    "zip_code": "11946",
    "latitude": 40.87784449999999,
    "longitude": -72.50183559999999,
    "website": "https://tasterumba.com/hampton-bays-ny/",
    "category": "Bar & Restaurant",
    "types": "bar, restaurant, food, point_of_interest, establishment"
  },
  {
    "place_id": "ChIJb-Xcx4vz6IkRq_WxvqDI84s",
    "name": "The Barnyard",
    "street_address": "270 West Montauk Highway",
    "city": "Hampton Bays",
    "state": "NY",
    "zip_code": "11946",
    "latitude": 40.8661721,
    "longitude": -72.549921,
    "website": "https://www.thebarnyardhb.com/",
    "category": "Bar & Restaurant",
    "types": "restaurant, food, bar, point_of_interest, establishment"
  },
  {
    "place_id": "ChIJTWN7prOS6IkRqDCwlFAqnpU",
    "name": "Canal Cafe",
    "street_address": "44 Newtown Road",
    "city": "Hampton Bays",
    "state": "NY",
    "zip_code": "11946",
    "latitude": 40.8918979,
    "longitude": -72.5032384,
    "website": "https://www.thecanalcafe.com/?y_source=1_MTYwNzI4MjQtNzE1LWxvY2F0aW9uLndlYnNpdGU%3D",
    "category": "Bar & Restaurant",
    "types": "bar, restaurant, food, point_of_interest, establishment"
  },
  {
    "place_id": "ChIJg9lo5DXz6IkRwGVljSfpHeI",
    "name": "The Pizza Place - Hampton Bays",
    "street_address": "125 West Montauk Highway",
    "city": "Hampton Bays",
    "state": "NY",
    "zip_code": "11946",
    "latitude": 40.876372,
    "longitude": -72.5290349,
    "website": "http://www.pizzaplaceinhamptonbays.com/",
    "category": "Restaurant",
    "types": "restaurant, food, point_of_interest, establishment"
  },
  {
    "place_id": "ChIJeWd-UpTy6IkR1cIcQkk7pUc",
    "name": "Slo-Jack's Drive-In",
    "street_address": "212 West Montauk Highway",
    "city": "Hampton Bays",
    "state": "NY",
    "zip_code": "11946",
    "latitude": 40.8725,
    "longitude": -72.5402778,
    "website": null,
    "category": "Restaurant",
    "types": "restaurant, point_of_interest, food, establishment"
  },
  {
    "place_id": "ChIJbaI2q07t6IkRjqbSbS50mSY",
    "name": "Cowfish",
    "street_address": "258 East Montauk Highway",
    "city": "Hampton Bays",
    "state": "NY",
    "zip_code": "11946",
    "latitude": 40.883381,
    "longitude": -72.5015068,
    "website": "http://cowfishrestaurant.com/",
    "category": "Restaurant",
    "types": "restaurant, point_of_interest, food, establishment"
  },
  {
    "place_id": "ChIJn7ICXant6IkRSxjgPzGuVJg",
    "name": "Oakland's Restaurant",
    "street_address": "373 Dune Road",
    "city": "Hampton Bays",
    "state": "NY",
    "zip_code": "11946",
    "latitude": 40.8422619,
    "longitude": -72.4795749,
    "website": "https://www.oaklandsrestaurant.net/",
    "category": "Restaurant",
    "types": "restaurant, point_of_interest, food, establishment"
  },
  {
    "place_id": "ChIJJdAdo07t6IkR5a-fI61FJvM",
    "name": "Out of the Blue Seafood",
    "street_address": "252 East Montauk Highway",
    "city": "Hampton Bays",
    "state": "NY",
    "zip_code": "11946",
    "latitude": 40.8838356,
    "longitude": -72.5039922,
    "website": "http://www.ootbseafood.com/",
    "category": "Restaurant",
    "types": "restaurant, food, point_of_interest, establishment"
  },
  {
    "place_id": "ChIJlUr8tebt6IkRavGHARw3sIg",
    "name": "Fins and Forks",
    "street_address": "78 Foster Avenue",
    "city": "Hampton Bays",
    "state": "NY",
    "zip_code": "11946",
    "latitude": 40.8519879,
    "longitude": -72.50610900000001,
    "website": "http://www.finsandforks.net/",
    "category": "Restaurant",
    "types": "restaurant, food, point_of_interest, establishment"
  },
  {
    "place_id": "ChIJy4hSfqst6IkR6AKWf3UMBLQ",
    "name": "1683 Sports Bar & Grille",
    "street_address": "401 Sunrise Highway",
    "city": "West Islip",
    "state": "NY",
    "zip_code": "11795",
    "latitude": 40.7226046,
    "longitude": -73.29728469999999,
    "website": "http://www.1683bar.com/",
    "category": "Bar & Restaurant",
    "types": "bar, restaurant, point_of_interest, food, establishment"
  },
  {
    "place_id": "ChIJuwA3cH0y6IkRmKfNNmLeCsI",
    "name": "Mustang Sally's",
    "street_address": "186 Howells Road",
    "city": "Bay Shore",
    "state": "NY",
    "zip_code": "11706",
    "latitude": 40.7321664,
    "longitude": -73.2743806,
    "website": null,
    "category": "Bar & Restaurant",
    "types": "bar, restaurant, point_of_interest, food, establishment"
  },
  {
    "place_id": "ChIJe61n3jst6IkRbNdAfb9rFnI",
    "name": "Farrells of Brooklyn",
    "street_address": "263 Higbie Lane",
    "city": "West Islip",
    "state": "NY",
    "zip_code": "11795",
    "latitude": 40.7099112,
    "longitude": -73.3063427,
    "website": "http://www.farrellsofbrooklyn.com/",
    "category": "Bar & Restaurant",
    "types": "bar, restaurant, point_of_interest, food, establishment"
  },
  {
    "place_id": "ChIJ11aHIrgs6IkRiBfPIAiEzRQ",
    "name": "The Pour House Tavern",
    "street_address": "608 Sunrise Highway",
    "city": "West Babylon",
    "state": "NY",
    "zip_code": "11704",
    "latitude": 40.713015,
    "longitude": -73.3488215,
    "website": null,
    "category": "Bar & Restaurant",
    "types": "bar, restaurant, food, point_of_interest, establishment"
  },
  {
    "place_id": "ChIJK2qxvMfV6YkR-XRjDxiLfXI",
    "name": "Belfast Gastropub",
    "street_address": "101 North Wellwood Avenue",
    "city": "Lindenhurst",
    "state": "NY",
    "zip_code": "11757",
    "latitude": 40.6870705,
    "longitude": -73.3740072,
    "website": "https://www.belfastgastropub.com/",
    "category": "Bar & Restaurant",
    "types": "bar, restaurant, food, point_of_interest, establishment"
  },
  {
    "place_id": "ChIJLaPFAjot6IkR87A7WNxE3iQ",
    "name": "Lion's Den",
    "street_address": "191 Higbie Lane",
    "city": "West Islip",
    "state": "NY",
    "zip_code": "11795",
    "latitude": 40.7066791,
    "longitude": -73.3063173,
    "website": "http://wilionsden.com/",
    "category": "Bar & Restaurant",
    "types": "bar, restaurant, point_of_interest, food, establishment"
  },
  {
    "place_id": "ChIJn0nzTyot6IkRCbIpRU7yyT0",
    "name": "Lily's Babylon",
    "street_address": "345 Deer Park Avenue",
    "city": "Babylon",
    "state": "NY",
    "zip_code": "11702",
    "latitude": 40.70172459999999,
    "longitude": -73.3218583,
    "website": "http://lilyflanaganspub.com/",
    "category": "Bar & Restaurant",
    "types": "night_club, bar, restaurant, food, point_of_interest, establishment"
  },
  {
    "place_id": "ChIJnbs_eh4z6IkRQS_rB-YoCL0",
    "name": "Brightwaters Inn - Neighborhood Bar & Grill",
    "street_address": "200 Orinoco Drive",
    "city": "Brightwaters",
    "state": "NY",
    "zip_code": "11718",
    "latitude": 40.7204391,
    "longitude": -73.2673685,
    "website": "http://www.bwibar.com/",
    "category": "Bar & Restaurant",
    "types": "bar, restaurant, food, point_of_interest, establishment"
  },
  {
    "place_id": "ChIJU6fCu3LT6YkR-k9-2u21ePA",
    "name": "VERN Restaurant and Bar",
    "street_address": "301 Bergen Avenue",
    "city": "West Babylon",
    "state": "NY",
    "zip_code": "11704",
    "latitude": 40.6779007,
    "longitude": -73.33895059999999,
    "website": "https://vernny.com/",
    "category": "Restaurant",
    "types": "restaurant, food, point_of_interest, establishment"
  },
  {
    "place_id": "ChIJbZWVHwDV6YkRC4IPkCoTtaI",
    "name": "The Spread Bar and Grill",
    "street_address": "22 West Hoffman Avenue",
    "city": "Lindenhurst",
    "state": "NY",
    "zip_code": "11757",
    "latitude": 40.687208,
    "longitude": -73.3747046,
    "website": "http://thespreadbarandgrill.com/",
    "category": "Bar & Restaurant",
    "types": "bar, restaurant, point_of_interest, food, establishment"
  },
  {
    "place_id": "ChIJZ8VoedXS6YkRMp00VtXmJBo",
    "name": "Babylon Burger Bar",
    "street_address": "1 West Main Street",
    "city": "Babylon",
    "state": "NY",
    "zip_code": "11702",
    "latitude": 40.6967039,
    "longitude": -73.3232273,
    "website": "http://www.babylonburgerbar.com/",
    "category": "Restaurant",
    "types": "restaurant, point_of_interest, food, establishment"
  },
  {
    "place_id": "ChIJq71EQCrT6YkRNvpV1M0SqMQ",
    "name": "Post Office Caf\u00e9",
    "street_address": "130 West Main Street",
    "city": "Babylon",
    "state": "NY",
    "zip_code": "11702",
    "latitude": 40.6957962,
    "longitude": -73.3253605,
    "website": "https://www.postofficecafe.com/",
    "category": "Bar & Restaurant",
    "types": "bar, restaurant, point_of_interest, food, establishment"
  },
  {
    "place_id": "ChIJRSYcBl_T6YkRVgnrVNqeAOA",
    "name": "RipTides Cocktails and Grill",
    "street_address": "168 East Montauk Highway",
    "city": "Lindenhurst",
    "state": "NY",
    "zip_code": "11757",
    "latitude": 40.6808135,
    "longitude": -73.3598509,
    "website": null,
    "category": "Restaurant",
    "types": "restaurant, food, point_of_interest, establishment"
  },
  {
    "place_id": "ChIJLyB43GXT6YkRmAWiOaV86m0",
    "name": "Hurricane Grill & Wings-Lindenhurst",
    "street_address": "127 East Montauk Highway",
    "city": "Lindenhurst",
    "state": "NY",
    "zip_code": "11757",
    "latitude": 40.6793167,
    "longitude": -73.3609639,
    "website": "https://locations.hurricanewings.com/ll/US/NY/Lindenhurst/127-East-Montauk-Highway",
    "category": "Bar & Restaurant",
    "types": "bar, restaurant, food, point_of_interest, establishment"
  },
  {
    "place_id": "ChIJRRiptQ8t6IkRsJ7yP_4xOEY",
    "name": "Red Zone Bar & Grill",
    "street_address": "770 Sunrise Highway",
    "city": "West Babylon",
    "state": "NY",
    "zip_code": "11704",
    "latitude": 40.7133252,
    "longitude": -73.3384701,
    "website": "https://www.redzonebarandgrillny.com/",
    "category": "Bar & Restaurant",
    "types": "bar, restaurant, food, point_of_interest, establishment"
  },
  {
    "place_id": "ChIJM6gTddXS6YkRbmQZxm6SGfk",
    "name": "Mulberry Street Babylon",
    "street_address": "30 East Main Street",
    "city": "Babylon",
    "state": "NY",
    "zip_code": "11702",
    "latitude": 40.6965482,
    "longitude": -73.3225363,
    "website": "http://www.mulberrystreetbabylon.com/",
    "category": "Restaurant",
    "types": "meal_takeaway, restaurant, food, point_of_interest, establishment"
  },
  {
    "place_id": "ChIJ9T7ZNUrT6YkRGl82Rgphgqg",
    "name": "Mary Carroll\u2019s",
    "street_address": "121 Deer Park Avenue",
    "city": "Babylon",
    "state": "NY",
    "zip_code": "11702",
    "latitude": 40.6983824,
    "longitude": -73.32265799999999,
    "website": "http://marycarrolls.com/",
    "category": "Bar & Restaurant",
    "types": "bar, restaurant, food, point_of_interest, establishment"
  },
  {
    "place_id": "ChIJT0TdXZNiwokRvmk5nI7rUEc",
    "name": "The Angry Gnome Pub",
    "street_address": "1217 Jericho Turnpike",
    "city": "New Hyde Park",
    "state": "NY",
    "zip_code": "11040",
    "latitude": 40.7331308,
    "longitude": -73.6834889,
    "website": "https://www.angrygnomepub.com/",
    "category": "Bar & Restaurant",
    "types": "bar, restaurant, point_of_interest, food, establishment"
  },
  {
    "place_id": "ChIJBaRAmhh9wokR9ndavXcM9zA",
    "name": "Tap Room",
    "street_address": "919 Franklin Avenue",
    "city": "Garden City",
    "state": "NY",
    "zip_code": "11530",
    "latitude": 40.72859680000001,
    "longitude": -73.6349443,
    "website": "https://taproomofny.com/",
    "category": "Restaurant",
    "types": "restaurant, food, point_of_interest, establishment"
  },
  {
    "place_id": "ChIJ9W9x9Fl9wokRgI_nTb7ZuAk",
    "name": "Recovery Room Bar & Grill",
    "street_address": "214 Station Plaza North",
    "city": "Mineola",
    "state": "NY",
    "zip_code": "11501",
    "latitude": 40.740802,
    "longitude": -73.640635,
    "website": "http://www.recoveryroombar.com/",
    "category": "Bar & Restaurant",
    "types": "bar, restaurant, point_of_interest, food, establishment"
  },
  {
    "place_id": "ChIJ5ajpHyNjwokRl847hkbbAQI",
    "name": "Elsie Lane New Hyde Park",
    "street_address": "29 Jericho Turnpike",
    "city": "New Hyde Park",
    "state": "NY",
    "zip_code": "11040",
    "latitude": 40.7312483,
    "longitude": -73.69301399999999,
    "website": "https://www.elsielanebar.com/",
    "category": "Bar & Restaurant",
    "types": "bar, restaurant, food, point_of_interest, establishment"
  },
  {
    "place_id": "ChIJLWxEFB9jwokRnsTPGn0cQLc",
    "name": "Trotters Bar & Grill",
    "street_address": "1050 Hempstead Turnpike",
    "city": "Franklin Square",
    "state": "NY",
    "zip_code": "11010",
    "latitude": 40.7080021,
    "longitude": -73.67888359999999,
    "website": "http://trottersbarandgrill.com/",
    "category": "Bar & Restaurant",
    "types": "bar, restaurant, food, point_of_interest, establishment"
  },
  {
    "place_id": "ChIJiYS9sviHwokRI7n9nzFOSwU",
    "name": "Cornerstone Bar",
    "street_address": "288 Jericho Turnpike",
    "city": "Mineola",
    "state": "NY",
    "zip_code": "11501",
    "latitude": 40.74712210000001,
    "longitude": -73.64766329999999,
    "website": "http://www.cornerstoneofmineola.com/",
    "category": "Bar & Restaurant",
    "types": "bar, restaurant, food, point_of_interest, establishment"
  },
  {
    "place_id": "ChIJne_loiFjwokRzcE2eGe3HHM",
    "name": "Murph's",
    "street_address": "935 Hempstead Turnpike",
    "city": "Franklin Square",
    "state": "NY",
    "zip_code": "11010",
    "latitude": 40.7071939,
    "longitude": -73.6747862,
    "website": "http://www.murphsrestaurant.com/",
    "category": "Bar & Restaurant",
    "types": "bar, restaurant, point_of_interest, food, establishment"
  },
  {
    "place_id": "ChIJN8c_n-aHwokRV8s57BvPEvo",
    "name": "Finnegan's Pub",
    "street_address": "607 Willis Avenue",
    "city": "Williston Park",
    "state": "NY",
    "zip_code": "11596",
    "latitude": 40.7612602,
    "longitude": -73.6463775,
    "website": "http://www.finneganspub.org/",
    "category": "Bar & Restaurant",
    "types": "bar, restaurant, point_of_interest, food, establishment"
  },
  {
    "place_id": "ChIJJ4KUJeWHwokRB5manukntIk",
    "name": "Memories 2 Bar & Grill",
    "street_address": "121 Hillside Avenue",
    "city": "Williston Park",
    "state": "NY",
    "zip_code": "11596",
    "latitude": 40.7564889,
    "longitude": -73.6440673,
    "website": "https://memoriesbarandgrill.com/",
    "category": "Bar & Restaurant",
    "types": "restaurant, bar, food, point_of_interest, establishment"
  },
  {
    "place_id": "ChIJSXDBnkB9wokRPiZOkIUoVbE",
    "name": "Leo's Tavern",
    "street_address": "190 7th Street",
    "city": "Garden City",
    "state": "NY",
    "zip_code": "11530",
    "latitude": 40.72504300000001,
    "longitude": -73.634146,
    "website": "http://www.leosgc.com/",
    "category": "Bar & Restaurant",
    "types": "bar, restaurant, food, point_of_interest, establishment"
  },
  {
    "place_id": "ChIJ-RgsaRhjwokRbcx0wlkE4yk",
    "name": "Brews Brothers Grille",
    "street_address": "183 Franklin Avenue",
    "city": "Franklin Square",
    "state": "NY",
    "zip_code": "11010",
    "latitude": 40.7030935,
    "longitude": -73.6781615,
    "website": "http://www.brewsbrothersgrille.com/",
    "category": "Bar & Restaurant",
    "types": "bar, restaurant, food, point_of_interest, establishment"
  },
  {
    "place_id": "ChIJG8BQnUB9wokRRtfWTNBwUgY",
    "name": "Prost Grill & Garten",
    "street_address": "652 Franklin Avenue",
    "city": "Garden City",
    "state": "NY",
    "zip_code": "11530",
    "latitude": 40.7245683,
    "longitude": -73.6341188,
    "website": "http://prostgrill.com/",
    "category": "Bar & Restaurant",
    "types": "bar, restaurant, food, point_of_interest, establishment"
  },
  {
    "place_id": "ChIJSUrGDmaHwokREYGnW4YMZwA",
    "name": "Canz Bar & Grill",
    "street_address": "1610 Old Country Road",
    "city": "Westbury",
    "state": "NY",
    "zip_code": "11590",
    "latitude": 40.74681109999999,
    "longitude": -73.5889409,
    "website": "https://www.canzwestburyli.com/",
    "category": "Bar & Restaurant",
    "types": "bar, restaurant, food, point_of_interest, establishment"
  },
  {
    "place_id": "ChIJ7SsyvVl9wokR6KJ_UfEo4kQ",
    "name": "The St. James",
    "street_address": "190 2nd Street",
    "city": "Mineola",
    "state": "NY",
    "zip_code": "11501",
    "latitude": 40.74182219999999,
    "longitude": -73.63970239999999,
    "website": "https://www.stjamesmineola.com/",
    "category": "Bar & Restaurant",
    "types": "restaurant, bar, food, point_of_interest, establishment"
  },
  {
    "place_id": "ChIJHwSuCCBjwokR4smHAYy6w-g",
    "name": "Croxley's Franklin Square",
    "street_address": "129 New Hyde Park Road",
    "city": "Franklin Square",
    "state": "NY",
    "zip_code": "11010",
    "latitude": 40.7109104,
    "longitude": -73.6766846,
    "website": "https://www.croxley.com/",
    "category": "Bar & Restaurant",
    "types": "bar, restaurant, food, point_of_interest, establishment"
  },
  {
    "place_id": "ChIJ3YSr8pN9wokRef8UOQVHar4",
    "name": "Crop & Kettle",
    "street_address": "101 James Doolittle Boulevard",
    "city": "Uniondale",
    "state": "NY",
    "zip_code": "11553",
    "latitude": 40.7233887,
    "longitude": -73.5875694,
    "website": "https://www.marriott.com/en-us/hotels/nycli-long-island-marriott/dining/?scid=feed67b0-9a2f-4de1-8df6-114544116108",
    "category": "Restaurant",
    "types": "restaurant, food, point_of_interest, establishment"
  },
  {
    "place_id": "ChIJ3yrQVhKHwokRgDoQuTxrlyY",
    "name": "The Jacket Bar & Micro Brewery",
    "street_address": "303 Willis Avenue",
    "city": "Mineola",
    "state": "NY",
    "zip_code": "11501",
    "latitude": 40.75009419999999,
    "longitude": -73.6418679,
    "website": "https://www.thejacketny.com/",
    "category": "Bar & Restaurant",
    "types": "bar, restaurant, point_of_interest, food, establishment"
  },
  {
    "place_id": "ChIJVSOXfD99wokRIKrEzcTfGlg",
    "name": "BK Sweeney's Uptown Grille",
    "street_address": "636 Franklin Avenue",
    "city": "Garden City",
    "state": "NY",
    "zip_code": "11530",
    "latitude": 40.7240922,
    "longitude": -73.63391349999999,
    "website": "https://www.bksweeneysuptowngrille.com/",
    "category": "Bar & Restaurant",
    "types": "bar, restaurant, food, point_of_interest, establishment"
  },
  {
    "place_id": "ChIJt9ds4ex8wokRVf_rRW5A5NM",
    "name": "Radigan's Pub And Casual Dining",
    "street_address": "1094 Long Beach Road",
    "city": "South Hempstead",
    "state": "NY",
    "zip_code": "11550",
    "latitude": 40.684876,
    "longitude": -73.6215589,
    "website": "http://radiganspub.com/",
    "category": "Bar & Restaurant",
    "types": "restaurant, bar, point_of_interest, food, establishment"
  },
  {
    "place_id": "ChIJb_i7TuViwokRZGmBBFCRZ60",
    "name": "Park Place",
    "street_address": "1218 Jericho Turnpike",
    "city": "New Hyde Park",
    "state": "NY",
    "zip_code": "11040",
    "latitude": 40.7329297,
    "longitude": -73.6828495,
    "website": "http://www.parkplacefp.com/",
    "category": "Bar & Restaurant",
    "types": "restaurant, meal_takeaway, food, bar, point_of_interest, establishment"
  },
  {
    "place_id": "ChIJ9VKlkKBiwokR37IxN14HftU",
    "name": "The Clubhouse",
    "street_address": "377 Denton Avenue",
    "city": "New Hyde Park",
    "state": "NY",
    "zip_code": "11040",
    "latitude": 40.74904480000001,
    "longitude": -73.6742519,
    "website": "https://www.theclubhouseny.com/food-menu-1",
    "category": "Bar & Restaurant",
    "types": "restaurant, food, bar, point_of_interest, establishment"
  },
  {
    "place_id": "ChIJ56BNAX2HwokRqqppNqym0tI",
    "name": "City Cellar Wine Bar & Grill",
    "street_address": "1080 Corporate Drive",
    "city": "Westbury",
    "state": "NY",
    "zip_code": "11590",
    "latitude": 40.740659,
    "longitude": -73.5989725,
    "website": "http://www.citycellarny.com/",
    "category": "Bar & Restaurant",
    "types": "bar, restaurant, food, point_of_interest, establishment"
  },
  {
    "place_id": "ChIJH73TG-diwokR57_RVgi6TYc",
    "name": "Repeal Bar & Restaurant",
    "street_address": "55 New Hyde Park Road",
    "city": "Garden City",
    "state": "NY",
    "zip_code": "11530",
    "latitude": 40.718063,
    "longitude": -73.6792413,
    "website": "https://www.repealgc.com/",
    "category": "Bar & Restaurant",
    "types": "restaurant, bar, food, point_of_interest, establishment"
  },
  {
    "place_id": "ChIJBXrPSdFiwokRKhTTXmQPm4Y",
    "name": "Doc O'Grady's",
    "street_address": "273 Nassau Boulevard South",
    "city": "Garden City South",
    "state": "NY",
    "zip_code": "11530",
    "latitude": 40.714336,
    "longitude": -73.66105929999999,
    "website": "http://www.docogradys.com/",
    "category": "Bar & Restaurant",
    "types": "bar, restaurant, food, point_of_interest, establishment"
  },
  {
    "place_id": "ChIJ0zSeIEF9wokRLq4g1GGs364",
    "name": "Revel Restaurant & Bar",
    "street_address": "835 Franklin Avenue",
    "city": "Garden City",
    "state": "NY",
    "zip_code": "11530",
    "latitude": 40.7276476,
    "longitude": -73.63463430000002,
    "website": "http://www.revelrestaurant.com/",
    "category": "Bar & Restaurant",
    "types": "restaurant, night_club, bar, food, point_of_interest, establishment"
  },
  {
    "place_id": "ChIJ12a3veZ9wokRF0FbhVCN2Io",
    "name": "King Bar by David Burke",
    "street_address": "45 7th Street",
    "city": "Garden City",
    "state": "NY",
    "zip_code": "11530",
    "latitude": 40.72463619999999,
    "longitude": -73.64056649999999,
    "website": "https://www.opentable.com/r/king-bar-garden-city",
    "category": "Bar & Restaurant",
    "types": "restaurant, bar, food, point_of_interest, establishment"
  },
  {
    "place_id": "ChIJ-z2zxn19wokRpJU74tY37Sg",
    "name": "Nordstrom Grill",
    "street_address": "630 Old Country Road",
    "city": "Garden City",
    "state": "NY",
    "zip_code": "11530",
    "latitude": 40.73673799999999,
    "longitude": -73.61035869999999,
    "website": "https://www.nordstrom.com/store-details/nordstrom-roosevelt-field?utm_source=google&utm_medium=organic&utm_campaign=food&utm_content=36524&utm_channel=low_nd_seo_local&sp_source=google&sp_campaign=food",
    "category": "Bar & Restaurant",
    "types": "bar, restaurant, food, point_of_interest, establishment"
  },
  {
    "place_id": "ChIJPzHc5K5iwokRb3kUv-6ag40",
    "name": "Your Mother's House",
    "street_address": "2349 Jericho Turnpike",
    "city": "Garden City Park",
    "state": "NY",
    "zip_code": "11040",
    "latitude": 40.7420301,
    "longitude": -73.6620138,
    "website": "http://mothershouseli.com/",
    "category": "Bar & Restaurant",
    "types": "bar, restaurant, food, point_of_interest, establishment"
  },
  {
    "place_id": "ChIJN3XcYuWHwokREDoo3j6f340",
    "name": "Sangria 71",
    "street_address": "71 Hillside Avenue",
    "city": "Williston Park",
    "state": "NY",
    "zip_code": "11596",
    "latitude": 40.7572053,
    "longitude": -73.6420789,
    "website": "http://www.sangria71.com/",
    "category": "Bar & Restaurant",
    "types": "bar, restaurant, point_of_interest, food, establishment"
  },
  {
    "place_id": "ChIJ80BmvyljwokRLGO0u8SCweQ",
    "name": "Caffe Barocco",
    "street_address": "143 Nassau Boulevard",
    "city": "West Hempstead",
    "state": "NY",
    "zip_code": "11552",
    "latitude": 40.71051259999999,
    "longitude": -73.661301,
    "website": "https://www.baroccocaffe.com/",
    "category": "Bar & Restaurant",
    "types": "cafe, restaurant, bar, food, store, point_of_interest, establishment"
  },
  {
    "place_id": "ChIJtQYJLIeHwokRC0paqPyG7ds",
    "name": "Passione Della Cucina",
    "street_address": "231 Old Country Road",
    "city": "Carle Place",
    "state": "NY",
    "zip_code": "11514",
    "latitude": 40.7447157,
    "longitude": -73.6135601,
    "website": "http://passione-restaurant.com/",
    "category": "Bar & Restaurant",
    "types": "bar, restaurant, food, point_of_interest, establishment"
  },
  {
    "place_id": "ChIJxfx_13qHwokRPfJZx-oGv4Q",
    "name": "Dave & Buster's Westbury",
    "street_address": "1504 Old Country Road",
    "city": "Westbury",
    "state": "NY",
    "zip_code": "11590",
    "latitude": 40.7445961,
    "longitude": -73.5936237,
    "website": "https://www.daveandbusters.com/us/en/about/locations/westbury",
    "category": "Bar & Restaurant",
    "types": "bar, restaurant, point_of_interest, food, establishment"
  },
  {
    "place_id": "ChIJkVmZFl99wokRdzD5OgjFgM0",
    "name": "The Black Sheep Ale House",
    "street_address": "78 2nd Street",
    "city": "Mineola",
    "state": "NY",
    "zip_code": "11501",
    "latitude": 40.74307819999999,
    "longitude": -73.63439640000001,
    "website": "https://www.facebook.com/BlackSheepMineola/",
    "category": "Bar & Restaurant",
    "types": "bar, restaurant, food, point_of_interest, establishment"
  },
  {
    "place_id": "ChIJfSLbgKYp6IkRBhu4ZnwgNWE",
    "name": "Tap Room",
    "street_address": "363 New York Avenue",
    "city": "Huntington",
    "state": "NY",
    "zip_code": "11743",
    "latitude": 40.8700292,
    "longitude": -73.4264465,
    "website": "https://taproomofny.com/locations/huntington/",
    "category": "Bar & Restaurant",
    "types": "restaurant, bar, food, point_of_interest, establishment"
  },
  {
    "place_id": "ChIJe3M6cHgo6IkRWkn_HezJj0w",
    "name": "Finnegan's",
    "street_address": "5 Wall Street",
    "city": "Huntington",
    "state": "NY",
    "zip_code": "11743",
    "latitude": 40.8714762,
    "longitude": -73.4277286,
    "website": "https://www.lessings.com/corporate/restaurants/venue/finnegans",
    "category": "Bar & Restaurant",
    "types": "bar, restaurant, food, point_of_interest, establishment"
  },
  {
    "place_id": "ChIJ2eyjb3go6IkR6YEAHmmlWQw",
    "name": "Sapsuckers",
    "street_address": "287 Main Street",
    "city": "Huntington",
    "state": "NY",
    "zip_code": "11743",
    "latitude": 40.8712035,
    "longitude": -73.4277225,
    "website": "http://sapsuckersli.com/",
    "category": "Bar & Restaurant",
    "types": "bar, restaurant, food, point_of_interest, establishment"
  },
  {
    "place_id": "ChIJCSneNksp6IkR8P7RZxnrWLg",
    "name": "Elsie Lane Huntington",
    "street_address": "295 Main Street",
    "city": "Huntington",
    "state": "NY",
    "zip_code": "11743",
    "latitude": 40.8712096,
    "longitude": -73.4280003,
    "website": "http://elsielanewinghouse.com/",
    "category": "Bar & Restaurant",
    "types": "restaurant, bar, point_of_interest, food, establishment"
  },
  {
    "place_id": "ChIJjUpK5Xgo6IkRYaAHm4IX5lQ",
    "name": "Meehan's of Huntington",
    "street_address": "371 New York Avenue",
    "city": "Huntington",
    "state": "NY",
    "zip_code": "11743",
    "latitude": 40.8698461,
    "longitude": -73.42641929999999,
    "website": "http://www.meehansrestaurant.com/",
    "category": "Bar & Restaurant",
    "types": "restaurant, bar, food, point_of_interest, establishment"
  },
  {
    "place_id": "ChIJt3cL7-Eo6IkRNKy37ZjhK3c",
    "name": "Instant Replay Sports Bar",
    "street_address": "282 East Jericho Turnpike",
    "city": "Huntington Station",
    "state": "NY",
    "zip_code": "11746",
    "latitude": 40.8289902,
    "longitude": -73.3991788,
    "website": "https://www.instagram.com/instantreplayhuntington/",
    "category": "Bar & Restaurant",
    "types": "bar, restaurant, point_of_interest, food, establishment"
  },
  {
    "place_id": "ChIJxxpCxswn6IkRi9Efs0Fnnp0",
    "name": "Shamrock",
    "street_address": "138 New York Avenue",
    "city": "Halesite",
    "state": "NY",
    "zip_code": "11743",
    "latitude": 40.885029,
    "longitude": -73.417873,
    "website": "https://www.facebook.com/theshamrockhuntington",
    "category": "Bar & Restaurant",
    "types": "bar, restaurant, food, point_of_interest, establishment"
  },
  {
    "place_id": "ChIJPS8MfHgo6IkRqVl6vQN4Ub0",
    "name": "Christopher's",
    "street_address": "8 Wall Street",
    "city": "Huntington",
    "state": "NY",
    "zip_code": "11743",
    "latitude": 40.8715952,
    "longitude": -73.42726780000001,
    "website": "https://instagram.com/christophersofhuntington?igshid=YTQwZjQ0NmI0OA==",
    "category": "Bar & Restaurant",
    "types": "bar, restaurant, point_of_interest, food, establishment"
  },
  {
    "place_id": "ChIJsQEptTQm6IkRhCixx4LSkA4",
    "name": "Prime: An American Kitchen & Bar",
    "street_address": "117 North New York Avenue",
    "city": "Huntington",
    "state": "NY",
    "zip_code": "11743",
    "latitude": 40.8864391,
    "longitude": -73.4181363,
    "website": "https://huntington.restaurantprime.com/",
    "category": "Bar & Restaurant",
    "types": "bar, restaurant, point_of_interest, food, establishment"
  },
  {
    "place_id": "ChIJraUk_Mgp6IkREs22KW4eK_4",
    "name": "OHK Bar & Restaurant",
    "street_address": "135 West Gate Drive",
    "city": "Huntington",
    "state": "NY",
    "zip_code": "11743",
    "latitude": 40.829014,
    "longitude": -73.4484828,
    "website": "http://www.ohkbarandrestaurant.com/",
    "category": "Bar & Restaurant",
    "types": "restaurant, food, bar, point_of_interest, establishment"
  },
  {
    "place_id": "ChIJ35lk4Xgo6IkR4EVQIG7P4Jc",
    "name": "Huntington Village Tavern",
    "street_address": "378 New York Avenue",
    "city": "Huntington",
    "state": "NY",
    "zip_code": "11743",
    "latitude": 40.8694116,
    "longitude": -73.4258978,
    "website": "http://dlib.info/home/kaeny13/specials.html",
    "category": "Bar & Restaurant",
    "types": "bar, restaurant, point_of_interest, food, establishment"
  },
  {
    "place_id": "ChIJJ2Jhdegp6IkR6NkXFDhM6M4",
    "name": "Repeal XVIII",
    "street_address": "30 New Street",
    "city": "Huntington",
    "state": "NY",
    "zip_code": "11743",
    "latitude": 40.8699997,
    "longitude": -73.4269644,
    "website": "https://repealxviii.com/",
    "category": "Bar & Restaurant",
    "types": "bar, night_club, restaurant, point_of_interest, food, establishment"
  },
  {
    "place_id": "ChIJhbyEQqMp6IkR5ARzxDKBmtc",
    "name": "The Bryant",
    "street_address": "100 Walt Whitman Road",
    "city": "Huntington Station",
    "state": "NY",
    "zip_code": "11746",
    "latitude": 40.82730309999999,
    "longitude": -73.4110687,
    "website": "https://www.thebryantrestaurant.com/",
    "category": "Restaurant",
    "types": "restaurant, food, point_of_interest, establishment"
  },
  {
    "place_id": "ChIJd3qjuf4p6IkRED-mZbI7MS8",
    "name": "The Last Word",
    "street_address": "13 Wall Street",
    "city": "Huntington",
    "state": "NY",
    "zip_code": "11743",
    "latitude": 40.87170259999999,
    "longitude": -73.42775859999999,
    "website": "https://thelastwordhuntington.com/",
    "category": "Restaurant",
    "types": "restaurant, food, point_of_interest, establishment"
  },
  {
    "place_id": "ChIJ67NrePwl6IkR658dr64tXw8",
    "name": "Healy's Inn",
    "street_address": "54 Broadway",
    "city": "Greenlawn",
    "state": "NY",
    "zip_code": "11740",
    "latitude": 40.8696866,
    "longitude": -73.36496509999999,
    "website": "http://www.healysinnofgreenlawn.com/",
    "category": "Restaurant",
    "types": "restaurant, point_of_interest, food, establishment"
  },
  {
    "place_id": "ChIJ6-anXg4p6IkRf9hhdKm_fYc",
    "name": "Golden globe diner",
    "street_address": "365 Main Street",
    "city": "Huntington",
    "state": "NY",
    "zip_code": "11743",
    "latitude": 40.8708473,
    "longitude": -73.43134959999999,
    "website": "http://goldenglobediner.com/",
    "category": "Restaurant",
    "types": "restaurant, point_of_interest, food, establishment"
  },
  {
    "place_id": "ChIJq90j5Xgo6IkR5y5LIUTyY8E",
    "name": "Swallow Kitchen & Cocktails",
    "street_address": "91 Broadway Greenlawn",
    "city": "Greenlawn",
    "state": "NY",
    "zip_code": "11740",
    "latitude": 40.8664163,
    "longitude": -73.3646483,
    "website": "https://www.swallowkitchenandcocktails.com/",
    "category": "Restaurant",
    "types": "restaurant, food, point_of_interest, establishment"
  },
  {
    "place_id": "ChIJwX_Y9QMo6IkRodxUodyujLA",
    "name": "Sandbar",
    "street_address": "55 Main Street",
    "city": "Cold Spring Harbor",
    "state": "NY",
    "zip_code": "11724",
    "latitude": 40.8705868,
    "longitude": -73.4591219,
    "website": "http://www.sandbarcoldspringharbor.com/",
    "category": "Bar & Restaurant",
    "types": "bar, restaurant, food, point_of_interest, establishment"
  },
  {
    "place_id": "ChIJaTe2UNV_wokRUuBeRWmtzx8",
    "name": "The Irish Poet Restaurant Bar",
    "street_address": "1891 Wantagh Avenue",
    "city": "Wantagh",
    "state": "NY",
    "zip_code": "11793",
    "latitude": 40.6746953,
    "longitude": -73.50941639999999,
    "website": "https://irishpoetny.com/",
    "category": "Bar & Restaurant",
    "types": "bar, restaurant, point_of_interest, food, establishment"
  },
  {
    "place_id": "ChIJ5dli6F7V6YkR7lhfTN6Gl_M",
    "name": "Dark Horse Tavern MP",
    "street_address": "1029 Park Boulevard",
    "city": "Massapequa Park",
    "state": "NY",
    "zip_code": "11762",
    "latitude": 40.6793292,
    "longitude": -73.45542929999999,
    "website": "http://www.darkhorsetavernmp.com/",
    "category": "Bar & Restaurant",
    "types": "bar, restaurant, food, point_of_interest, establishment"
  },
  {
    "place_id": "ChIJYdpMhoLV6YkRhDJ7r44q-ns",
    "name": "Tap Room",
    "street_address": "1010 Park Boulevard",
    "city": "Massapequa Park",
    "state": "NY",
    "zip_code": "11762",
    "latitude": 40.6785565,
    "longitude": -73.4561714,
    "website": "https://taproomofny.com/locations/massapequa-park/",
    "category": "Bar & Restaurant",
    "types": "restaurant, bar, point_of_interest, food, establishment"
  },
  {
    "place_id": "ChIJB-b7LXWAwokRkqMPDdyso_Y",
    "name": "Jackie Reilly's",
    "street_address": "3964 Hempstead Turnpike",
    "city": "Bethpage",
    "state": "NY",
    "zip_code": "11714",
    "latitude": 40.724412,
    "longitude": -73.4897348,
    "website": "http://jackiereillys.com/",
    "category": "Bar & Restaurant",
    "types": "bar, restaurant, point_of_interest, food, establishment"
  },
  {
    "place_id": "ChIJrVl7bC1_wokRpvDLS1ugqqI",
    "name": "Ridgewood Station Tavern",
    "street_address": "3231 Sunrise Highway",
    "city": "Wantagh",
    "state": "NY",
    "zip_code": "11793",
    "latitude": 40.6720841,
    "longitude": -73.5099054,
    "website": "http://ridgewoodstation.com/",
    "category": "Restaurant",
    "types": "restaurant, food, point_of_interest, establishment"
  },
  {
    "place_id": "ChIJR2YA2Ql_wokRm7boYMN9Zmw",
    "name": "Craft Kitchen & Tap House Wantagh",
    "street_address": "1885 Wantagh Avenue",
    "city": "Wantagh",
    "state": "NY",
    "zip_code": "11793",
    "latitude": 40.6748111,
    "longitude": -73.50941639999999,
    "website": "http://www.craftkitchenandtaphouse.com/",
    "category": "Bar & Restaurant",
    "types": "restaurant, food, bar, point_of_interest, establishment"
  },
  {
    "place_id": "ChIJybBdWVt_wokRe7163FmWV08",
    "name": "Bunker Hill American Taproom",
    "street_address": "1912 Wantagh Avenue",
    "city": "Wantagh",
    "state": "NY",
    "zip_code": "11793",
    "latitude": 40.6743641,
    "longitude": -73.51046769999999,
    "website": "https://www.bunkerhillny.com/",
    "category": "Bar & Restaurant",
    "types": "bar, restaurant, food, point_of_interest, establishment"
  },
  {
    "place_id": "ChIJg81GHR1_wokRc887AWoyswI",
    "name": "Boss Crokers",
    "street_address": "1871 Wantagh Avenue",
    "city": "Wantagh",
    "state": "NY",
    "zip_code": "11793",
    "latitude": 40.67512199999999,
    "longitude": -73.509301,
    "website": "https://m.facebook.com/pages/Boss-Crokers-Bar-and-Grill/140422159354079",
    "category": "Bar & Restaurant",
    "types": "bar, restaurant, food, point_of_interest, establishment"
  },
  {
    "place_id": "ChIJbSS3rF_V6YkRVkkgkMJFRMI",
    "name": "The Village Pub",
    "street_address": "923 North Broadway",
    "city": "North Massapequa",
    "state": "NY",
    "zip_code": "11758",
    "latitude": 40.7016513,
    "longitude": -73.4625494,
    "website": null,
    "category": "Bar & Restaurant",
    "types": "restaurant, food, bar, point_of_interest, establishment"
  },
  {
    "place_id": "ChIJw0kEXpB_wokRr3S2Yg0SHtI",
    "name": "Paddy's Loft",
    "street_address": "1286 Hicksville Road",
    "city": "Massapequa",
    "state": "NY",
    "zip_code": "11758",
    "latitude": 40.69345939999999,
    "longitude": -73.4798567,
    "website": "http://www.paddysloft.com/",
    "category": "Bar & Restaurant",
    "types": "bar, restaurant, food, point_of_interest, establishment"
  },
  {
    "place_id": "ChIJG0cHJLLV6YkRVkPsktaRtvg",
    "name": "Toomey's Tavern",
    "street_address": "251 South Ketcham Avenue",
    "city": "Amityville",
    "state": "NY",
    "zip_code": "11701",
    "latitude": 40.66243159999999,
    "longitude": -73.4240949,
    "website": "http://toomeystavernamityville.com/",
    "category": "Bar & Restaurant",
    "types": "bar, restaurant, point_of_interest, food, establishment"
  },
  {
    "place_id": "ChIJJ6Wj-f3U6YkRrzDlyDL0vV8",
    "name": "Amity Ales",
    "street_address": "192 Broadway",
    "city": "Amityville",
    "state": "NY",
    "zip_code": "11701",
    "latitude": 40.6788049,
    "longitude": -73.41775990000001,
    "website": "http://amityales.com/",
    "category": "Bar & Restaurant",
    "types": "restaurant, bar, food, point_of_interest, establishment"
  },
  {
    "place_id": "ChIJvxLVMBx_wokRuJGGT1uHp2I",
    "name": "Wantagh Inn",
    "street_address": "3264 Railroad Avenue",
    "city": "Wantagh",
    "state": "NY",
    "zip_code": "11793",
    "latitude": 40.672648,
    "longitude": -73.50911649999999,
    "website": "http://www.thewantaghinn.com/",
    "category": "Bar & Restaurant",
    "types": "bar, restaurant, food, point_of_interest, establishment"
  },
  {
    "place_id": "ChIJC5LDooLV6YkRyO4XxT4KPsk",
    "name": "Johnny McGorey's Pub",
    "street_address": "131 Front Street",
    "city": "Massapequa Park",
    "state": "NY",
    "zip_code": "11762",
    "latitude": 40.678231,
    "longitude": -73.454855,
    "website": null,
    "category": "Bar & Restaurant",
    "types": "bar, restaurant, food, point_of_interest, establishment"
  },
  {
    "place_id": "ChIJlwK6Cft_wokRf7LOKVyX9os",
    "name": "Brixx Bar and Grill",
    "street_address": "2819 North Jerusalem Road",
    "city": "East Meadow",
    "state": "NY",
    "zip_code": "11554",
    "latitude": 40.70687859999999,
    "longitude": -73.5307006,
    "website": "https://www.facebook.com/BrixxBarEastMeadow/",
    "category": "Bar & Restaurant",
    "types": "bar, restaurant, point_of_interest, food, establishment"
  },
  {
    "place_id": "ChIJXdOBlCh-wokRi3aQObMn_tk",
    "name": "Miller's Ale House",
    "street_address": "3046 Hempstead Turnpike",
    "city": "Levittown",
    "state": "NY",
    "zip_code": "11756",
    "latitude": 40.7241994,
    "longitude": -73.523119,
    "website": "https://millersalehouse.com/locations/levittown/?utm_source=gmb&utm_medium=organic",
    "category": "Bar & Restaurant",
    "types": "restaurant, meal_takeaway, food, bar, point_of_interest, establishment"
  },
  {
    "place_id": "ChIJBUxRaHjV6YkRGdXEGpkfSHY",
    "name": "The Good Life",
    "street_address": "1039 Park Boulevard",
    "city": "Massapequa Park",
    "state": "NY",
    "zip_code": "11762",
    "latitude": 40.6799456,
    "longitude": -73.4551864,
    "website": "http://www.thegoodlifeny.com/",
    "category": "Bar & Restaurant",
    "types": "bar, restaurant, point_of_interest, food, establishment"
  },
  {
    "place_id": "ChIJkeAhERZ_wokRCFJe3H70vE0",
    "name": "McBride's",
    "street_address": "101 Bedford Avenue",
    "city": "Bellmore",
    "state": "NY",
    "zip_code": "11710",
    "latitude": 40.66956219999999,
    "longitude": -73.52734199999999,
    "website": "https://www.facebook.com/McbridesOfBellmore/",
    "category": "Restaurant",
    "types": "restaurant, food, point_of_interest, establishment"
  },
  {
    "place_id": "ChIJ3fuJgCt-wokR7_7OEpA0s0s",
    "name": "The Dawg Pound Bar & Grill",
    "street_address": "162 Gardiners Avenue",
    "city": "Levittown",
    "state": "NY",
    "zip_code": "11756",
    "latitude": 40.7219717,
    "longitude": -73.5162229,
    "website": "https://www.thedawgpoundbarandgrill.com/",
    "category": "Bar & Restaurant",
    "types": "bar, restaurant, food, point_of_interest, establishment"
  },
  {
    "place_id": "ChIJ_y5tNP7U6YkRXmtPOBSdPUQ",
    "name": "Carney's Irish Pub & Restaurant",
    "street_address": "136 Broadway",
    "city": "Amityville",
    "state": "NY",
    "zip_code": "11701",
    "latitude": 40.6759592,
    "longitude": -73.4168657,
    "website": "https://carneysamityvilleny.com/",
    "category": "Bar & Restaurant",
    "types": "bar, restaurant, food, point_of_interest, establishment"
  },
  {
    "place_id": "ChIJ_TGqrvUl6IkRyy8rbPce_WQ",
    "name": "Birdie Bar",
    "street_address": "688 Fort Salonga Road",
    "city": "Northport",
    "state": "NY",
    "zip_code": "11768",
    "latitude": 40.8947408,
    "longitude": -73.3357527,
    "website": "http://www.birdiebarnpt.com/",
    "category": "Restaurant",
    "types": "restaurant, point_of_interest, food, establishment"
  },
  {
    "place_id": "ChIJq367Mnkl6IkRPzZ-gJH9XLU",
    "name": "Changing Times Ale House",
    "street_address": "526B Larkfield Road",
    "city": "East Northport",
    "state": "NY",
    "zip_code": "11731",
    "latitude": 40.861537,
    "longitude": -73.32085700000002,
    "website": "http://changingtimesalehouse.changingtimespubs.com/",
    "category": "Bar & Restaurant",
    "types": "bar, restaurant, food, point_of_interest, establishment"
  },
  {
    "place_id": "ChIJH1GIxNwl6IkRnv270KCNnf4",
    "name": "The Shack",
    "street_address": "Hollow Rd",
    "city": "Centerport",
    "state": "NY",
    "zip_code": "11721",
    "latitude": 40.8849678,
    "longitude": -73.35993189999999,
    "website": "http://www.theshack25a.com/",
    "category": "Restaurant",
    "types": "restaurant, food, point_of_interest, establishment"
  },
  {
    "place_id": "ChIJ62bBJLIl6IkRL9KoWVxbJvs",
    "name": "Napper Tandy's Irish Pub",
    "street_address": "229 Laurel Avenue",
    "city": "Northport",
    "state": "NY",
    "zip_code": "11768",
    "latitude": 40.8937906,
    "longitude": -73.33734790000001,
    "website": "https://northport.nappertandysirishpub.com/",
    "category": "Bar & Restaurant",
    "types": "bar, restaurant, food, point_of_interest, establishment"
  },
  {
    "place_id": "ChIJi4kXNcsl6IkRdEc35MPw2xE",
    "name": "Skippers",
    "street_address": "34 Main Street",
    "city": "Northport",
    "state": "NY",
    "zip_code": "11768",
    "latitude": 40.900012,
    "longitude": -73.3515197,
    "website": "http://www.skippersnpt.com/",
    "category": "Bar & Restaurant",
    "types": "bar, restaurant, food, point_of_interest, establishment"
  },
  {
    "place_id": "ChIJG7rQ0zQk6IkRjtTRYHgTmLI",
    "name": "Feed and Grain",
    "street_address": "73 Main Street",
    "city": "Northport",
    "state": "NY",
    "zip_code": "11768",
    "latitude": 40.9004139,
    "longitude": -73.35083329999999,
    "website": "http://www.thefeedandgrain.com/",
    "category": "Restaurant",
    "types": "restaurant, food, point_of_interest, establishment"
  },
  {
    "place_id": "ChIJcyuuAcYl6IkRTvdzwGCI7RE",
    "name": "Whales Tale",
    "street_address": "81 Fort Salonga Road",
    "city": "Northport",
    "state": "NY",
    "zip_code": "11768",
    "latitude": 40.89086220000001,
    "longitude": -73.3540881,
    "website": "https://www.thewhalestalenorthport.com/?utm_source=google-gmb-maps&utm_medium=gmb-website-button&utm_campaign=locl.io&utm_content=dd2df7a3-f904-4d71-9c82-d38f3b8cc6b7",
    "category": "Restaurant",
    "types": "restaurant, point_of_interest, food, establishment"
  },
  {
    "place_id": "ChIJyyl4zDQk6IkRyvYGkLj-gME",
    "name": "Main Street Cafe",
    "street_address": "47 Main Street",
    "city": "Northport",
    "state": "NY",
    "zip_code": "11768",
    "latitude": 40.900291,
    "longitude": -73.351377,
    "website": "https://www.mainstreetcafenorthport.com/",
    "category": "Bar & Restaurant",
    "types": "bar, restaurant, food, point_of_interest, establishment"
  },
  {
    "place_id": "ChIJncchHbIl6IkRYxi6xL3rIfA",
    "name": "Sweet Mama's",
    "street_address": "9 Alsace Place",
    "city": "Northport",
    "state": "NY",
    "zip_code": "11768",
    "latitude": 40.89317870000001,
    "longitude": -73.33647239999999,
    "website": "https://www.sweetmamasli.com/",
    "category": "Restaurant",
    "types": "restaurant, food, point_of_interest, establishment"
  },
  {
    "place_id": "ChIJ2V-szDQk6IkRasrUm9Mg3HQ",
    "name": "Bistro 44",
    "street_address": "44 Main Street",
    "city": "Northport",
    "state": "NY",
    "zip_code": "11768",
    "latitude": 40.900004,
    "longitude": -73.35132,
    "website": "http://www.bistro44.net/",
    "category": "Restaurant",
    "types": "restaurant, point_of_interest, food, establishment"
  },
  {
    "place_id": "ChIJ42eIW1wn6IkRfGpspRaQKfk",
    "name": "U.S. Brews",
    "street_address": "109 Mill Dam Road",
    "city": "Centerport",
    "state": "NY",
    "zip_code": "11721",
    "latitude": 40.8901601,
    "longitude": -73.3834318,
    "website": "http://usbrews.com/",
    "category": "Bar & Restaurant",
    "types": "liquor_store, restaurant, bar, food, store, point_of_interest, establishment"
  },
  {
    "place_id": "ChIJlykUm-Ql6IkRWQ57zPsfcbc",
    "name": "Riley's East",
    "street_address": "200 Larkfield Road",
    "city": "East Northport",
    "state": "NY",
    "zip_code": "11731",
    "latitude": 40.8774046,
    "longitude": -73.3251171,
    "website": "http://rileyseast.com/",
    "category": "Restaurant",
    "types": "restaurant, point_of_interest, food, establishment"
  },
  {
    "place_id": "ChIJO1fukXYl6IkRmBSZXtMsDYs",
    "name": "Salted. On The Harbor",
    "street_address": "14 Woodbine Avenue",
    "city": "Northport",
    "state": "NY",
    "zip_code": "11768",
    "latitude": 40.89989320000001,
    "longitude": -73.35151019999999,
    "website": "https://saltedontheharbor.com/?utm_source=google",
    "category": "Restaurant",
    "types": "restaurant, food, point_of_interest, establishment"
  },
  {
    "place_id": "ChIJ16GH54gp6IkRv-v-Zp2qSx8",
    "name": "Shrimpy's Burrito Bar - Northport",
    "street_address": "650 Fort Salonga Road",
    "city": "Northport",
    "state": "NY",
    "zip_code": "11768",
    "latitude": 40.8934737,
    "longitude": -73.3365357,
    "website": "https://shrimpysburritobar.com/menu/",
    "category": "Restaurant",
    "types": "restaurant, food, point_of_interest, establishment"
  },
  {
    "place_id": "ChIJqzI2R8sl6IkRVA9lUUe7Jow",
    "name": "The Ritz Cafe",
    "street_address": "42 Woodbine Avenue",
    "city": "Northport",
    "state": "NY",
    "zip_code": "11768",
    "latitude": 40.899175,
    "longitude": -73.351716,
    "website": "http://ritzcafenorthport.com/",
    "category": "Bar & Restaurant",
    "types": "bar, restaurant, point_of_interest, food, establishment"
  },
  {
    "place_id": "ChIJo6eGvNKIwokRFSvqToER1Bw",
    "name": "Lennon's Pub",
    "street_address": "105 Main Street",
    "city": "Port Washington",
    "state": "NY",
    "zip_code": "11050",
    "latitude": 40.83057709999999,
    "longitude": -73.6898188,
    "website": "http://www.facebook.com/lennonspub",
    "category": "Bar & Restaurant",
    "types": "bar, restaurant, point_of_interest, food, establishment"
  },
  {
    "place_id": "ChIJN5yGoNSIwokR0-M8mFEfHqM",
    "name": "Finn MacCools",
    "street_address": "205 Main Street",
    "city": "Port Washington",
    "state": "NY",
    "zip_code": "11050",
    "latitude": 40.8312609,
    "longitude": -73.694886,
    "website": "https://www.finnmaccoolsny.com/",
    "category": "Bar & Restaurant",
    "types": "bar, restaurant, food, point_of_interest, establishment"
  },
  {
    "place_id": "ChIJ_4ih4_2IwokRoTwr-S83pcE",
    "name": "Greens Irish Pub",
    "street_address": "436 Plandome Road",
    "city": "Manhasset",
    "state": "NY",
    "zip_code": "11030",
    "latitude": 40.7986081,
    "longitude": -73.6997732,
    "website": "http://www.greensirishpub.com/",
    "category": "Bar & Restaurant",
    "types": "bar, restaurant, food, point_of_interest, establishment"
  },
  {
    "place_id": "ChIJ_7URiv2IwokRvhy6MyjCJSY",
    "name": "Publicans",
    "street_address": "550 Plandome Road",
    "city": "Manhasset",
    "state": "NY",
    "zip_code": "11030",
    "latitude": 40.79996939999999,
    "longitude": -73.7009722,
    "website": "http://www.publicansmanhasset.com/",
    "category": "Bar & Restaurant",
    "types": "restaurant, bar, food, point_of_interest, establishment"
  },
  {
    "place_id": "ChIJS6WBWs2IwokRbmq-xqJRSlI",
    "name": "The Wild Goose",
    "street_address": "75 Main Street",
    "city": "Port Washington",
    "state": "NY",
    "zip_code": "11050",
    "latitude": 40.8306591,
    "longitude": -73.6883714,
    "website": "http://www.thewildgooseli.com/",
    "category": "Bar & Restaurant",
    "types": "bar, restaurant, food, point_of_interest, establishment"
  },
  {
    "place_id": "ChIJlbk6OMmIwokRrosPeg-RMgA",
    "name": "Sullivan's Quay",
    "street_address": "541 Port Washington Boulevard",
    "city": "Port Washington",
    "state": "NY",
    "zip_code": "11050",
    "latitude": 40.82415950000001,
    "longitude": -73.68222209999999,
    "website": "http://www.sullivansquay.com/",
    "category": "Bar & Restaurant",
    "types": "bar, restaurant, point_of_interest, food, establishment"
  },
  {
    "place_id": "ChIJ3QoutSmJwokRr1kQ13dbdCc",
    "name": "Cipollini",
    "street_address": "2110C Northern Boulevard",
    "city": "Manhasset",
    "state": "NY",
    "zip_code": "11030",
    "latitude": 40.7962554,
    "longitude": -73.6699963,
    "website": "https://www.cipollinirestaurant.com/",
    "category": "Bar & Restaurant",
    "types": "bar, restaurant, food, point_of_interest, establishment"
  },
  {
    "place_id": "ChIJ9_jAmP-IwokRCWhQac43sFk",
    "name": "Schout Bay Tavern",
    "street_address": "118 Plandome Road",
    "city": "Manhasset",
    "state": "NY",
    "zip_code": "11030",
    "latitude": 40.7944035,
    "longitude": -73.69825639999999,
    "website": "http://www.schoutbaytavern.com/home/",
    "category": "Bar & Restaurant",
    "types": "restaurant, food, bar, point_of_interest, establishment"
  },
  {
    "place_id": "ChIJ8YSzFSqJwokR1AJObqGPAtk",
    "name": "Louie's Prime Steak & Seafood",
    "street_address": "395 Main Street",
    "city": "Port Washington",
    "state": "NY",
    "zip_code": "11050",
    "latitude": 40.83010470000001,
    "longitude": -73.70232779999999,
    "website": "https://www.louiessince1905.com/",
    "category": "Bar & Restaurant",
    "types": "restaurant, bar, food, point_of_interest, establishment"
  },
  {
    "place_id": "ChIJE8REQO6JwokR1iYnpA4RLgg",
    "name": "Caf\u00e9 1 of a Kind",
    "street_address": "255-13 Northern Boulevard",
    "city": "Long Island",
    "state": "NY",
    "zip_code": "11362",
    "latitude": 40.7723834,
    "longitude": -73.7343209,
    "website": "https://www.cafe1ofakind.com/",
    "category": "Restaurant",
    "types": "store, restaurant, food, point_of_interest, establishment"
  },
  {
    "place_id": "ChIJK106VXeJwokRmL7sm86zKJc",
    "name": "Baker Hill Tavern",
    "street_address": "630 Middle Neck Road",
    "city": "Great Neck",
    "state": "NY",
    "zip_code": "11023",
    "latitude": 40.8035772,
    "longitude": -73.7360204,
    "website": null,
    "category": "Bar & Restaurant",
    "types": "bar, meal_takeaway, restaurant, food, point_of_interest, establishment"
  },
  {
    "place_id": "ChIJJc-IabmHwokRa11W1mHBlL8",
    "name": "T BAR Roslyn",
    "street_address": "1363 Old Northern Boulevard",
    "city": "Roslyn",
    "state": "NY",
    "zip_code": "11576",
    "latitude": 40.8007173,
    "longitude": -73.648884,
    "website": "https://tbar.li/",
    "category": "Restaurant",
    "types": "restaurant, food, point_of_interest, establishment"
  },
  {
    "place_id": "ChIJ0YM6MtWIwokRAYvqcTN7OSA",
    "name": "Ayhan's Mediterranean Marketplace",
    "street_address": "293 Main Street",
    "city": "Port Washington",
    "state": "NY",
    "zip_code": "11050",
    "latitude": 40.832584,
    "longitude": -73.698697,
    "website": "http://ayhansmarketplace.com/",
    "category": "Bar & Restaurant",
    "types": "restaurant, grocery_or_supermarket, bar, food, point_of_interest, store, establishment"
  },
  {
    "place_id": "ChIJA0s7taWHwokRlxltIqe-t7U",
    "name": "Felice Roslyn",
    "street_address": "1382 Old Northern Boulevard",
    "city": "Roslyn",
    "state": "NY",
    "zip_code": "11576",
    "latitude": 40.8005972,
    "longitude": -73.64805609999999,
    "website": "https://www.felicerestaurants.com/felice-roslyn/",
    "category": "Bar & Restaurant",
    "types": "bar, store, restaurant, food, point_of_interest, establishment"
  },
  {
    "place_id": "ChIJzczxthKDwokRXHzdYSZiDwI",
    "name": "Del's Bar & Grill",
    "street_address": "129 Pine Hollow Road",
    "city": "Oyster Bay",
    "state": "NY",
    "zip_code": "11771",
    "latitude": 40.8618295,
    "longitude": -73.5346258,
    "website": null,
    "category": "Bar & Restaurant",
    "types": "bar, restaurant, food, point_of_interest, establishment"
  },
  {
    "place_id": "ChIJo3kGrT6DwokRVosbb6QgmWI",
    "name": "The Homestead",
    "street_address": "107 South Street",
    "city": "Oyster Bay",
    "state": "NY",
    "zip_code": "11771",
    "latitude": 40.8722,
    "longitude": -73.530447,
    "website": "https://thehomesteadny.com/",
    "category": "Bar & Restaurant",
    "types": "bar, restaurant, food, point_of_interest, establishment"
  },
  {
    "place_id": "ChIJ_9SRCDGDwokR5qW_IFxAuoc",
    "name": "Teddy's Bully Bar",
    "street_address": "46 Audrey Avenue",
    "city": "Oyster Bay",
    "state": "NY",
    "zip_code": "11771",
    "latitude": 40.8732398,
    "longitude": -73.5315056,
    "website": "https://www.teddysbullybar.com/",
    "category": "Bar & Restaurant",
    "types": "restaurant, bar, point_of_interest, food, establishment"
  },
  {
    "place_id": "ChIJJ222RkebwokRyIENxuakDWw",
    "name": "Shipwreck Tavern",
    "street_address": "10 Bayville Avenue",
    "city": "Bayville",
    "state": "NY",
    "zip_code": "11709",
    "latitude": 40.90843290000001,
    "longitude": -73.5817963,
    "website": "http://www.shipwreckpub.com/",
    "category": "Bar & Restaurant",
    "types": "bar, restaurant, food, point_of_interest, establishment"
  },
  {
    "place_id": "ChIJ9x6smKScwokRQq4vS2GOHHg",
    "name": "The Clam Bar at Bridge Marine",
    "street_address": "40 Ludlam Avenue",
    "city": "Bayville",
    "state": "NY",
    "zip_code": "11709",
    "latitude": 40.9042703,
    "longitude": -73.549134,
    "website": "http://www.bridgeclambar.com/",
    "category": "Bar & Restaurant",
    "types": "bar, restaurant, food, point_of_interest, establishment"
  },
  {
    "place_id": "ChIJK9g1mI9vwokRRnLwT37ZUVk",
    "name": "Shine's Bar",
    "street_address": "55 California Street",
    "city": "Long Beach",
    "state": "NY",
    "zip_code": "11561",
    "latitude": 40.5861632,
    "longitude": -73.6875882,
    "website": "https://www.facebook.com/ShinesByTheSea",
    "category": "Bar & Restaurant",
    "types": "bar, restaurant, food, point_of_interest, establishment"
  },
  {
    "place_id": "ChIJW5ZMpYRvwokRNSmh-Rj_Oag",
    "name": "Lilly's of Long Beach",
    "street_address": "954 West Beech Street",
    "city": "Long Beach",
    "state": "NY",
    "zip_code": "11561",
    "latitude": 40.585819,
    "longitude": -73.69409399999999,
    "website": "http://www.lillysoflongbeach.com/",
    "category": "Bar & Restaurant",
    "types": "restaurant, bar, food, point_of_interest, establishment"
  },
  {
    "place_id": "ChIJhUJDTfhvwokRk9cyfT_tig0",
    "name": "Shore House Bar & Grill",
    "street_address": "22 East Park Avenue",
    "city": "Long Beach",
    "state": "NY",
    "zip_code": "11561",
    "latitude": 40.5882483,
    "longitude": -73.6632316,
    "website": "http://www.shorehouselb.com/",
    "category": "Bar & Restaurant",
    "types": "bar, restaurant, point_of_interest, food, establishment"
  },
  {
    "place_id": "ChIJ673qMYNvwokRNHT0U0ecKZk",
    "name": "The Saloon",
    "street_address": "1016 West Beech Street",
    "city": "Long Beach",
    "state": "NY",
    "zip_code": "11561",
    "latitude": 40.5858801,
    "longitude": -73.69690159999999,
    "website": "https://www.thesaloonlongbeach.com/",
    "category": "Bar & Restaurant",
    "types": "bar, restaurant, food, point_of_interest, establishment"
  },
  {
    "place_id": "ChIJJ5R4hQtxwokRjEpWk_7Sg-4",
    "name": "LBH Bar and Grill",
    "street_address": "405 East Broadway",
    "city": "Long Beach",
    "state": "NY",
    "zip_code": "11561",
    "latitude": 40.58506149999999,
    "longitude": -73.65200229999999,
    "website": "https://www.hopp.bio/thelongbeachhotelny",
    "category": "Restaurant",
    "types": "restaurant, food, point_of_interest, establishment"
  },
  {
    "place_id": "ChIJMQ_Lv4RvwokRVli3nec_ds0",
    "name": "The Inn",
    "street_address": "943 West Beech Street",
    "city": "Long Beach",
    "state": "NY",
    "zip_code": "11561",
    "latitude": 40.586187,
    "longitude": -73.6934903,
    "website": "http://theinnlbny.com/",
    "category": "Bar & Restaurant",
    "types": "restaurant, bar, food, point_of_interest, establishment"
  },
  {
    "place_id": "ChIJP8WrjM96wokR-TyWWTQy5M4",
    "name": "Peter's Clam Bar",
    "street_address": "600 Long Beach Road",
    "city": "Island Park",
    "state": "NY",
    "zip_code": "11558",
    "latitude": 40.61627259999999,
    "longitude": -73.642094,
    "website": "http://www.petersclamhouse.com/",
    "category": "Bar & Restaurant",
    "types": "bar, restaurant, point_of_interest, food, establishment"
  },
  {
    "place_id": "ChIJic2Mvf1vwokRGa8j1U2vMCE",
    "name": "Borrelli's Taproom",
    "street_address": "912 West Beech Street",
    "city": "Long Beach",
    "state": "NY",
    "zip_code": "11561",
    "latitude": 40.58581179999999,
    "longitude": -73.69211659999999,
    "website": "https://www.borrellistaproom.com/",
    "category": "Restaurant",
    "types": "restaurant, food, point_of_interest, establishment"
  },
  {
    "place_id": "ChIJH6bu1YJvwokRX8re_1X1UoA",
    "name": "Speakeasy",
    "street_address": "1032 West Beech Street",
    "city": "Long Beach",
    "state": "NY",
    "zip_code": "11561",
    "latitude": 40.58583850000001,
    "longitude": -73.697803,
    "website": "https://www.speakeasylb.com/",
    "category": "Bar & Restaurant",
    "types": "meal_takeaway, bar, restaurant, food, point_of_interest, establishment"
  },
  {
    "place_id": "ChIJJ8eVkfBvwokRddcfCoFDfJk",
    "name": "L\u2019onda Lounge",
    "street_address": "80 West Broadway",
    "city": "Long Beach",
    "state": "NY",
    "zip_code": "11561",
    "latitude": 40.58414519999999,
    "longitude": -73.6665239,
    "website": "https://www.allegriahotelny.com/dining",
    "category": "Bar & Restaurant",
    "types": "night_club, bar, restaurant, food, point_of_interest, establishment"
  },
  {
    "place_id": "ChIJuTWn_PZvwokRradVq8BFwYo",
    "name": "Brixx & Barley",
    "street_address": "152 West Park Avenue",
    "city": "Long Beach",
    "state": "NY",
    "zip_code": "11561",
    "latitude": 40.58811239999999,
    "longitude": -73.6688018,
    "website": "https://www.brixxandbarley.com/",
    "category": "Restaurant",
    "types": "restaurant, food, point_of_interest, establishment"
  },
  {
    "place_id": "ChIJc_mD465lwokR0yAMVy94jnk",
    "name": "Backstage",
    "street_address": "948 Broadway",
    "city": "Woodmere",
    "state": "NY",
    "zip_code": "11598",
    "latitude": 40.6301205,
    "longitude": -73.7085237,
    "website": "http://facebook.com/woodmerelanesbackstage",
    "category": "Bar & Restaurant",
    "types": "bar, bowling_alley, night_club, restaurant, food, point_of_interest, establishment"
  },
  {
    "place_id": "ChIJ90jbm_ZvwokRdPi1P2lqORc",
    "name": "Billy's Beach Cafe",
    "street_address": "222 West Park Avenue",
    "city": "Long Beach",
    "state": "NY",
    "zip_code": "11561",
    "latitude": 40.5880676,
    "longitude": -73.6708724,
    "website": "http://billysbeachcafe.com/",
    "category": "Bar & Restaurant",
    "types": "bar, restaurant, point_of_interest, food, establishment"
  },
  {
    "place_id": "ChIJ5xicXWtvwokRQhj_fkHB94U",
    "name": "The Merrow",
    "street_address": "916 West Beech Street",
    "city": "Long Beach",
    "state": "NY",
    "zip_code": "11561",
    "latitude": 40.5859158,
    "longitude": -73.69231169999999,
    "website": "http://www.themerrowlbny.com/",
    "category": "Restaurant",
    "types": "restaurant, food, point_of_interest, establishment"
  },
  {
    "place_id": "ChIJLSK8ptN7wokRQqDGj7akoyU",
    "name": "Dox",
    "street_address": "10 Broadway",
    "city": "Island Park",
    "state": "NY",
    "zip_code": "11558",
    "latitude": 40.6115948,
    "longitude": -73.643411,
    "website": "http://doxbarandkitchen.com/",
    "category": "Bar & Restaurant",
    "types": "bar, restaurant, food, point_of_interest, establishment"
  },
  {
    "place_id": "ChIJPWz-N6h6wokRCq0xuIXY6xE",
    "name": "The Bungalow East",
    "street_address": "631 East Park Avenue",
    "city": "Long Beach",
    "state": "NY",
    "zip_code": "11561",
    "latitude": 40.58894370000001,
    "longitude": -73.6454203,
    "website": "http://www.bungalowgrill.com/",
    "category": "Restaurant",
    "types": "meal_delivery, restaurant, food, point_of_interest, establishment"
  },
  {
    "place_id": "ChIJH_nbjo9vwokRWod0pSkrh54",
    "name": "Jetty Bar & Grill",
    "street_address": "832 West Beech Street",
    "city": "Long Beach",
    "state": "NY",
    "zip_code": "11561",
    "latitude": 40.585916,
    "longitude": -73.6884381,
    "website": "https://jettylbny.com/",
    "category": "Bar & Restaurant",
    "types": "bar, restaurant, food, point_of_interest, establishment"
  },
  {
    "place_id": "ChIJVVbY_3dvwokRbahQ_gm2k4U",
    "name": "Das Biergarten",
    "street_address": "1148 West Beech Street",
    "city": "East Atlantic Beach",
    "state": "NY",
    "zip_code": "11561",
    "latitude": 40.5857694,
    "longitude": -73.7034196,
    "website": "http://www.dasbiergarten.com/",
    "category": "Restaurant",
    "types": "restaurant, food, point_of_interest, establishment"
  },
  {
    "place_id": "ChIJrb8UpwW86IkRHDS-hMpYdyY",
    "name": "LT Burger Sag Harbor",
    "street_address": "62 Main Street",
    "city": "Sag Harbor",
    "state": "NY",
    "zip_code": "11963",
    "latitude": 41.000851,
    "longitude": -72.29553039999999,
    "website": "http://ltburger.co/",
    "category": "Restaurant",
    "types": "restaurant, food, point_of_interest, establishment"
  },
  {
    "place_id": "ChIJAfj6NkK96IkRpbng5OVMLyE",
    "name": "The Restaurant at Baron's Cove",
    "street_address": "31 West Water Street",
    "city": "Sag Harbor",
    "state": "NY",
    "zip_code": "11963",
    "latitude": 41.0000413,
    "longitude": -72.300607,
    "website": "https://www.caperesorts.com/barons-cove/dining",
    "category": "Restaurant",
    "types": "restaurant, food, point_of_interest, establishment"
  },
  {
    "place_id": "ChIJ1cAeNTu96IkRzm0zggXWGV0",
    "name": "Lulu Kitchen & Bar",
    "street_address": "126 Main Street",
    "city": "Sag Harbor",
    "state": "NY",
    "zip_code": "11963",
    "latitude": 40.9998706,
    "longitude": -72.2957007,
    "website": "http://www.lulusagharbor.com/index.php",
    "category": "Restaurant",
    "types": "restaurant, food, point_of_interest, establishment"
  },
  {
    "place_id": "ChIJm9QsiL296IkRyM8k8YJw-Lc",
    "name": "Sag Harbor Tavern",
    "street_address": "26 Bay Street",
    "city": "Sag Harbor",
    "state": "NY",
    "zip_code": "11963",
    "latitude": 41.0011277,
    "longitude": -72.2926775,
    "website": "https://sagharbortavern.com/",
    "category": "Restaurant",
    "types": "restaurant, food, point_of_interest, establishment"
  },
  {
    "place_id": "ChIJgZI8KMWX6IkRF1I20tgmn5c",
    "name": "M.J. Dowling's",
    "street_address": "3360 Noyack Road",
    "city": "Sag Harbor",
    "state": "NY",
    "zip_code": "11963",
    "latitude": 40.9943604,
    "longitude": -72.3439408,
    "website": "http://www.mjdowlings.com/",
    "category": "Bar & Restaurant",
    "types": "bar, restaurant, food, point_of_interest, establishment"
  }
]