[
  {
    "place_id": "ChIJexmJZUjHwoARgDs3vqrL7Ak",
    "name": "33 Taps Silver Lake",
    "street_address": "3725 West Sunset Boulevard",
    "city": "Los Angeles",
    "state": "CA",
    "zip_code": "90026",
    "latitude": 34.0909115,
    "longitude": -118.2781996,
    "website": "https://www.eatdrink33.com/",
    "category": "Bar & Restaurant",
    "types": "bar, restaurant, food, point_of_interest, establishment"
  },
  {
    "place_id": "ChIJ3Q9JXSO_woAReezT4Rsv6qo",
    "name": "Jameson's Irish Pub",
    "street_address": "6681 Hollywood Boulevard",
    "city": "Los Angeles",
    "state": "CA",
    "zip_code": "90028",
    "latitude": 34.101728,
    "longitude": -118.3358682,
    "website": "http://www.jamesonsirishpub.com/",
    "category": "Bar & Restaurant",
    "types": "bar, restaurant, point_of_interest, food, establishment"
  },
  {
    "place_id": "ChIJn1DEwT25woAR7ZpireTp1U4",
    "name": "Tom Bergin's",
    "street_address": "840 South Fairfax Avenue",
    "city": "Los Angeles",
    "state": "CA",
    "zip_code": "90036",
    "latitude": 34.0600278,
    "longitude": -118.3626556,
    "website": "http://www.tombergins.com/",
    "category": "Bar & Restaurant",
    "types": "bar, restaurant, food, point_of_interest, establishment"
  },
  {
    "place_id": "ChIJiTG9iyO_woARi7H1WMDiKZE",
    "name": "Mel's Drive-In Hollywood",
    "street_address": "1660 Highland Avenue",
    "city": "Los Angeles",
    "state": "CA",
    "zip_code": "90028",
    "latitude": 34.10089730000001,
    "longitude": -118.3383536,
    "website": "http://www.melsdrive-in.com/",
    "category": "Bar & Restaurant",
    "types": "bar, restaurant, point_of_interest, food, establishment"
  },
  {
    "place_id": "ChIJIxILMjq_woARdy38-_mht6k",
    "name": "The Powder Room",
    "street_address": "1606 North Cahuenga Boulevard",
    "city": "Los Angeles",
    "state": "CA",
    "zip_code": "90028",
    "latitude": 34.1000509,
    "longitude": -118.3294013,
    "website": "http://www.powderroom.la/",
    "category": "Bar & Restaurant",
    "types": "night_club, restaurant, food, bar, point_of_interest, establishment"
  },
  {
    "place_id": "ChIJqTSaOMC_woAR1YXMjmIMwqQ",
    "name": "Or Bar",
    "street_address": "8228 Santa Monica Boulevard",
    "city": "West Hollywood",
    "state": "CA",
    "zip_code": "90046",
    "latitude": 34.0905583,
    "longitude": -118.3679036,
    "website": "http://www.theorbar.com/",
    "category": "Bar & Restaurant",
    "types": "bar, meal_takeaway, cafe, night_club, restaurant, food, point_of_interest, store, establishment"
  },
  {
    "place_id": "ChIJm_JlplW_woARfUC7uDz1_OA",
    "name": "L\u2019Antica Pizzeria da Michele",
    "street_address": "1534 North McCadden Place",
    "city": "Los Angeles",
    "state": "CA",
    "zip_code": "90028",
    "latitude": 34.09906079999999,
    "longitude": -118.3373107,
    "website": "https://damicheleusa.com/",
    "category": "Bar & Restaurant",
    "types": "restaurant, night_club, bar, point_of_interest, food, store, establishment"
  },
  {
    "place_id": "ChIJd_-k3P24woARecKGBiLBJ6o",
    "name": "Pips On Labrea",
    "street_address": "1356 South La Brea Avenue",
    "city": "Los Angeles",
    "state": "CA",
    "zip_code": "90019",
    "latitude": 34.0484835,
    "longitude": -118.3441935,
    "website": "http://www.pipsonlabrea.com/",
    "category": "Bar & Restaurant",
    "types": "night_club, bar, restaurant, food, point_of_interest, establishment"
  },
  {
    "place_id": "ChIJJQiPZIe4woARhQyn1d3lIqI",
    "name": "213 Pub and Jjam Pong",
    "street_address": "3224 West Olympic Boulevard",
    "city": "Los Angeles",
    "state": "CA",
    "zip_code": "90006",
    "latitude": 34.0523219,
    "longitude": -118.3072547,
    "website": null,
    "category": "Restaurant",
    "types": "restaurant, food, point_of_interest, establishment"
  },
  {
    "place_id": "ChIJ12CLlzu5woARmzIXICPof0A",
    "name": "Molly Malone's Irish Pub",
    "street_address": "575 South Fairfax Avenue",
    "city": "Los Angeles",
    "state": "CA",
    "zip_code": "90036",
    "latitude": 34.065275,
    "longitude": -118.3616833,
    "website": "http://www.mollymalonesla.com/",
    "category": "Bar & Restaurant",
    "types": "bar, restaurant, point_of_interest, food, establishment"
  },
  {
    "place_id": "ChIJjbZu0Du_woARo6-7P6cIQ1M",
    "name": "Elbow Room",
    "street_address": "1634 North Cahuenga Boulevard",
    "city": "Los Angeles",
    "state": "CA",
    "zip_code": "90028",
    "latitude": 34.1009272,
    "longitude": -118.3292757,
    "website": "https://www.elbowroomla.com/",
    "category": "Bar & Restaurant",
    "types": "restaurant, night_club, bar, point_of_interest, food, establishment"
  },
  {
    "place_id": "ChIJ95vH4LHAwoARqL4GoEKAbtI",
    "name": "Ye Rustic Inn",
    "street_address": "1831 Hillhurst Avenue",
    "city": "Los Angeles",
    "state": "CA",
    "zip_code": "90027",
    "latitude": 34.104352,
    "longitude": -118.287857,
    "website": null,
    "category": "Bar & Restaurant",
    "types": "bar, restaurant, point_of_interest, food, establishment"
  },
  {
    "place_id": "ChIJHyESCNO-woARFPm71YB7Uo0",
    "name": "Snake Pit Alehouse Whiskey Bar & Kitchen",
    "street_address": "7529 Melrose Avenue",
    "city": "Los Angeles",
    "state": "CA",
    "zip_code": "90046",
    "latitude": 34.08383449999999,
    "longitude": -118.3541232,
    "website": null,
    "category": "Bar & Restaurant",
    "types": "bar, restaurant, food, point_of_interest, establishment"
  },
  {
    "place_id": "ChIJG5ysWrm-woARwN5vy6UiJis",
    "name": "Barney's Beanery",
    "street_address": "8447 Santa Monica Boulevard",
    "city": "West Hollywood",
    "state": "CA",
    "zip_code": "90069",
    "latitude": 34.0908272,
    "longitude": -118.3746086,
    "website": "http://www.barneysbeanery.com/",
    "category": "Bar & Restaurant",
    "types": "bar, restaurant, point_of_interest, food, establishment"
  },
  {
    "place_id": "ChIJMy8DfnnHwoARaGsVvBrF28c",
    "name": "Buffalo Wild Wings",
    "street_address": "3150 Wilshire Boulevard",
    "city": "Los Angeles",
    "state": "CA",
    "zip_code": "90010",
    "latitude": 34.0613026,
    "longitude": -118.2910184,
    "website": "https://www.buffalowildwings.com/locations/us/ca/los-angeles/3150-wilshire-blvd-,-suite-100/sports-bar-1521?utm_source=google%20my%20business&utm_medium=organic&utm_campaign=website%20link",
    "category": "Bar & Restaurant",
    "types": "bar, meal_takeaway, restaurant, food, point_of_interest, establishment"
  },
  {
    "place_id": "ChIJcf_yksu7woARLp3dOWEiSt0",
    "name": "The Irish Times Pub & Restaurant",
    "street_address": "3267 Motor Avenue",
    "city": "Los Angeles",
    "state": "CA",
    "zip_code": "90034",
    "latitude": 34.02964439999999,
    "longitude": -118.4112793,
    "website": "https://www.irishtimesla.com/",
    "category": "Bar & Restaurant",
    "types": "bar, restaurant, food, point_of_interest, establishment"
  },
  {
    "place_id": "ChIJmT8ZmMy7woARMrTT1zGLLbg",
    "name": "The Garage on Motor Ave",
    "street_address": "3387 Motor Avenue",
    "city": "Los Angeles",
    "state": "CA",
    "zip_code": "90034",
    "latitude": 34.0276863,
    "longitude": -118.4099405,
    "website": "http://garagemotorave.com/",
    "category": "Bar & Restaurant",
    "types": "bar, restaurant, point_of_interest, food, establishment"
  },
  {
    "place_id": "ChIJOVAcLau-woARyrw4_yClQfg",
    "name": "La Ola",
    "street_address": "300 South Doheny Drive",
    "city": "Los Angeles",
    "state": "CA",
    "zip_code": "90048",
    "latitude": 34.0729248,
    "longitude": -118.3891988,
    "website": "https://www.fourseasons.com/losangeles/dining/restaurants/la-ola/?utm_source=google&utm_medium=organicsearch&utm_campaign=tor-lax-fab-mid-seo-na&utm_content=na-na&utm_term=na",
    "category": "Bar & Restaurant",
    "types": "bar, restaurant, food, point_of_interest, establishment"
  },
  {
    "place_id": "ChIJaRv9Svm7woARwxsuirw_cNs",
    "name": "Honor Bar",
    "street_address": "122 South Beverly Drive",
    "city": "Beverly Hills",
    "state": "CA",
    "zip_code": "90212",
    "latitude": 34.06617,
    "longitude": -118.398875,
    "website": "http://honorbar.com/locations/beverlyhills/",
    "category": "Bar & Restaurant",
    "types": "bar, restaurant, point_of_interest, food, establishment"
  },
  {
    "place_id": "ChIJk7LSm-C7woARWH7ceVjEN5I",
    "name": "Tiny's Hi-Dive",
    "street_address": "12012 West Pico Boulevard",
    "city": "Los Angeles",
    "state": "CA",
    "zip_code": "90064",
    "latitude": 34.0295316,
    "longitude": -118.4494128,
    "website": "http://www.tinyshidive.com/",
    "category": "Bar & Restaurant",
    "types": "bar, restaurant, food, point_of_interest, establishment"
  },
  {
    "place_id": "ChIJw-XTuhW9woARjkCHdEfCbJ4",
    "name": "Broxton Brewery & Public House",
    "street_address": "1099 Westwood Boulevard",
    "city": "Los Angeles",
    "state": "CA",
    "zip_code": "90024",
    "latitude": 34.061132,
    "longitude": -118.445682,
    "website": "http://broxtonla.com/",
    "category": "Bar & Restaurant",
    "types": "bar, restaurant, food, point_of_interest, establishment"
  },
  {
    "place_id": "ChIJ-W8yzJm5woARqttvwehxjJU",
    "name": "Palihouse Lobby Lounge & Bar",
    "street_address": "8384 West 3rd Street",
    "city": "Los Angeles",
    "state": "CA",
    "zip_code": "90048",
    "latitude": 34.0727355,
    "longitude": -118.3729053,
    "website": "https://www.palisociety.com/hotels/west-hollywood/dining-events",
    "category": "Bar & Restaurant",
    "types": "restaurant, food, bar, point_of_interest, establishment"
  },
  {
    "place_id": "ChIJOVAcLau-woAR7Y_UGH3Iivc",
    "name": "Culina Ristorante and Caff\u00e8",
    "street_address": "300 South Doheny Drive",
    "city": "Los Angeles",
    "state": "CA",
    "zip_code": "90048",
    "latitude": 34.0729158,
    "longitude": -118.389213,
    "website": "https://www.fourseasons.com/losangeles/dining/restaurants/culina-ristorante/?utm_source=google&utm_medium=organicsearch&utm_campaign=tor-lax-fab-mid-seo-na&utm_content=na-na&utm_term=na",
    "category": "Bar & Restaurant",
    "types": "bar, restaurant, food, point_of_interest, establishment"
  },
  {
    "place_id": "ChIJj4k9MDO5woARmGNCokL2xlg",
    "name": "The Kibitz Room",
    "street_address": "419 North Fairfax Avenue",
    "city": "Los Angeles",
    "state": "CA",
    "zip_code": "90048",
    "latitude": 34.07897119999999,
    "longitude": -118.361807,
    "website": "http://www.cantersdeli.com/",
    "category": "Bar & Restaurant",
    "types": "bar, restaurant, point_of_interest, food, establishment"
  },
  {
    "place_id": "ChIJz-22Hfm7woARcCJpuh6N2dk",
    "name": "THE Blvd Restaurant and Lounge",
    "street_address": "9500 Wilshire Boulevard",
    "city": "Beverly Hills",
    "state": "CA",
    "zip_code": "90212",
    "latitude": 34.0669165,
    "longitude": -118.4003589,
    "website": "https://www.theblvdrestaurant.com/?utm_source=google&utm_medium=organicsearch&utm_campaign=tor-bev-fab-mid-seo-na&utm_content=na-na&utm_term=na",
    "category": "Bar & Restaurant",
    "types": "night_club, bar, restaurant, food, point_of_interest, store, establishment"
  },
  {
    "place_id": "ChIJAYsD00W5woART8Phrkh9pTg",
    "name": "Prospect Gourmand",
    "street_address": "105 North Robertson Boulevard",
    "city": "Beverly Hills",
    "state": "CA",
    "zip_code": "90211",
    "latitude": 34.06743100000001,
    "longitude": -118.3838466,
    "website": "http://www.prospectgourmand.com/",
    "category": "Restaurant",
    "types": "restaurant, food, point_of_interest, establishment"
  },
  {
    "place_id": "ChIJRW7X33-7woARZNOC54OuwDQ",
    "name": "The Tuck Room",
    "street_address": "10840 Wilshire Boulevard",
    "city": "Los Angeles",
    "state": "CA",
    "zip_code": "90024",
    "latitude": 34.0591479,
    "longitude": -118.4412367,
    "website": "https://www.thetuckroom.com/?utm_source=google&utm_medium=local_listings&utm_campaign=yext",
    "category": "Bar & Restaurant",
    "types": "bar, restaurant, food, point_of_interest, establishment"
  },
  {
    "place_id": "ChIJz-22Hfm7woARlTiqNOCIQZs",
    "name": "The Pool Bar & Cafe",
    "street_address": "9500 Wilshire Boulevard",
    "city": "Beverly Hills",
    "state": "CA",
    "zip_code": "90212",
    "latitude": 34.0669165,
    "longitude": -118.4003589,
    "website": "https://www.fourseasons.com/beverlywilshire/dining/restaurants/the_pool_bar_and_cafe/?utm_source=google&utm_medium=organicsearch&utm_campaign=tor-bev-fab-mid-seo-na&utm_content=na-na&utm_term=na",
    "category": "Bar & Restaurant",
    "types": "cafe, night_club, restaurant, food, store, bar, point_of_interest, establishment"
  },
  {
    "place_id": "ChIJP74Xzcy7woARPdoQw6tp4ik",
    "name": "Lobster & Beer",
    "street_address": "3456 Motor Avenue",
    "city": "Los Angeles",
    "state": "CA",
    "zip_code": "90034",
    "latitude": 34.0268654,
    "longitude": -118.4086682,
    "website": "http://www.ilovelobsterandbeer.com/",
    "category": "Bar & Restaurant",
    "types": "bar, restaurant, food, point_of_interest, establishment"
  },
  {
    "place_id": "ChIJA_UIdqG-woARGfJUiZu5g2s",
    "name": "Rainbow Bar & Grill",
    "street_address": "9015 West Sunset Boulevard",
    "city": "West Hollywood",
    "state": "CA",
    "zip_code": "90069",
    "latitude": 34.090912,
    "longitude": -118.3882001,
    "website": "http://www.rainbowbarandgrill.com/",
    "category": "Bar & Restaurant",
    "types": "bar, restaurant, point_of_interest, food, establishment"
  },
  {
    "place_id": "ChIJd307CQe8woARFoUAjdc04iQ",
    "name": "Porta Via Beverly Hills",
    "street_address": "424 North Canon Drive",
    "city": "Beverly Hills",
    "state": "CA",
    "zip_code": "90210",
    "latitude": 34.071242,
    "longitude": -118.401275,
    "website": "https://portaviarestaurants.com/beverly-hills",
    "category": "Bar & Restaurant",
    "types": "restaurant, bar, night_club, food, point_of_interest, establishment"
  },
  {
    "place_id": "ChIJJ6fdRdW-woARDZ3lwT3la3U",
    "name": "LALA'S Argentine Grill On Melrose",
    "street_address": "7229 Melrose Avenue",
    "city": "Los Angeles",
    "state": "CA",
    "zip_code": "90046",
    "latitude": 34.0838814,
    "longitude": -118.3473134,
    "website": "https://lalasgrill.com/",
    "category": "Bar & Restaurant",
    "types": "bar, restaurant, point_of_interest, food, establishment"
  },
  {
    "place_id": "ChIJMfo0jJW7woARkn997OnbQyA",
    "name": "The Stalking Horse Brewery & Freehouse",
    "street_address": "10543 West Pico Boulevard",
    "city": "Los Angeles",
    "state": "CA",
    "zip_code": "90064",
    "latitude": 34.04474030000001,
    "longitude": -118.420492,
    "website": "http://www.thestalkinghorsepub.com/",
    "category": "Bar & Restaurant",
    "types": "bar, restaurant, food, point_of_interest, establishment"
  },
  {
    "place_id": "ChIJNVvaZb6-woARW2sAISXPkw8",
    "name": "Skybar Los Angeles",
    "street_address": "8440 West Sunset Boulevard",
    "city": "West Hollywood",
    "state": "CA",
    "zip_code": "90069",
    "latitude": 34.0946314,
    "longitude": -118.3745432,
    "website": "https://mondrianhotels.com/los-angeles/dining/skybar/",
    "category": "Bar & Restaurant",
    "types": "bar, night_club, restaurant, food, point_of_interest, establishment"
  },
  {
    "place_id": "ChIJ78L-vb27woARso8luFu2OFw",
    "name": "The Six Chow House",
    "street_address": "10668 West Pico Boulevard",
    "city": "Los Angeles",
    "state": "CA",
    "zip_code": "90064",
    "latitude": 34.0420675,
    "longitude": -118.4240066,
    "website": "https://www.thesixrestaurant.com/",
    "category": "Bar & Restaurant",
    "types": "bar, restaurant, point_of_interest, food, establishment"
  },
  {
    "place_id": "ChIJt6fQeou7woARIXDbbBwHbCE",
    "name": "Eataly",
    "street_address": "10250 Santa Monica Boulevard",
    "city": "Los Angeles",
    "state": "CA",
    "zip_code": "90067",
    "latitude": 34.0606345,
    "longitude": -118.4184994,
    "website": "https://www.eataly.com/us_en/stores/los-angeles",
    "category": "Restaurant",
    "types": "liquor_store, meal_takeaway, cafe, grocery_or_supermarket, restaurant, food, point_of_interest, store, establishment"
  },
  {
    "place_id": "ChIJPdj5Rb6-woARdJ6Q6qW9yEU",
    "name": "Riot House Restaurant + Bar",
    "street_address": "8401 West Sunset Boulevard",
    "city": "West Hollywood",
    "state": "CA",
    "zip_code": "90069",
    "latitude": 34.09535769999999,
    "longitude": -118.3729337,
    "website": "http://bit.ly/RiotHouseBarRestaurant",
    "category": "Restaurant",
    "types": "restaurant, point_of_interest, food, establishment"
  },
  {
    "place_id": "ChIJJQulGK--woARyBtfGuqLB88",
    "name": "SUR Restaurant and Lounge",
    "street_address": "606-614 North Robertson Boulevard",
    "city": "West Hollywood",
    "state": "CA",
    "zip_code": "90069",
    "latitude": 34.0812288,
    "longitude": -118.3853088,
    "website": "http://www.surrestaurant.com/",
    "category": "Bar & Restaurant",
    "types": "night_club, bar, restaurant, point_of_interest, food, establishment"
  },
  {
    "place_id": "ChIJX80UiYu7woAR_DjT4GnzA5E",
    "name": "Toscanova",
    "street_address": "10250 Santa Monica Boulevard",
    "city": "Los Angeles",
    "state": "CA",
    "zip_code": "90067",
    "latitude": 34.05904720000001,
    "longitude": -118.4205139,
    "website": "http://www.toscanova.com/",
    "category": "Bar & Restaurant",
    "types": "bar, restaurant, food, point_of_interest, establishment"
  },
  {
    "place_id": "ChIJTZt7u7C-woARniMvuiD-MI0",
    "name": "STK Steakhouse",
    "street_address": "1100 Glendon Avenue",
    "city": "Los Angeles",
    "state": "CA",
    "zip_code": "90024",
    "latitude": 34.0605843,
    "longitude": -118.4439625,
    "website": "https://stksteakhouse.com/venues/los-angeles/",
    "category": "Bar & Restaurant",
    "types": "night_club, bar, restaurant, point_of_interest, food, establishment"
  },
  {
    "place_id": "ChIJVZpGvLC-woARhiULg_9Pskk",
    "name": "The Belmont",
    "street_address": "747 North La Cienega Boulevard",
    "city": "Los Angeles",
    "state": "CA",
    "zip_code": "90069",
    "latitude": 34.08498600000001,
    "longitude": -118.37673,
    "website": "https://www.belmontla.com/",
    "category": "Bar & Restaurant",
    "types": "bar, night_club, restaurant, point_of_interest, food, establishment"
  },
  {
    "place_id": "ChIJyZfqgvS7woARgwTekYhr5kQ",
    "name": "Greenleaf Kitchen & Cocktails",
    "street_address": "1888 Century Park East",
    "city": "Los Angeles",
    "state": "CA",
    "zip_code": "90067",
    "latitude": 34.06117140000001,
    "longitude": -118.4141106,
    "website": "https://www.eatdrinkgreenleaf.com/",
    "category": "Bar & Restaurant",
    "types": "night_club, bar, restaurant, food, point_of_interest, establishment"
  },
  {
    "place_id": "ChIJLVkhRwG7woARIyUtbKp5qSY",
    "name": "Jameson\u2019s Pub",
    "street_address": "2702 Main Street",
    "city": "Santa Monica",
    "state": "CA",
    "zip_code": "90405",
    "latitude": 34.0007499,
    "longitude": -118.4825824,
    "website": "http://www.jamesonsirishpub.com/",
    "category": "Bar & Restaurant",
    "types": "bar, restaurant, food, point_of_interest, establishment"
  },
  {
    "place_id": "ChIJ5WeOX0m7woARm0VUqRNeUEw",
    "name": "O'Briens Irish Pub",
    "street_address": "2226 Wilshire Boulevard",
    "city": "Santa Monica",
    "state": "CA",
    "zip_code": "90403",
    "latitude": 34.0331676,
    "longitude": -118.4806345,
    "website": "http://obriensla.com/",
    "category": "Bar & Restaurant",
    "types": "bar, restaurant, food, point_of_interest, establishment"
  },
  {
    "place_id": "ChIJVcXlGE-7woARrpG2U_ImAZ0",
    "name": "Sonny McLean's Irish Pub",
    "street_address": "2615 Wilshire Boulevard",
    "city": "Santa Monica",
    "state": "CA",
    "zip_code": "90403",
    "latitude": 34.0364965,
    "longitude": -118.4771634,
    "website": "http://www.sonnymcleans.com/",
    "category": "Bar & Restaurant",
    "types": "bar, restaurant, food, point_of_interest, establishment"
  },
  {
    "place_id": "ChIJgTUlwc-kwoARwtfVJm5qkhY",
    "name": "Barney\u2019s Beanery Santa Monica",
    "street_address": "1351 3rd Street Promenade",
    "city": "Santa Monica",
    "state": "CA",
    "zip_code": "90401",
    "latitude": 34.01619889999999,
    "longitude": -118.4962299,
    "website": "http://barneysbeanery.com/",
    "category": "Bar & Restaurant",
    "types": "bar, restaurant, food, point_of_interest, establishment"
  },
  {
    "place_id": "ChIJp84Gzc-kwoARLMCvBBHLD6g",
    "name": "Britannia Pub",
    "street_address": "318 Santa Monica Boulevard",
    "city": "Santa Monica",
    "state": "CA",
    "zip_code": "90401",
    "latitude": 34.0159493,
    "longitude": -118.4954235,
    "website": "http://britanniapub.com/",
    "category": "Bar & Restaurant",
    "types": "restaurant, food, bar, point_of_interest, establishment"
  },
  {
    "place_id": "ChIJ8U3xAtCkwoARzzd5b2F4ipA",
    "name": "Ye Olde King's Head",
    "street_address": "116 Santa Monica Boulevard",
    "city": "Santa Monica",
    "state": "CA",
    "zip_code": "90401",
    "latitude": 34.01456,
    "longitude": -118.4972077,
    "website": "https://www.yeoldekingshead.com/",
    "category": "Bar & Restaurant",
    "types": "bar, restaurant, food, point_of_interest, establishment"
  },
  {
    "place_id": "ChIJX0ec3c-kwoARhzkyZdPoIwo",
    "name": "The Misfit Bar & Restaurant",
    "street_address": "225 Santa Monica Boulevard",
    "city": "Santa Monica",
    "state": "CA",
    "zip_code": "90401",
    "latitude": 34.0154445,
    "longitude": -118.4966717,
    "website": "https://themisfitbar.com/",
    "category": "Bar & Restaurant",
    "types": "bar, night_club, restaurant, food, point_of_interest, establishment"
  },
  {
    "place_id": "ChIJOddy1NCkwoARuMiYniHCgPM",
    "name": "Big Dean's Ocean Front Cafe",
    "street_address": "1615 Ocean Front Walk",
    "city": "Santa Monica",
    "state": "CA",
    "zip_code": "90401",
    "latitude": 34.01029150000001,
    "longitude": -118.4955998,
    "website": "https://www.bigdeansoceanfrontcafe.com/",
    "category": "Bar & Restaurant",
    "types": "bar, restaurant, food, point_of_interest, establishment"
  },
  {
    "place_id": "ChIJBaonH9K6woAR_KuCFNsv-Fs",
    "name": "Library Alehouse",
    "street_address": "2911 Main Street",
    "city": "Santa Monica",
    "state": "CA",
    "zip_code": "90405",
    "latitude": 33.9993907,
    "longitude": -118.4806305,
    "website": "https://libraryalehouse.com/",
    "category": "Bar & Restaurant",
    "types": "bar, restaurant, point_of_interest, food, establishment"
  },
  {
    "place_id": "ChIJ78lAMNK6woARDcdXP_bfWJk",
    "name": "Ashland Hill",
    "street_address": "2807 Main Street",
    "city": "Santa Monica",
    "state": "CA",
    "zip_code": "90405",
    "latitude": 34.0001965,
    "longitude": -118.4814561,
    "website": "https://www.ashlandhill.com/",
    "category": "Bar & Restaurant",
    "types": "meal_takeaway, bar, restaurant, food, point_of_interest, establishment"
  },
  {
    "place_id": "ChIJwQyRn866woARyMtdbNBsV1o",
    "name": "Venice Ale House",
    "street_address": "2 Rose Avenue",
    "city": "Los Angeles",
    "state": "CA",
    "zip_code": "90291",
    "latitude": 33.9946563,
    "longitude": -118.4802064,
    "website": "https://www.venicealehouse.com/",
    "category": "Bar & Restaurant",
    "types": "bar, restaurant, food, point_of_interest, establishment"
  },
  {
    "place_id": "ChIJxdQRALm6woARvBJN6IU2g4M",
    "name": "Great White",
    "street_address": "1604 Pacific Avenue",
    "city": "Los Angeles",
    "state": "CA",
    "zip_code": "90291",
    "latitude": 33.9877317,
    "longitude": -118.4717929,
    "website": "https://www.greatwhite.cafe/",
    "category": "Restaurant",
    "types": "cafe, restaurant, food, point_of_interest, establishment"
  },
  {
    "place_id": "ChIJNWAenlilwoARKaJ6FanFGdI",
    "name": "The Whaler Santa Monica",
    "street_address": "101 Broadway",
    "city": "Santa Monica",
    "state": "CA",
    "zip_code": "90401",
    "latitude": 34.0129992,
    "longitude": -118.4964463,
    "website": "http://www.whalerbeachbar.com/",
    "category": "Bar & Restaurant",
    "types": "restaurant, food, bar, point_of_interest, establishment"
  },
  {
    "place_id": "ChIJb03pTce6woAR3xX6dxF_KR4",
    "name": "The Butcher's Daughter",
    "street_address": "1205 Abbot Kinney Boulevard",
    "city": "Los Angeles",
    "state": "CA",
    "zip_code": "90291",
    "latitude": 33.9916583,
    "longitude": -118.4692083,
    "website": "https://www.thebutchersdaughter.com/?utm_source=google&utm_medium=organic&utm_campaign=business-profile&utm_term=venice",
    "category": "Restaurant",
    "types": "cafe, store, restaurant, point_of_interest, food, establishment"
  },
  {
    "place_id": "ChIJez9qdxe7woARmfzhJtlXAlU",
    "name": "The Brixton",
    "street_address": "2827 Pico Boulevard",
    "city": "Santa Monica",
    "state": "CA",
    "zip_code": "90404",
    "latitude": 34.0248212,
    "longitude": -118.4599269,
    "website": "https://www.thebrixtonsm.com/",
    "category": "Bar & Restaurant",
    "types": "night_club, bar, restaurant, food, point_of_interest, establishment"
  },
  {
    "place_id": "ChIJ08bO34e6woAR5_n_N5HENp4",
    "name": "Yard House",
    "street_address": "13455 Maxella Avenue",
    "city": "Marina del Rey",
    "state": "CA",
    "zip_code": "90292",
    "latitude": 33.986769,
    "longitude": -118.44157,
    "website": "https://www.yardhouse.com/locations/ca/marina-del-rey/marina-del-rey-marina-marketplace/8350?cmpid=br:yh_ag:ie_ch:loc_ca:YHGMB_sn:gmb_gt:marina-del-rey-ca-8350_pl:locurl_rd:1047",
    "category": "Bar & Restaurant",
    "types": "meal_takeaway, restaurant, food, bar, point_of_interest, establishment"
  },
  {
    "place_id": "ChIJxYJsntO6woAR1c4BauTEXog",
    "name": "Basement Tavern",
    "street_address": "2640 Main Street",
    "city": "Santa Monica",
    "state": "CA",
    "zip_code": "90405",
    "latitude": 34.00138889999999,
    "longitude": -118.4833333,
    "website": null,
    "category": "Bar & Restaurant",
    "types": "bar, restaurant, point_of_interest, food, establishment"
  },
  {
    "place_id": "ChIJq7OSk8WkwoARIhDrvzps_Cs",
    "name": "1212 Santa Monica",
    "street_address": "1212 3rd Street Promenade",
    "city": "Santa Monica",
    "state": "CA",
    "zip_code": "90401",
    "latitude": 34.0178522,
    "longitude": -118.4990463,
    "website": "http://1212santamonica.com/",
    "category": "Bar & Restaurant",
    "types": "night_club, bar, restaurant, food, point_of_interest, establishment"
  },
  {
    "place_id": "ChIJV6f8gOmlwoAR2nc4RF5cmLc",
    "name": "The Backyard",
    "street_address": "1657 Ocean Avenue",
    "city": "Santa Monica",
    "state": "CA",
    "zip_code": "90401",
    "latitude": 34.010459,
    "longitude": -118.4932664,
    "website": "https://chezjays.com/backyard",
    "category": "Bar & Restaurant",
    "types": "night_club, bar, restaurant, point_of_interest, food, establishment"
  },
  {
    "place_id": "ChIJL32iHtK6woARflF-Mf6Eg3k",
    "name": "Tavern on Main SM",
    "street_address": "2907 Main Street",
    "city": "Santa Monica",
    "state": "CA",
    "zip_code": "90405",
    "latitude": 33.99944299999999,
    "longitude": -118.48069,
    "website": "https://www.tavernonmainsm.com/",
    "category": "Bar & Restaurant",
    "types": "restaurant, bar, food, point_of_interest, establishment"
  },
  {
    "place_id": "ChIJt0fwxjK7woARPmN1T2I_Oss",
    "name": "The Auld Fella - Wilshire",
    "street_address": "11831 Wilshire Boulevard",
    "city": "Los Angeles",
    "state": "CA",
    "zip_code": "90025",
    "latitude": 34.0477576,
    "longitude": -118.4633798,
    "website": "https://theauldfella.com/",
    "category": "Restaurant",
    "types": "restaurant, food, point_of_interest, establishment"
  },
  {
    "place_id": "ChIJwcGa2I66woAR-PaKIbigIw0",
    "name": "Brennan's",
    "street_address": "4089 Lincoln Boulevard",
    "city": "Marina del Rey",
    "state": "CA",
    "zip_code": "90292",
    "latitude": 33.98829179999999,
    "longitude": -118.4461126,
    "website": "https://www.brennansla.com/",
    "category": "Bar & Restaurant",
    "types": "bar, restaurant, food, point_of_interest, establishment"
  },
  {
    "place_id": "ChIJn2TV2H-7woARH86XMFRjMJA",
    "name": "Baltaire Restaurant",
    "street_address": "11647 San Vicente Boulevard",
    "city": "Los Angeles",
    "state": "CA",
    "zip_code": "90049",
    "latitude": 34.0542596,
    "longitude": -118.4639985,
    "website": "http://baltaire.com/?y_source=1_MTAwMjE5NTM4NC03MTUtbG9jYXRpb24ud2Vic2l0ZQ%3D%3D",
    "category": "Bar & Restaurant",
    "types": "restaurant, night_club, bar, food, point_of_interest, establishment"
  },
  {
    "place_id": "ChIJ2R7aBaO6woARghO9w5w0ppc",
    "name": "The Venice Whaler",
    "street_address": "10 Washington Boulevard",
    "city": "Los Angeles",
    "state": "CA",
    "zip_code": "90292",
    "latitude": 33.9789848,
    "longitude": -118.4665903,
    "website": "http://whalerbeachbar.com/",
    "category": "Bar & Restaurant",
    "types": "bar, restaurant, point_of_interest, food, establishment"
  },
  {
    "place_id": "ChIJw2u1EXC7woARYtJc_HEDnMQ",
    "name": "The Nickel Mine",
    "street_address": "11363 Santa Monica Boulevard",
    "city": "Los Angeles",
    "state": "CA",
    "zip_code": "90025",
    "latitude": 34.0460468,
    "longitude": -118.4507368,
    "website": "http://www.nickelmine.com/",
    "category": "Bar & Restaurant",
    "types": "bar, restaurant, point_of_interest, food, establishment"
  },
  {
    "place_id": "ChIJB3WMZRC7woAR673KEApISfI",
    "name": "Thunderbird Bar",
    "street_address": "12217 Wilshire Boulevard",
    "city": "Los Angeles",
    "state": "CA",
    "zip_code": "90025",
    "latitude": 34.0433896,
    "longitude": -118.4688729,
    "website": "http://thunderbirdbarla.com/",
    "category": "Bar & Restaurant",
    "types": "bar, restaurant, food, point_of_interest, establishment"
  },
  {
    "place_id": "ChIJE5eMvrCkwoARI42E-iQohzU",
    "name": "The Courtyard Kitchen",
    "street_address": "1211 Montana Avenue",
    "city": "Santa Monica",
    "state": "CA",
    "zip_code": "90403",
    "latitude": 34.0311416,
    "longitude": -118.4967916,
    "website": "https://www.courtyardkitchenla.com/",
    "category": "Bar & Restaurant",
    "types": "bar, restaurant, food, point_of_interest, establishment"
  },
  {
    "place_id": "ChIJFzoSp82kwoARbw9rwj7CCZI",
    "name": "Bodega Wine Bar",
    "street_address": "814 Broadway",
    "city": "Santa Monica",
    "state": "CA",
    "zip_code": "90401",
    "latitude": 34.0183156,
    "longitude": -118.4893379,
    "website": "http://www.bodegawinebar.com/",
    "category": "Bar & Restaurant",
    "types": "cafe, bar, restaurant, food, point_of_interest, store, establishment"
  },
  {
    "place_id": "ChIJpRA7BdCkwoAR-qRT4px3tNo",
    "name": "Water Grill",
    "street_address": "1401 Ocean Avenue",
    "city": "Santa Monica",
    "state": "CA",
    "zip_code": "90401",
    "latitude": 34.0140177,
    "longitude": -118.4974506,
    "website": "https://www.watergrill.com/sm",
    "category": "Restaurant",
    "types": "restaurant, food, point_of_interest, establishment"
  },
  {
    "place_id": "ChIJiXNws866woAR3PfRJukrTuY",
    "name": "The Venice Beach Bar & Kitchen",
    "street_address": "323 Ocean Front Walk",
    "city": "Los Angeles",
    "state": "CA",
    "zip_code": "90291",
    "latitude": 33.9941151,
    "longitude": -118.4798821,
    "website": "http://thevenicebeachbar.com/",
    "category": "Bar & Restaurant",
    "types": "bar, restaurant, food, point_of_interest, establishment"
  },
  {
    "place_id": "ChIJMcRopSu7woAR4FZGmtDk_hI",
    "name": "The Penmar",
    "street_address": "1233 Rose Avenue",
    "city": "Los Angeles",
    "state": "CA",
    "zip_code": "90291",
    "latitude": 34.0064408,
    "longitude": -118.459149,
    "website": "http://www.thepenmar.com/",
    "category": "Restaurant",
    "types": "restaurant, point_of_interest, food, establishment"
  },
  {
    "place_id": "ChIJX9xnhZmlwoARjTj8jUxD0Vc",
    "name": "Seaside on the Pier",
    "street_address": "250 Santa Monica Pier",
    "city": "Santa Monica",
    "state": "CA",
    "zip_code": "90401",
    "latitude": 34.0099943,
    "longitude": -118.4965085,
    "website": "https://www.seasideonthepier.com/?y_source=1_OTExNTczOC03MTUtbG9jYXRpb24ud2Vic2l0ZQ%3D%3D",
    "category": "Bar & Restaurant",
    "types": "restaurant, bar, food, point_of_interest, establishment"
  },
  {
    "place_id": "ChIJtX5VAUS7woARjpFmHfHXtYI",
    "name": "Busby's West",
    "street_address": "3110 Santa Monica Boulevard",
    "city": "Santa Monica",
    "state": "CA",
    "zip_code": "90404",
    "latitude": 34.03711159999999,
    "longitude": -118.469102,
    "website": "https://www.busbyswest.com/",
    "category": "Bar & Restaurant",
    "types": "night_club, meal_takeaway, restaurant, food, bar, point_of_interest, establishment"
  },
  {
    "place_id": "ChIJV2XLBaO6woARqP-LYI1gFB0",
    "name": "Hinano Cafe",
    "street_address": "15 Washington Boulevard",
    "city": "Los Angeles",
    "state": "CA",
    "zip_code": "90292",
    "latitude": 33.9794913,
    "longitude": -118.4665697,
    "website": "http://hinanocafevenice.com/",
    "category": "Bar & Restaurant",
    "types": "cafe, bar, restaurant, food, point_of_interest, establishment"
  },
  {
    "place_id": "ChIJN6S_e0q7woARAn38QtgpwHs",
    "name": "Sorry Not Sorry",
    "street_address": "11520 West Pico Boulevard",
    "city": "Los Angeles",
    "state": "CA",
    "zip_code": "90064",
    "latitude": 34.0330807,
    "longitude": -118.4425183,
    "website": "http://sorrynotsorryla.com/",
    "category": "Bar & Restaurant",
    "types": "bar, restaurant, food, point_of_interest, establishment"
  },
  {
    "place_id": "ChIJxxjWfhy7woARpk66OhaQSaM",
    "name": "Society Kitchen",
    "street_address": "2901 Ocean Park Boulevard",
    "city": "Santa Monica",
    "state": "CA",
    "zip_code": "90405",
    "latitude": 34.0200485,
    "longitude": -118.4544695,
    "website": "http://www.societykitchenla.com/",
    "category": "Restaurant",
    "types": "restaurant, food, point_of_interest, establishment"
  },
  {
    "place_id": "ChIJHRAmNsSkwoARdabdgEIle8Q",
    "name": "LOBBY LOUNGE",
    "street_address": "101 Wilshire Boulevard",
    "city": "Santa Monica",
    "state": "CA",
    "zip_code": "90401",
    "latitude": 34.0178812,
    "longitude": -118.501449,
    "website": "https://www.fairmont.com/santa-monica/dining/lobbylounge/?utm_source=google+Maps&utm_medium=seo+maps&utm_campaign=seo+maps",
    "category": "Bar & Restaurant",
    "types": "night_club, bar, restaurant, point_of_interest, food, establishment"
  },
  {
    "place_id": "ChIJ1cWo-z2_woARNF2wrig5QYU",
    "name": "Tribute Hollywood",
    "street_address": "1608 North Cahuenga Boulevard",
    "city": "Los Angeles",
    "state": "CA",
    "zip_code": "90028",
    "latitude": 34.1001126,
    "longitude": -118.3292778,
    "website": "https://tributehollywood.com/",
    "category": "Bar & Restaurant",
    "types": "bar, restaurant, point_of_interest, food, establishment"
  },
  {
    "place_id": "ChIJHdvykzq_woARuqOJmCZ0vOU",
    "name": "The Cat & Fiddle Pub & Restaurant",
    "street_address": "742 Highland Avenue",
    "city": "West Hollywood",
    "state": "CA",
    "zip_code": "90038",
    "latitude": 34.0847455,
    "longitude": -118.3384097,
    "website": "https://www.thecatandfiddle.com/",
    "category": "Bar & Restaurant",
    "types": "bar, restaurant, food, point_of_interest, establishment"
  },
  {
    "place_id": "ChIJGyN_YTm_woARJURe8ErX5JY",
    "name": "Beetle House LA",
    "street_address": "7080 Hollywood Boulevard",
    "city": "Los Angeles",
    "state": "CA",
    "zip_code": "90028",
    "latitude": 34.1012553,
    "longitude": -118.3445968,
    "website": "http://www.beetlehousela.com/",
    "category": "Bar & Restaurant",
    "types": "bar, restaurant, food, point_of_interest, establishment"
  },
  {
    "place_id": "ChIJG67Y2Qy_woARiCUArVKWABU",
    "name": "NBC Sports Grill & Brew",
    "street_address": "167 Universal City Plaza",
    "city": "Los Angeles",
    "state": "CA",
    "zip_code": "90068",
    "latitude": 34.1359464,
    "longitude": -118.3537883,
    "website": "https://www.universalstudioshollywood.com/web/en/us/things-to-do/dining/citywalk/nbc-sports-grill",
    "category": "Bar & Restaurant",
    "types": "bar, restaurant, point_of_interest, food, establishment"
  },
  {
    "place_id": "ChIJ4zkEvBS_woARO88OaiSfWd0",
    "name": "Lily\u2019s Bar",
    "street_address": "6141 Franklin Avenue",
    "city": "Los Angeles",
    "state": "CA",
    "zip_code": "90028",
    "latitude": 34.1054327,
    "longitude": -118.3237072,
    "website": null,
    "category": "Restaurant",
    "types": "restaurant, food, point_of_interest, establishment"
  },
  {
    "place_id": "ChIJ7U1pzEa_woARDCbu4mCVczY",
    "name": "Birds",
    "street_address": "5925 Franklin Avenue",
    "city": "Los Angeles",
    "state": "CA",
    "zip_code": "90028",
    "latitude": 34.1053881,
    "longitude": -118.3189227,
    "website": "http://www.birdshollywood.com/",
    "category": "Bar & Restaurant",
    "types": "restaurant, cafe, food, bar, point_of_interest, establishment"
  },
  {
    "place_id": "ChIJOdUJWD66woARV0TAimuaRFc",
    "name": "Joxer Daly's",
    "street_address": "11168 Washington Boulevard",
    "city": "Culver City",
    "state": "CA",
    "zip_code": "90232",
    "latitude": 34.0078083,
    "longitude": -118.4123389,
    "website": "https://joxerdalys.shop/",
    "category": "Bar & Restaurant",
    "types": "bar, restaurant, food, point_of_interest, establishment"
  },
  {
    "place_id": "ChIJmzFdlpiwwoARh6XTfp1GseY",
    "name": "Astro Pub",
    "street_address": "12746 West Jefferson Boulevard",
    "city": "Los Angeles",
    "state": "CA",
    "zip_code": "90094",
    "latitude": 33.9766076,
    "longitude": -118.4179326,
    "website": "http://www.wholefoodsmarket.com/stores/playavista?utm_source=google&utm_medium=organic&utm_campaign=listings",
    "category": "Bar & Restaurant",
    "types": "bar, restaurant, food, point_of_interest, establishment"
  },
  {
    "place_id": "ChIJ47IVxJi7woARg7_yp2wlJ2M",
    "name": "N17 The Lane",
    "street_address": "12821 Washington Boulevard",
    "city": "Los Angeles",
    "state": "CA",
    "zip_code": "90066",
    "latitude": 33.9959286,
    "longitude": -118.4374311,
    "website": "http://n17thelane.com/",
    "category": "Bar & Restaurant",
    "types": "restaurant, food, bar, point_of_interest, establishment"
  },
  {
    "place_id": "ChIJUwBPyiW6woARabIvmpP3cfY",
    "name": "Backstage Bar & Grill",
    "street_address": "10400 Culver Boulevard",
    "city": "Culver City",
    "state": "CA",
    "zip_code": "90232",
    "latitude": 34.0162722,
    "longitude": -118.4001389,
    "website": "http://www.backstageculvercity.com/",
    "category": "Bar & Restaurant",
    "types": "night_club, bar, restaurant, food, point_of_interest, establishment"
  },
  {
    "place_id": "ChIJn9dwd9OwwoARJSS_JjeTStM",
    "name": "Melody Bar & Grill",
    "street_address": "9132 South Sepulveda Boulevard",
    "city": "Los Angeles",
    "state": "CA",
    "zip_code": "90045",
    "latitude": 33.9537441,
    "longitude": -118.3959086,
    "website": "http://www.melodylax.com/",
    "category": "Bar & Restaurant",
    "types": "restaurant, food, bar, point_of_interest, establishment"
  },
  {
    "place_id": "ChIJ07PRLAK6woARnCJwHgV09_Y",
    "name": "Scarlet Lady Saloon",
    "street_address": "5411 Sepulveda Boulevard",
    "city": "Culver City",
    "state": "CA",
    "zip_code": "90230",
    "latitude": 33.994589,
    "longitude": -118.395847,
    "website": "https://scarletladysaloon1.wixsite.com/sportsbar",
    "category": "Bar & Restaurant",
    "types": "night_club, bar, restaurant, point_of_interest, food, establishment"
  },
  {
    "place_id": "ChIJ86UDt2i6woAR8NY8Uebz55Q",
    "name": "Alibi Room",
    "street_address": "12236 Washington Boulevard",
    "city": "Los Angeles",
    "state": "CA",
    "zip_code": "90066",
    "latitude": 33.9969885,
    "longitude": -118.4266517,
    "website": "http://www.alibiroomla.com/",
    "category": "Bar & Restaurant",
    "types": "bar, restaurant, point_of_interest, food, establishment"
  },
  {
    "place_id": "ChIJ3efCgPO7woARQDK3uW3u81c",
    "name": "33 Taps Culver City",
    "street_address": "9739 Culver Boulevard",
    "city": "Culver City",
    "state": "CA",
    "zip_code": "90232",
    "latitude": 34.0219077,
    "longitude": -118.3965615,
    "website": "http://www.eatdrink33.com/",
    "category": "Bar & Restaurant",
    "types": "bar, restaurant, point_of_interest, food, establishment"
  },
  {
    "place_id": "ChIJYfakTkm7woARxxhb1aMEL14",
    "name": "Bru's Wiffle Santa Monica",
    "street_address": "2315 Wilshire Boulevard",
    "city": "Santa Monica",
    "state": "CA",
    "zip_code": "90403",
    "latitude": 34.03390520000001,
    "longitude": -118.4803412,
    "website": "https://www.bruswiffle.com/",
    "category": "Restaurant",
    "types": "restaurant, food, point_of_interest, establishment"
  },
  {
    "place_id": "ChIJAZ-PSOuwwoARM1F-gKin2OA",
    "name": "Hacienda Del Rey",
    "street_address": "8347 Lincoln Boulevard",
    "city": "Los Angeles",
    "state": "CA",
    "zip_code": "90045",
    "latitude": 33.9614389,
    "longitude": -118.420975,
    "website": "http://www.haciendafamily.com/",
    "category": "Bar & Restaurant",
    "types": "bar, restaurant, food, point_of_interest, establishment"
  },
  {
    "place_id": "ChIJieZoRYW6woARx0gfLACzVnQ",
    "name": "Wave Poolside Bar & Grill",
    "street_address": "4375 Admiralty Way",
    "city": "Marina del Rey",
    "state": "CA",
    "zip_code": "90292",
    "latitude": 33.984082,
    "longitude": -118.450811,
    "website": "https://www.ritzcarlton.com/en/hotels/laxmd-the-ritz-carlton-marina-del-rey/dining/?scid=feed67b0-9a2f-4de1-8df6-114544116108",
    "category": "Bar & Restaurant",
    "types": "bar, cafe, restaurant, food, point_of_interest, establishment"
  },
  {
    "place_id": "ChIJiXL0A_a7woARaRn4Hqlxj6U",
    "name": "SOCALO",
    "street_address": "1920 Santa Monica Boulevard",
    "city": "Santa Monica",
    "state": "CA",
    "zip_code": "90404",
    "latitude": 34.0283741,
    "longitude": -118.4800442,
    "website": "http://www.socalo.com/",
    "category": "Restaurant",
    "types": "restaurant, food, point_of_interest, establishment"
  },
  {
    "place_id": "ChIJp40IwA67woARpIgPhUzic6I",
    "name": "The Talpa Restaurant & Bar",
    "street_address": "11751 West Pico Boulevard",
    "city": "Los Angeles",
    "state": "CA",
    "zip_code": "90064",
    "latitude": 34.0311998,
    "longitude": -118.4469398,
    "website": "https://thetalpa.com/",
    "category": "Restaurant",
    "types": "restaurant, point_of_interest, food, establishment"
  },
  {
    "place_id": "ChIJQexQK7-7woARFpzjEzD0w8o",
    "name": "Mayura Indian Restaurant",
    "street_address": "10406 Venice Boulevard",
    "city": "Culver City",
    "state": "CA",
    "zip_code": "90232",
    "latitude": 34.019929,
    "longitude": -118.4040319,
    "website": "https://mayura-indian-restaurant.com/",
    "category": "Restaurant",
    "types": "meal_takeaway, restaurant, point_of_interest, food, establishment"
  },
  {
    "place_id": "ChIJHS0bQI66woARjL5I73m_T5I",
    "name": "Cabo Cantina",
    "street_address": "30 Washington Boulevard",
    "city": "Marina del Rey",
    "state": "CA",
    "zip_code": "90292",
    "latitude": 33.9793861,
    "longitude": -118.4658583,
    "website": "http://www.cabocantina.com/",
    "category": "Bar & Restaurant",
    "types": "bar, restaurant, food, point_of_interest, establishment"
  },
  {
    "place_id": "ChIJcQFi8bmkwoARuV80fVJCnoI",
    "name": "Rosti Tuscan Kitchen - Santa Monica",
    "street_address": "931 Montana Avenue",
    "city": "Santa Monica",
    "state": "CA",
    "zip_code": "90403",
    "latitude": 34.0291701,
    "longitude": -118.4992601,
    "website": "http://www.rostituscankitchen.com/",
    "category": "Restaurant",
    "types": "meal_takeaway, store, restaurant, food, point_of_interest, establishment"
  },
  {
    "place_id": "ChIJNyOiytCkwoARtcYo3PcXT2o",
    "name": "The Albright",
    "street_address": "258 Santa Monica Pier",
    "city": "Santa Monica",
    "state": "CA",
    "zip_code": "90401",
    "latitude": 34.0097652,
    "longitude": -118.4965926,
    "website": "https://www.thealbright.com/",
    "category": "Bar & Restaurant",
    "types": "bar, restaurant, point_of_interest, food, establishment"
  },
  {
    "place_id": "ChIJiTygySqlwoAR4kCEGyeUlR8",
    "name": "Kafe K",
    "street_address": "2209 Main Street",
    "city": "Santa Monica",
    "state": "CA",
    "zip_code": "90405",
    "latitude": 34.0056033,
    "longitude": -118.4870045,
    "website": "http://www.kafekcalifornia.com/",
    "category": "Bar & Restaurant",
    "types": "restaurant, liquor_store, cafe, bar, food, point_of_interest, store, establishment"
  },
  {
    "place_id": "ChIJQSwgGUzGwoARhEKotmw64n8",
    "name": "The Redwood Bar & Grill",
    "street_address": "316 West 2nd Street",
    "city": "Los Angeles",
    "state": "CA",
    "zip_code": "90012",
    "latitude": 34.0527311,
    "longitude": -118.2474087,
    "website": "http://www.theredwoodbar.com/",
    "category": "Bar & Restaurant",
    "types": "bar, restaurant, food, point_of_interest, establishment"
  },
  {
    "place_id": "ChIJbdPsJH7HwoAREYhFZQvsQC0",
    "name": "Lazy Dog Restaurant & Bar",
    "street_address": "800 West Olympic Boulevard",
    "city": "Los Angeles",
    "state": "CA",
    "zip_code": "90015",
    "latitude": 34.0447954,
    "longitude": -118.2652703,
    "website": "https://www.lazydogrestaurants.com/locations/la-live-ca",
    "category": "Bar & Restaurant",
    "types": "restaurant, food, bar, point_of_interest, establishment"
  },
  {
    "place_id": "ChIJG5wBgrfHwoARj_V1a6PV9SQ",
    "name": "Yard House",
    "street_address": "800 West Olympic Boulevard",
    "city": "Los Angeles",
    "state": "CA",
    "zip_code": "90015",
    "latitude": 34.04512,
    "longitude": -118.2657,
    "website": "https://www.yardhouse.com/locations/ca/los-angeles/los-angeles-la-live/8321?cmpid=br:yh_ag:ie_ch:loc_ca:YHGMB_sn:gmb_gt:los-angeles-ca-8321_pl:locurl_rd:1019",
    "category": "Bar & Restaurant",
    "types": "bar, meal_takeaway, restaurant, food, point_of_interest, establishment"
  },
  {
    "place_id": "ChIJgegyNVrHwoARkEbBhAI03ok",
    "name": "Hill Street Bar & Restaurant",
    "street_address": "200 South Hill Street",
    "city": "Los Angeles",
    "state": "CA",
    "zip_code": "90012",
    "latitude": 34.0529459,
    "longitude": -118.2477338,
    "website": "http://www.hillstreetla.com/",
    "category": "Bar & Restaurant",
    "types": "bar, restaurant, point_of_interest, food, establishment"
  },
  {
    "place_id": "ChIJAQDApbnHwoAR5MBooNPU3CA",
    "name": "Glance Lobby Bar",
    "street_address": "900 West Olympic Boulevard",
    "city": "Los Angeles",
    "state": "CA",
    "zip_code": "90015",
    "latitude": 34.0451611,
    "longitude": -118.2666712,
    "website": "https://www.marriott.com/hotels/hotel-information/restaurant/laxjw-jw-marriott-los-angeles-l.a.-live/?scid=f2ae0541-1279-4f24-b197-a979c79310b0",
    "category": "Restaurant",
    "types": "restaurant, point_of_interest, food, establishment"
  },
  {
    "place_id": "ChIJ_48AUrHHwoARyoV0Rk_EjdU",
    "name": "Dublin's Irish Whiskey Pub",
    "street_address": "815 West 7th Street",
    "city": "Los Angeles",
    "state": "CA",
    "zip_code": "90017",
    "latitude": 34.0491141,
    "longitude": -118.2590567,
    "website": "https://www.dublinson7th.com/",
    "category": "Bar & Restaurant",
    "types": "bar, restaurant, point_of_interest, food, establishment"
  },
  {
    "place_id": "ChIJgaEtP33GwoARN5tk9ao-LaE",
    "name": "The Office Bar & Grill",
    "street_address": "2412 North Broadway",
    "city": "Los Angeles",
    "state": "CA",
    "zip_code": "90031",
    "latitude": 34.0733225,
    "longitude": -118.216465,
    "website": "https://to-barngrill.com/",
    "category": "Bar & Restaurant",
    "types": "bar, restaurant, food, point_of_interest, establishment"
  },
  {
    "place_id": "ChIJ1-pP9EjGwoARJ96IwETSTDE",
    "name": "Justice Urban Tavern",
    "street_address": "120 South Los Angeles Street",
    "city": "Los Angeles",
    "state": "CA",
    "zip_code": "90012",
    "latitude": 34.050996,
    "longitude": -118.2424459,
    "website": null,
    "category": "Bar & Restaurant",
    "types": "bar, restaurant, food, point_of_interest, establishment"
  },
  {
    "place_id": "ChIJAQCkfLfHwoARwX6V6oqnwtE",
    "name": "Bar Figueroa",
    "street_address": "939 South Figueroa Street",
    "city": "Los Angeles",
    "state": "CA",
    "zip_code": "90015",
    "latitude": 34.045529,
    "longitude": -118.2640141,
    "website": "http://www.barfigueroa.com/",
    "category": "Bar & Restaurant",
    "types": "bar, night_club, restaurant, food, point_of_interest, establishment"
  },
  {
    "place_id": "ChIJJV1_EkrGwoARvj3I4zlbyMA",
    "name": "The Love Song Bar",
    "street_address": "450 Main Street",
    "city": "Los Angeles",
    "state": "CA",
    "zip_code": "90013",
    "latitude": 34.0470379,
    "longitude": -118.247999,
    "website": "http://www.instagram.com/thelovesongbar",
    "category": "Bar & Restaurant",
    "types": "bar, restaurant, food, point_of_interest, establishment"
  },
  {
    "place_id": "ChIJfT7yFiDHwoARORVyaJSlrsQ",
    "name": "The Douglas",
    "street_address": "1400 West Sunset Boulevard",
    "city": "Los Angeles",
    "state": "CA",
    "zip_code": "90026",
    "latitude": 34.07424690000001,
    "longitude": -118.2523654,
    "website": "http://www.thedouglasla.com/",
    "category": "Bar & Restaurant",
    "types": "bar, restaurant, food, point_of_interest, establishment"
  },
  {
    "place_id": "ChIJJSOuYrTHwoARTMd9zqezC_Q",
    "name": "Library Bar",
    "street_address": "630 West 6th Street",
    "city": "Los Angeles",
    "state": "CA",
    "zip_code": "90017",
    "latitude": 34.0491361,
    "longitude": -118.2564556,
    "website": "http://librarybarla.com/",
    "category": "Bar & Restaurant",
    "types": "bar, night_club, restaurant, point_of_interest, food, establishment"
  },
  {
    "place_id": "ChIJd8SPlUDHwoAROI0jUETAfZM",
    "name": "The Liberties DTLA",
    "street_address": "1111 Wilshire Boulevard",
    "city": "Los Angeles",
    "state": "CA",
    "zip_code": "90017",
    "latitude": 34.0528158,
    "longitude": -118.2637628,
    "website": "https://www.thelibertiesofdublin.com/",
    "category": "Bar & Restaurant",
    "types": "bar, restaurant, food, point_of_interest, establishment"
  },
  {
    "place_id": "ChIJqbKnF0vGwoARREUrVhYGqTU",
    "name": "Perch",
    "street_address": "448 South Hill Street",
    "city": "Los Angeles",
    "state": "CA",
    "zip_code": "90013",
    "latitude": 34.0489961,
    "longitude": -118.2514107,
    "website": "http://perchla.com/",
    "category": "Bar & Restaurant",
    "types": "bar, restaurant, food, point_of_interest, establishment"
  },
  {
    "place_id": "ChIJkVW2qrnHwoARt_ZTFSxyS00",
    "name": "Tom's Watch Bar - Los Angeles",
    "street_address": "1011 South Figueroa Street",
    "city": "Los Angeles",
    "state": "CA",
    "zip_code": "90015",
    "latitude": 34.0439289,
    "longitude": -118.2652624,
    "website": "https://tomswatchbar.com/los-angeles/",
    "category": "Bar & Restaurant",
    "types": "bar, restaurant, point_of_interest, food, establishment"
  },
  {
    "place_id": "ChIJ7S3wRbjHwoARtVvNgmTa48E",
    "name": "Impact Bar & Grill",
    "street_address": "1111 South Figueroa Street",
    "city": "Los Angeles",
    "state": "CA",
    "zip_code": "90015",
    "latitude": 34.0434718,
    "longitude": -118.2661242,
    "website": null,
    "category": "Bar & Restaurant",
    "types": "bar, restaurant, point_of_interest, food, establishment"
  },
  {
    "place_id": "ChIJTUtPz1bHwoARxfhZXhvzisU",
    "name": "Rock & Reilly's USC - Restaurant and Bar",
    "street_address": "3201 South Hoover Street",
    "city": "Los Angeles",
    "state": "CA",
    "zip_code": "90089",
    "latitude": 34.0242344,
    "longitude": -118.2840919,
    "website": "https://rockandreillys-usc-restaurant-catering.com/",
    "category": "Bar & Restaurant",
    "types": "bar, meal_takeaway, restaurant, food, point_of_interest, establishment"
  },
  {
    "place_id": "ChIJCRF7wDfGwoARl-jRXUeT-fk",
    "name": "The Escondite",
    "street_address": "410 Boyd Street",
    "city": "Los Angeles",
    "state": "CA",
    "zip_code": "90013",
    "latitude": 34.04609440000001,
    "longitude": -118.2421687,
    "website": "http://www.theescondite.com/",
    "category": "Bar & Restaurant",
    "types": "bar, restaurant, food, point_of_interest, establishment"
  },
  {
    "place_id": "ChIJNZg1cUnGwoAR05Ns_8F0y_k",
    "name": "Five Star Bar",
    "street_address": "267 Main Street",
    "city": "Los Angeles",
    "state": "CA",
    "zip_code": "90012",
    "latitude": 34.0498425,
    "longitude": -118.2458241,
    "website": null,
    "category": "Bar & Restaurant",
    "types": "bar, restaurant, point_of_interest, food, establishment"
  },
  {
    "place_id": "ChIJXxLCxj7GwoAR0DXh95LKGy4",
    "name": "Americano",
    "street_address": "923 East 3rd Street",
    "city": "Los Angeles",
    "state": "CA",
    "zip_code": "90013",
    "latitude": 34.0461461,
    "longitude": -118.2342514,
    "website": "http://www.eatdrinkamericano.com/",
    "category": "Bar & Restaurant",
    "types": "restaurant, bar, food, point_of_interest, establishment"
  },
  {
    "place_id": "ChIJbcBHsC7HwoAR2CzNmyrxAl8",
    "name": "The Red Lion Tavern",
    "street_address": "2366 Glendale Boulevard",
    "city": "Los Angeles",
    "state": "CA",
    "zip_code": "90039",
    "latitude": 34.0992197,
    "longitude": -118.2589248,
    "website": "http://www.redliontavern.net/",
    "category": "Bar & Restaurant",
    "types": "bar, restaurant, point_of_interest, food, establishment"
  },
  {
    "place_id": "ChIJxSmfW7THwoARifXQhuqNy5E",
    "name": "Casey's Irish Pub",
    "street_address": "613 South Grand Avenue",
    "city": "Los Angeles",
    "state": "CA",
    "zip_code": "90017",
    "latitude": 34.04848080000001,
    "longitude": -118.2557888,
    "website": "https://caseysirishpubdtla.com/",
    "category": "Bar & Restaurant",
    "types": "bar, restaurant, food, point_of_interest, establishment"
  },
  {
    "place_id": "ChIJMQFUGMjHwoARgEq6zClzjVw",
    "name": "Prank Bar",
    "street_address": "1100 South Hope Street",
    "city": "Los Angeles",
    "state": "CA",
    "zip_code": "90015",
    "latitude": 34.0419977,
    "longitude": -118.2630147,
    "website": "http://www.prankbar.com/",
    "category": "Bar & Restaurant",
    "types": "restaurant, bar, food, point_of_interest, establishment"
  },
  {
    "place_id": "ChIJbxSpVTnGwoARTMstXgkwO8o",
    "name": "Arts District Brewing Company",
    "street_address": "828 Traction Avenue",
    "city": "Los Angeles",
    "state": "CA",
    "zip_code": "90013",
    "latitude": 34.04471129999999,
    "longitude": -118.2352851,
    "website": "http://artsdistrictbrewing.com/",
    "category": "Bar & Restaurant",
    "types": "bar, restaurant, food, point_of_interest, establishment"
  },
  {
    "place_id": "ChIJawC-cufHwoAREP1nD97S9ys",
    "name": "901 Bar and Grill",
    "street_address": "2902 South Figueroa Street",
    "city": "Los Angeles",
    "state": "CA",
    "zip_code": "90007",
    "latitude": 34.025583,
    "longitude": -118.2773206,
    "website": null,
    "category": "Bar & Restaurant",
    "types": "restaurant, bar, food, point_of_interest, establishment"
  },
  {
    "place_id": "ChIJNRYSv8jHwoARe5CQvomkKH0",
    "name": "First Draft Taproom & Kitchen",
    "street_address": "1230 South Olive Street",
    "city": "Los Angeles",
    "state": "CA",
    "zip_code": "90015",
    "latitude": 34.0383626,
    "longitude": -118.2629886,
    "website": "http://www.firstdraftdtla.com/",
    "category": "Bar & Restaurant",
    "types": "bar, restaurant, point_of_interest, food, establishment"
  },
  {
    "place_id": "ChIJKV_WkUvGwoARxDayjmHKl00",
    "name": "Golden Road Grand Central Market",
    "street_address": "317 South Broadway",
    "city": "Los Angeles",
    "state": "CA",
    "zip_code": "90013",
    "latitude": 34.0510559,
    "longitude": -118.2493896,
    "website": "http://www.goldenroad.la/",
    "category": "Bar & Restaurant",
    "types": "bar, restaurant, food, point_of_interest, establishment"
  },
  {
    "place_id": "ChIJe3sg60fGwoARrYfEF5S00FI",
    "name": "Far Bar",
    "street_address": "347 1st Street",
    "city": "Los Angeles",
    "state": "CA",
    "zip_code": "90012",
    "latitude": 34.0496354,
    "longitude": -118.2395974,
    "website": "http://farbarla.com/",
    "category": "Bar & Restaurant",
    "types": "bar, night_club, restaurant, food, point_of_interest, establishment"
  },
  {
    "place_id": "ChIJX1NVnOHHwoARNeXgS3YaVTM",
    "name": "The Lab Gastropub",
    "street_address": "3500 South Figueroa Street",
    "city": "Los Angeles",
    "state": "CA",
    "zip_code": "90007",
    "latitude": 34.0199351,
    "longitude": -118.2809083,
    "website": "https://hospitality.usc.edu/dining_locations/the-lab-gastropub/",
    "category": "Bar & Restaurant",
    "types": "bar, restaurant, point_of_interest, food, establishment"
  },
  {
    "place_id": "ChIJTZy7TWXGwoAR8SuFlL6FUog",
    "name": "Barbara's At the Brewery",
    "street_address": "620 Moulton Avenue",
    "city": "Los Angeles",
    "state": "CA",
    "zip_code": "90031",
    "latitude": 34.0645967,
    "longitude": -118.2180367,
    "website": "https://www.barbarasatthebrewery.com/",
    "category": "Bar & Restaurant",
    "types": "restaurant, bar, food, point_of_interest, establishment"
  },
  {
    "place_id": "ChIJyUY-akTGwoARL9Tyux-Vpb0",
    "name": "Traxx Restaurant",
    "street_address": "800 North Alameda Street",
    "city": "Los Angeles",
    "state": "CA",
    "zip_code": "90012",
    "latitude": 34.0561558,
    "longitude": -118.2366573,
    "website": "http://traxxunion.com/",
    "category": "Bar & Restaurant",
    "types": "bar, restaurant, point_of_interest, food, establishment"
  },
  {
    "place_id": "ChIJXWulT0rGwoARFvjKPOWR40s",
    "name": "Le Petit Paris",
    "street_address": "418 South Spring Street",
    "city": "Los Angeles",
    "state": "CA",
    "zip_code": "90013",
    "latitude": 34.0483433,
    "longitude": -118.248527,
    "website": "http://www.lepetitparisla.com/",
    "category": "Bar & Restaurant",
    "types": "bar, night_club, restaurant, food, point_of_interest, establishment"
  },
  {
    "place_id": "ChIJg1gLOVS_woARUydEgtw7rJ4",
    "name": "Blue Goose Lounge",
    "street_address": "5201 West Sunset Boulevard",
    "city": "Los Angeles",
    "state": "CA",
    "zip_code": "90027",
    "latitude": 34.0984872,
    "longitude": -118.3034425,
    "website": "http://facebook.com/bluegooselounge",
    "category": "Bar & Restaurant",
    "types": "bar, night_club, restaurant, food, point_of_interest, establishment"
  },
  {
    "place_id": "ChIJ_4LzODnGwoARzVvdMH7SFXQ",
    "name": "Wurstk\u00fcche",
    "street_address": "800 East 3rd Street",
    "city": "Los Angeles",
    "state": "CA",
    "zip_code": "90013",
    "latitude": 34.0455078,
    "longitude": -118.2360354,
    "website": "http://www.wurstkuche.com/",
    "category": "Bar & Restaurant",
    "types": "restaurant, bar, food, point_of_interest, establishment"
  },
  {
    "place_id": "ChIJDXPCsRm_woARsLFaSIF3KxM",
    "name": "Sunset Rooftop",
    "street_address": "6099 West Sunset Boulevard",
    "city": "Los Angeles",
    "state": "CA",
    "zip_code": "90028",
    "latitude": 34.0984695,
    "longitude": -118.3219799,
    "website": "http://sunsetrooftophollywood.com/",
    "category": "Bar & Restaurant",
    "types": "bar, restaurant, food, point_of_interest, store, establishment"
  },
  {
    "place_id": "ChIJxYzKacvHwoARPQOiUWVN9yI",
    "name": "Steep LA",
    "street_address": "970 North Broadway",
    "city": "Los Angeles",
    "state": "CA",
    "zip_code": "90012",
    "latitude": 34.06597240000001,
    "longitude": -118.2359037,
    "website": "http://www.steepla.com/",
    "category": "Bar & Restaurant",
    "types": "restaurant, food, bar, point_of_interest, establishment"
  },
  {
    "place_id": "ChIJN1rJ59rAwoARWtzgXpmNlB4",
    "name": "Link N Hops",
    "street_address": "3111 Glendale Boulevard",
    "city": "Los Angeles",
    "state": "CA",
    "zip_code": "90039",
    "latitude": 34.1164924,
    "longitude": -118.263071,
    "website": "http://www.linknhops.com/",
    "category": "Bar & Restaurant",
    "types": "bar, restaurant, food, point_of_interest, establishment"
  },
  {
    "place_id": "ChIJicc1BrLAwoARubqvt1BK9Vc",
    "name": "Spitz - Los Feliz",
    "street_address": "1725 Hillhurst Avenue",
    "city": "Los Angeles",
    "state": "CA",
    "zip_code": "90027",
    "latitude": 34.1025618,
    "longitude": -118.287605,
    "website": "https://spitz-restaurant.com/mediterranean-food-los-feliz-restaurant-bar/",
    "category": "Bar & Restaurant",
    "types": "bar, meal_takeaway, restaurant, food, point_of_interest, establishment"
  },
  {
    "place_id": "ChIJI7aVCujAwoARt19QSFViC7Y",
    "name": "Tam O'Shanter",
    "street_address": "2980 Los Feliz Boulevard",
    "city": "Los Angeles",
    "state": "CA",
    "zip_code": "90039",
    "latitude": 34.1254122,
    "longitude": -118.2643431,
    "website": "https://www.lawrysonline.com/tam-o-shanter/",
    "category": "Bar & Restaurant",
    "types": "restaurant, food, bar, point_of_interest, establishment"
  },
  {
    "place_id": "ChIJCWqcBrLAwoARsfUp_Mi5_74",
    "name": "The Guest House",
    "street_address": "1750 Hillhurst Avenue",
    "city": "Los Angeles",
    "state": "CA",
    "zip_code": "90027",
    "latitude": 34.1029234,
    "longitude": -118.2871721,
    "website": "https://www.theguesthousela.com/",
    "category": "Bar & Restaurant",
    "types": "restaurant, bar, point_of_interest, food, establishment"
  },
  {
    "place_id": "ChIJPbFV0wPBwoARRXgNp8BkmIs",
    "name": "Trophy Wife -Bar - Kitchen - Garden",
    "street_address": "3715 Evans Street West",
    "city": "Los Angeles",
    "state": "CA",
    "zip_code": "90027",
    "latitude": 34.1058043,
    "longitude": -118.2728703,
    "website": "http://www.trophywifela.com/",
    "category": "Bar & Restaurant",
    "types": "bar, restaurant, food, point_of_interest, establishment"
  },
  {
    "place_id": "ChIJSQ7RsDvBwoAReeQVEdUhwD8",
    "name": "Ivanhoe Italian & American Restaurant",
    "street_address": "2500 Riverside Drive",
    "city": "Los Angeles",
    "state": "CA",
    "zip_code": "90039",
    "latitude": 34.1060607,
    "longitude": -118.2569214,
    "website": "http://www.ivanhoela.com/",
    "category": "Bar & Restaurant",
    "types": "restaurant, food, bar, point_of_interest, establishment"
  },
  {
    "place_id": "ChIJ_5O6wunAwoARfoJOtIM7ci0",
    "name": "The Morrison",
    "street_address": "3179 Los Feliz Boulevard",
    "city": "Los Angeles",
    "state": "CA",
    "zip_code": "90039",
    "latitude": 34.1237569,
    "longitude": -118.2687304,
    "website": "https://www.morrisonatwater.com/",
    "category": "Bar & Restaurant",
    "types": "bar, restaurant, food, point_of_interest, establishment"
  },
  {
    "place_id": "ChIJlWQz40jHwoARksV_oqyYK5o",
    "name": "The Black Cat",
    "street_address": "3909 West Sunset Boulevard",
    "city": "Los Angeles",
    "state": "CA",
    "zip_code": "90029",
    "latitude": 34.092078,
    "longitude": -118.279745,
    "website": "https://theblackcatla.getbento.com/",
    "category": "Bar & Restaurant",
    "types": "bar, restaurant, food, point_of_interest, establishment"
  },
  {
    "place_id": "ChIJhcdeTADBwoARsrBGnXNSG8E",
    "name": "Bar Sinizki",
    "street_address": "3147 Glendale Boulevard",
    "city": "Los Angeles",
    "state": "CA",
    "zip_code": "90039",
    "latitude": 34.1172031,
    "longitude": -118.2622504,
    "website": "https://sinizki.com/",
    "category": "Restaurant",
    "types": "restaurant, point_of_interest, food, establishment"
  },
  {
    "place_id": "ChIJNQlqE1XAwoARkIGuO1j11Qg",
    "name": "Tavern on Brand",
    "street_address": "208 North Brand Boulevard",
    "city": "Glendale",
    "state": "CA",
    "zip_code": "91203",
    "latitude": 34.148475,
    "longitude": -118.2546528,
    "website": "https://www.tavernonbrand.com/",
    "category": "Bar & Restaurant",
    "types": "bar, restaurant, food, point_of_interest, establishment"
  },
  {
    "place_id": "ChIJ7eb9UV3AwoARCgGKZfWt9JM",
    "name": "The Pub at Golden Road- Atwater Village",
    "street_address": "5410 West San Fernando Road",
    "city": "Los Angeles",
    "state": "CA",
    "zip_code": "90039",
    "latitude": 34.1504279,
    "longitude": -118.2744584,
    "website": "http://www.goldenroad.la/",
    "category": "Bar & Restaurant",
    "types": "bar, restaurant, food, point_of_interest, establishment"
  },
  {
    "place_id": "ChIJp6Jzote_woARWQmt9jOGPuU",
    "name": "Stage 71",
    "street_address": "3401 West Olive Avenue",
    "city": "Burbank",
    "state": "CA",
    "zip_code": "91505",
    "latitude": 34.15438799999999,
    "longitude": -118.3371784,
    "website": "https://www.wholefoodsmarket.com/stores/burbank?utm_source=google&utm_medium=organic&utm_campaign=listings",
    "category": "Bar & Restaurant",
    "types": "bar, restaurant, point_of_interest, food, establishment"
  },
  {
    "place_id": "ChIJHyush1XAwoARVbhqEHHnDLw",
    "name": "BJ's Restaurant & Brewhouse",
    "street_address": "101 North Brand Boulevard",
    "city": "Glendale",
    "state": "CA",
    "zip_code": "91203",
    "latitude": 34.1464975,
    "longitude": -118.2553321,
    "website": "https://www.bjsrestaurants.com/locations/ca/glendale",
    "category": "Bar & Restaurant",
    "types": "restaurant, bar, food, point_of_interest, establishment"
  },
  {
    "place_id": "ChIJg0CSwHizwoARSkANzAkOK5M",
    "name": "Underground Pub & Grill",
    "street_address": "1332 Hermosa Avenue",
    "city": "Hermosa Beach",
    "state": "CA",
    "zip_code": "90254",
    "latitude": 33.863589,
    "longitude": -118.399922,
    "website": "https://undergroundpubandgrill.com/",
    "category": "Bar & Restaurant",
    "types": "bar, restaurant, food, point_of_interest, establishment"
  },
  {
    "place_id": "ChIJRxvB5DG1woAR-gXj9D2P3XI",
    "name": "Project Barley Taps and Grill",
    "street_address": "136 International Boardwalk",
    "city": "Redondo Beach",
    "state": "CA",
    "zip_code": "90277",
    "latitude": 33.8418576,
    "longitude": -118.3913323,
    "website": "http://www.projectbarley.com/",
    "category": "Bar & Restaurant",
    "types": "restaurant, food, bar, point_of_interest, establishment"
  },
  {
    "place_id": "ChIJryAlyJqzwoAR9_7Y20ELYR4",
    "name": "North End Bar & Grill",
    "street_address": "2626 Hermosa Avenue",
    "city": "Hermosa Beach",
    "state": "CA",
    "zip_code": "90254",
    "latitude": 33.8725299,
    "longitude": -118.4052431,
    "website": "http://www.northendbar.com/",
    "category": "Bar & Restaurant",
    "types": "bar, restaurant, point_of_interest, food, establishment"
  },
  {
    "place_id": "ChIJz0V-Nae0woARvMY-_4dvmbs",
    "name": "The Slip Bar & Eatery - Redondo Beach",
    "street_address": "120 N International Boardwalk",
    "city": "Redondo Beach",
    "state": "CA",
    "zip_code": "90277",
    "latitude": 33.841524,
    "longitude": -118.391165,
    "website": "http://www.theslipbar.com/",
    "category": "Bar & Restaurant",
    "types": "restaurant, food, bar, point_of_interest, establishment"
  },
  {
    "place_id": "ChIJCff21W20woARWUa2cJdGIFE",
    "name": "The Hangar Inn",
    "street_address": "1001 North Aviation Boulevard",
    "city": "Manhattan Beach",
    "state": "CA",
    "zip_code": "90266",
    "latitude": 33.8856964,
    "longitude": -118.3789814,
    "website": "http://www.hangarinn.com/",
    "category": "Bar & Restaurant",
    "types": "bar, restaurant, food, point_of_interest, establishment"
  },
  {
    "place_id": "ChIJ2a3f_3izwoARAM2AYwydd7A",
    "name": "Hennessey's Tavern",
    "street_address": "8 Pier Avenue",
    "city": "Hermosa Beach",
    "state": "CA",
    "zip_code": "90254",
    "latitude": 33.8617737,
    "longitude": -118.4015707,
    "website": "https://www.hennesseystavern.com/locations-hermosa-beach",
    "category": "Bar & Restaurant",
    "types": "bar, restaurant, food, point_of_interest, establishment"
  },
  {
    "place_id": "ChIJ47WUHXmzwoARIk_e3cWOupc",
    "name": "Patrick Molloys",
    "street_address": "50 Pier Avenue",
    "city": "Hermosa Beach",
    "state": "CA",
    "zip_code": "90254",
    "latitude": 33.8618209,
    "longitude": -118.4007869,
    "website": "http://patrickmolloys.com/",
    "category": "Bar & Restaurant",
    "types": "restaurant, bar, food, point_of_interest, establishment"
  },
  {
    "place_id": "ChIJrXyCieyzwoAR1PV_0e8Rkt4",
    "name": "Hennessey's Tavern",
    "street_address": "313 Manhattan Beach Boulevard",
    "city": "Manhattan Beach",
    "state": "CA",
    "zip_code": "90266",
    "latitude": 33.8853972,
    "longitude": -118.4094278,
    "website": "http://www.hennesseystavern.com/",
    "category": "Bar & Restaurant",
    "types": "bar, restaurant, food, point_of_interest, establishment"
  },
  {
    "place_id": "ChIJQ2rdJem0woARfLITOb42NQw",
    "name": "Schooner Bar & Grill",
    "street_address": "2701 190th Street",
    "city": "Redondo Beach",
    "state": "CA",
    "zip_code": "90278",
    "latitude": 33.8585659,
    "longitude": -118.361082,
    "website": "https://www.facebook.com/theschooner/",
    "category": "Bar & Restaurant",
    "types": "bar, restaurant, point_of_interest, food, establishment"
  },
  {
    "place_id": "ChIJ-06FZeuzwoARbHUb3MTgMqI",
    "name": "Shellback Tavern",
    "street_address": "116 Manhattan Beach Boulevard",
    "city": "Manhattan Beach",
    "state": "CA",
    "zip_code": "90266",
    "latitude": 33.8844208,
    "longitude": -118.4112154,
    "website": "https://shellbacktavern.wixsite.com/mysite/about-us",
    "category": "Bar & Restaurant",
    "types": "bar, restaurant, food, point_of_interest, establishment"
  },
  {
    "place_id": "ChIJ-Tzb4nuzwoAR7U5cLJZaP6Q",
    "name": "Barnacles Bar & Grill",
    "street_address": "837 Hermosa Avenue",
    "city": "Hermosa Beach",
    "state": "CA",
    "zip_code": "90254",
    "latitude": 33.8597836,
    "longitude": -118.3996057,
    "website": "http://www.barnaclesbarandgrill.com/",
    "category": "Bar & Restaurant",
    "types": "bar, restaurant, point_of_interest, food, establishment"
  },
  {
    "place_id": "ChIJUdwIFgC1woARDP5t2L20UUw",
    "name": "The coach's sport bar & grill",
    "street_address": "13708 South Inglewood Avenue",
    "city": "Hawthorne",
    "state": "CA",
    "zip_code": "90250",
    "latitude": 33.9076744,
    "longitude": -118.3610105,
    "website": null,
    "category": "Bar & Restaurant",
    "types": "bar, restaurant, point_of_interest, food, establishment"
  },
  {
    "place_id": "ChIJ61L6w9-zwoAR7hPQahN98Sc",
    "name": "OB's Pub & Grill",
    "street_address": "3610 North Highland Avenue",
    "city": "Manhattan Beach",
    "state": "CA",
    "zip_code": "90266",
    "latitude": 33.9006291,
    "longitude": -118.4175137,
    "website": "http://www.obsmb.com/",
    "category": "Bar & Restaurant",
    "types": "bar, restaurant, food, point_of_interest, establishment"
  },
  {
    "place_id": "ChIJtyXZ_0GxwoARmTMu9jfE4i4",
    "name": "Tavern on Main",
    "street_address": "123 Main Street",
    "city": "El Segundo",
    "state": "CA",
    "zip_code": "90245",
    "latitude": 33.9173305,
    "longitude": -118.4162083,
    "website": "https://www.thetavernonmain.com/",
    "category": "Bar & Restaurant",
    "types": "restaurant, food, bar, point_of_interest, establishment"
  },
  {
    "place_id": "ChIJEXnq_kGxwoARoLYGrTjgzd8",
    "name": "Rock & Brews",
    "street_address": "143 Main Street",
    "city": "El Segundo",
    "state": "CA",
    "zip_code": "90245",
    "latitude": 33.9177436,
    "longitude": -118.4161453,
    "website": "https://www.rockandbrews.com/el-segundo",
    "category": "Bar & Restaurant",
    "types": "bar, restaurant, food, point_of_interest, establishment"
  },
  {
    "place_id": "ChIJqSf7jYe0woAR6-G_vN8InvE",
    "name": "Paddy O'Brien's Irish Pub",
    "street_address": "1517 Aviation Boulevard",
    "city": "Redondo Beach",
    "state": "CA",
    "zip_code": "90278",
    "latitude": 33.868537,
    "longitude": -118.3830437,
    "website": null,
    "category": "Bar & Restaurant",
    "types": "bar, restaurant, food, point_of_interest, establishment"
  },
  {
    "place_id": "ChIJbcXmTfSzwoARdqmYuc00K9k",
    "name": "Grunions Sports Bar & Grill",
    "street_address": "1501 North Sepulveda Boulevard",
    "city": "Manhattan Beach",
    "state": "CA",
    "zip_code": "90266",
    "latitude": 33.8896906,
    "longitude": -118.3962496,
    "website": "http://grunionssportsbarandgrill.com/",
    "category": "Bar & Restaurant",
    "types": "bar, restaurant, food, point_of_interest, establishment"
  },
  {
    "place_id": "ChIJaR-3AvezwoARpFvYNnVjh4E",
    "name": "The Castle Sports Bar and Grill",
    "street_address": "2401 North Sepulveda Boulevard",
    "city": "Manhattan Beach",
    "state": "CA",
    "zip_code": "90266",
    "latitude": 33.8940299,
    "longitude": -118.3963292,
    "website": null,
    "category": "Bar & Restaurant",
    "types": "bar, restaurant, food, point_of_interest, establishment"
  },
  {
    "place_id": "ChIJyWEeoOyzwoARWFJyZHzTZvk",
    "name": "Ercole's",
    "street_address": "1101 Manhattan Avenue",
    "city": "Manhattan Beach",
    "state": "CA",
    "zip_code": "90266",
    "latitude": 33.88408160000001,
    "longitude": -118.410661,
    "website": "https://ercoles1101.com/",
    "category": "Bar & Restaurant",
    "types": "bar, restaurant, food, point_of_interest, establishment"
  },
  {
    "place_id": "ChIJe9wUkUGxwoARKk62EUEL38A",
    "name": "Standard Station Sports Bar & Grill",
    "street_address": "226 Standard Street",
    "city": "El Segundo",
    "state": "CA",
    "zip_code": "90245",
    "latitude": 33.9185722,
    "longitude": -118.4145278,
    "website": "http://www.standardstations.com/",
    "category": "Bar & Restaurant",
    "types": "bar, restaurant, point_of_interest, food, establishment"
  },
  {
    "place_id": "ChIJIeoj5UGxwoARSTMfq90lmGY",
    "name": "Brewport Tap House & Kitchen",
    "street_address": "204 Main Street",
    "city": "El Segundo",
    "state": "CA",
    "zip_code": "90245",
    "latitude": 33.91805009999999,
    "longitude": -118.4157387,
    "website": "http://www.brewporttaphouse.com/",
    "category": "Bar & Restaurant",
    "types": "bar, restaurant, food, point_of_interest, establishment"
  },
  {
    "place_id": "ChIJmzBz5560woAR6z3GDnocP0Q",
    "name": "Huddy's",
    "street_address": "514 North Pacific Coast Highway",
    "city": "Redondo Beach",
    "state": "CA",
    "zip_code": "90277",
    "latitude": 33.8502633,
    "longitude": -118.3886745,
    "website": "http://www.hudsonhousebar.com/",
    "category": "Bar & Restaurant",
    "types": "bar, cafe, store, restaurant, food, point_of_interest, establishment"
  },
  {
    "place_id": "ChIJYYRTZOuzwoARdui2aam3pbM",
    "name": "brewco social",
    "street_address": "124 Manhattan Beach Boulevard",
    "city": "Manhattan Beach",
    "state": "CA",
    "zip_code": "90266",
    "latitude": 33.8844875,
    "longitude": -118.4110666,
    "website": "http://www.brewcosocial.com/",
    "category": "Bar & Restaurant",
    "types": "restaurant, bar, point_of_interest, food, establishment"
  },
  {
    "place_id": "ChIJq0aNwDa0woARCzSY6AwzUnc",
    "name": "Corner Joint",
    "street_address": "14319 Hawthorne Boulevard",
    "city": "Lawndale",
    "state": "CA",
    "zip_code": "90260",
    "latitude": 33.9012298,
    "longitude": -118.3535919,
    "website": "https://www.corner-joint.com/",
    "category": "Restaurant",
    "types": "restaurant, point_of_interest, food, establishment"
  },
  {
    "place_id": "ChIJgWTMDmGzwoAR2FfgycwgLJE",
    "name": "Bluewater Grill Seafood Restaurant Redondo Beach",
    "street_address": "665 North Harbor Drive",
    "city": "Redondo Beach",
    "state": "CA",
    "zip_code": "90277",
    "latitude": 33.8486157,
    "longitude": -118.3963445,
    "website": "https://www.bluewatergrill.com/locations/redondo-beach",
    "category": "Bar & Restaurant",
    "types": "bar, restaurant, point_of_interest, food, establishment"
  },
  {
    "place_id": "ChIJM_XeFmqxwoARN3zt4F3Juis",
    "name": "Richmond Bar & Grill",
    "street_address": "145 Richmond Street",
    "city": "El Segundo",
    "state": "CA",
    "zip_code": "90245",
    "latitude": 33.9177065,
    "longitude": -118.4173217,
    "website": "http://richmondbarandgrill.com/",
    "category": "Bar & Restaurant",
    "types": "restaurant, food, bar, point_of_interest, establishment"
  },
  {
    "place_id": "ChIJrQjFPaG0woARYsoJIFHr4PU",
    "name": "The Standing Room Restaurant",
    "street_address": "144 North Catalina Avenue",
    "city": "Redondo Beach",
    "state": "CA",
    "zip_code": "90277",
    "latitude": 33.8434185,
    "longitude": -118.388869,
    "website": "http://www.thestandingroomrestaurant.com/",
    "category": "Restaurant",
    "types": "restaurant, point_of_interest, food, establishment"
  },
  {
    "place_id": "ChIJ3xKkcKC0woARw9QdkYklyc0",
    "name": "R/10 Social House",
    "street_address": "179 North Harbor Drive",
    "city": "Redondo Beach",
    "state": "CA",
    "zip_code": "90277",
    "latitude": 33.842631,
    "longitude": -118.39205,
    "website": "http://r10socialhouse.com/",
    "category": "Bar & Restaurant",
    "types": "restaurant, night_club, bar, food, point_of_interest, establishment"
  },
  {
    "place_id": "ChIJl6HXGHmzwoARrkxuP4xbH2M",
    "name": "American Junkie",
    "street_address": "68 Pier Avenue",
    "city": "Hermosa Beach",
    "state": "CA",
    "zip_code": "90254",
    "latitude": 33.8619446,
    "longitude": -118.4004432,
    "website": "http://www.americanjunkiehb.com/",
    "category": "Bar & Restaurant",
    "types": "restaurant, bar, food, point_of_interest, establishment"
  },
  {
    "place_id": "ChIJ7zpX4nizwoARsBG6Tf3knXI",
    "name": "Tower 12",
    "street_address": "53 Pier Avenue",
    "city": "Hermosa Beach",
    "state": "CA",
    "zip_code": "90254",
    "latitude": 33.86226610000001,
    "longitude": -118.4007646,
    "website": "http://tower12hb.com/",
    "category": "Bar & Restaurant",
    "types": "restaurant, food, bar, point_of_interest, establishment"
  },
  {
    "place_id": "ChIJIVIOeeyzwoARRA54ZV0NII8",
    "name": "Rockefeller - Manhattan Beach",
    "street_address": "1209 Highland Avenue",
    "city": "Manhattan Beach",
    "state": "CA",
    "zip_code": "90266",
    "latitude": 33.8859606,
    "longitude": -118.4103566,
    "website": "http://www.eatrockefeller.com/",
    "category": "Bar & Restaurant",
    "types": "restaurant, bar, food, point_of_interest, establishment"
  },
  {
    "place_id": "ChIJ04KmgZ22woARzGV2gvT-5O4",
    "name": "Cougars Burgers",
    "street_address": "12800 South Inglewood Avenue",
    "city": "Hawthorne",
    "state": "CA",
    "zip_code": "90250",
    "latitude": 33.9162393,
    "longitude": -118.3609296,
    "website": "https://zmenu.com/cougars-burgers-hawthorne-online-menu/",
    "category": "Restaurant",
    "types": "restaurant, food, point_of_interest, establishment"
  },
  {
    "place_id": "ChIJ61pbQ-yzwoARv6NKMNk4CvU",
    "name": "zinc@shade",
    "street_address": "1221 North Valley Drive",
    "city": "Manhattan Beach",
    "state": "CA",
    "zip_code": "90266",
    "latitude": 33.8864419,
    "longitude": -118.4083962,
    "website": "http://mb.shadehotel.com/dine",
    "category": "Bar & Restaurant",
    "types": "bar, restaurant, point_of_interest, food, establishment"
  },
  {
    "place_id": "ChIJ23DphuyzwoARN3OmeuRQpv0",
    "name": "Simmzy's Restaurant Manhattan Beach",
    "street_address": "229 Manhattan Beach Boulevard",
    "city": "Manhattan Beach",
    "state": "CA",
    "zip_code": "90266",
    "latitude": 33.8851946,
    "longitude": -118.4100339,
    "website": "http://www.simmzys.com/",
    "category": "Bar & Restaurant",
    "types": "bar, restaurant, food, point_of_interest, establishment"
  },
  {
    "place_id": "ChIJNwYsmIe0woARUduNtYzfUjI",
    "name": "Jersey's Bar & Grill",
    "street_address": "1453 Aviation Boulevard",
    "city": "Redondo Beach",
    "state": "CA",
    "zip_code": "90278",
    "latitude": 33.8679692,
    "longitude": -118.3833228,
    "website": "https://www.facebook.com/profile.php?id=100063537554419",
    "category": "Bar & Restaurant",
    "types": "bar, restaurant, food, point_of_interest, establishment"
  },
  {
    "place_id": "ChIJUe1zzt-zwoARGcupKHCIeBI",
    "name": "North End Caffe",
    "street_address": "3421 Highland Avenue",
    "city": "Manhattan Beach",
    "state": "CA",
    "zip_code": "90266",
    "latitude": 33.89949979999999,
    "longitude": -118.4173785,
    "website": "http://www.northendcaffe.com/",
    "category": "Restaurant",
    "types": "cafe, restaurant, food, point_of_interest, establishment"
  },
  {
    "place_id": "ChIJAVYwcOuzwoARaHLW6B2Kq8s",
    "name": "The Strand House",
    "street_address": "117 Manhattan Beach Boulevard",
    "city": "Manhattan Beach",
    "state": "CA",
    "zip_code": "90266",
    "latitude": 33.88477439999999,
    "longitude": -118.4113698,
    "website": "https://www.thestrandhousemb.com/",
    "category": "Bar & Restaurant",
    "types": "bar, restaurant, food, point_of_interest, establishment"
  },
  {
    "place_id": "ChIJazkEpiZL3YARG2eCRzqP9i8",
    "name": "Torrance Tavern",
    "street_address": "22735 Hawthorne Boulevard",
    "city": "Torrance",
    "state": "CA",
    "zip_code": "90505",
    "latitude": 33.8211544,
    "longitude": -118.3515626,
    "website": "https://www.torrancetavern.com/",
    "category": "Bar & Restaurant",
    "types": "restaurant, night_club, bar, point_of_interest, food, establishment"
  },
  {
    "place_id": "ChIJz6LRqlBL3YARobNW23nHUaM",
    "name": "Redondo Beach Brew Co",
    "street_address": "1814 South Catalina Avenue",
    "city": "Redondo Beach",
    "state": "CA",
    "zip_code": "90277",
    "latitude": 33.816925,
    "longitude": -118.3871639,
    "website": "https://www.redondobeachbrewco.com/",
    "category": "Bar & Restaurant",
    "types": "restaurant, food, bar, point_of_interest, establishment"
  },
  {
    "place_id": "ChIJD1rQN1dL3YARFGU0g-pDA7E",
    "name": "Hennessey's Tavern",
    "street_address": "1712 South Catalina Avenue",
    "city": "Redondo Beach",
    "state": "CA",
    "zip_code": "90277",
    "latitude": 33.8179537,
    "longitude": -118.3878333,
    "website": "http://www.hennesseystavern.com/",
    "category": "Bar & Restaurant",
    "types": "bar, restaurant, food, point_of_interest, establishment"
  },
  {
    "place_id": "ChIJ9xDairtL3YAR1F8mOgiaL9o",
    "name": "The Brews Hall - Del Amo",
    "street_address": "21770 Del Amo Circle East",
    "city": "Torrance",
    "state": "CA",
    "zip_code": "90503",
    "latitude": 33.828741,
    "longitude": -118.346389,
    "website": "http://thebrewshall.com/",
    "category": "Bar & Restaurant",
    "types": "restaurant, bar, food, point_of_interest, establishment"
  },
  {
    "place_id": "ChIJ_YgCSVdL3YARKBz6SCw3ENw",
    "name": "Locale90 Neapolitan Pizza Market",
    "street_address": "1718 South Catalina Avenue",
    "city": "Redondo Beach",
    "state": "CA",
    "zip_code": "90277",
    "latitude": 33.8177755,
    "longitude": -118.3876433,
    "website": "http://locale90.com/",
    "category": "Restaurant",
    "types": "restaurant, meal_takeaway, meal_delivery, point_of_interest, food, store, establishment"
  },
  {
    "place_id": "ChIJ5Tz9OVdL3YARA2YlQXeqyCM",
    "name": "Rebel Republic Social House Redondo",
    "street_address": "1710 South Catalina Avenue",
    "city": "Redondo Beach",
    "state": "CA",
    "zip_code": "90277",
    "latitude": 33.81805559999999,
    "longitude": -118.3877778,
    "website": "https://www.rebelrepublicsocialhouse.com/",
    "category": "Bar & Restaurant",
    "types": "bar, restaurant, food, point_of_interest, establishment"
  },
  {
    "place_id": "ChIJnUCqY1BL3YARs0sBB2mMIEo",
    "name": "Rock & Brews",
    "street_address": "6300 South Pacific Coast Highway",
    "city": "Redondo Beach",
    "state": "CA",
    "zip_code": "90277",
    "latitude": 33.8184295,
    "longitude": -118.3839656,
    "website": "https://www.rockandbrews.com/redondo-beach",
    "category": "Bar & Restaurant",
    "types": "restaurant, food, bar, point_of_interest, establishment"
  },
  {
    "place_id": "ChIJYxHLIldL3YAR8JytHoLR6vU",
    "name": "Rockefeller - Redondo Beach",
    "street_address": "1707 South Catalina Avenue",
    "city": "Redondo Beach",
    "state": "CA",
    "zip_code": "90277",
    "latitude": 33.8183875,
    "longitude": -118.3884456,
    "website": "http://www.eatrockefeller.com/",
    "category": "Bar & Restaurant",
    "types": "restaurant, bar, cafe, store, food, point_of_interest, establishment"
  },
  {
    "place_id": "ChIJGRNIRypL3YARhORMAIqOJXQ",
    "name": "BJ's Restaurant & Brewhouse",
    "street_address": "3525 West Carson Street",
    "city": "Torrance",
    "state": "CA",
    "zip_code": "90503",
    "latitude": 33.83247840000001,
    "longitude": -118.3471995,
    "website": "https://www.bjsrestaurants.com/locations/ca/del-amo?utm_source=google&utm_medium=organic&utm_campaign=google_my_business",
    "category": "Bar & Restaurant",
    "types": "restaurant, bar, point_of_interest, food, establishment"
  },
  {
    "place_id": "ChIJr9vimjNL3YARProjLITc5x8",
    "name": "The Hook & Plow",
    "street_address": "1729 South Catalina Avenue",
    "city": "Redondo Beach",
    "state": "CA",
    "zip_code": "90277",
    "latitude": 33.81736480000001,
    "longitude": -118.3879663,
    "website": "https://www.thehookandplow.com/",
    "category": "Restaurant",
    "types": "restaurant, food, point_of_interest, establishment"
  },
  {
    "place_id": "ChIJFctMMsy0woAR9tA6_TwFIuQ",
    "name": "The Bounty Room",
    "street_address": "4419 Torrance Boulevard",
    "city": "Torrance",
    "state": "CA",
    "zip_code": "90503",
    "latitude": 33.8380823,
    "longitude": -118.361021,
    "website": "http://thebountyroom.com/",
    "category": "Bar & Restaurant",
    "types": "bar, night_club, restaurant, food, point_of_interest, establishment"
  },
  {
    "place_id": "ChIJiwoBIFdL3YARb00vJ4Au1AM",
    "name": "H.T. Grill",
    "street_address": "1701 South Catalina Avenue",
    "city": "Redondo Beach",
    "state": "CA",
    "zip_code": "90277",
    "latitude": 33.8190026,
    "longitude": -118.3885068,
    "website": "http://www.htgrill.com/",
    "category": "Bar & Restaurant",
    "types": "bar, restaurant, food, point_of_interest, establishment"
  },
  {
    "place_id": "ChIJPxnOnrC1woARegPhf3HfaJI",
    "name": "The Sly Fox Irish Pub",
    "street_address": "16829 Prairie Avenue",
    "city": "Lawndale",
    "state": "CA",
    "zip_code": "90260",
    "latitude": 33.87767719999999,
    "longitude": -118.3440882,
    "website": "https://theslyfoxirishpub.com/",
    "category": "Bar & Restaurant",
    "types": "bar, night_club, restaurant, food, point_of_interest, establishment"
  },
  {
    "place_id": "ChIJE1nelq60woARsBJAxhvPuec",
    "name": "Ragin Cajun Cafe",
    "street_address": "525 South Pacific Coast Highway",
    "city": "Redondo Beach",
    "state": "CA",
    "zip_code": "90277",
    "latitude": 33.8334938,
    "longitude": -118.3853275,
    "website": "http://www.ragincajuncafe.com/",
    "category": "Restaurant",
    "types": "restaurant, food, point_of_interest, establishment"
  },
  {
    "place_id": "ChIJ9YqG4Uu0woARzRFTZ5DRuqI",
    "name": "Padrino's Draft House & Grill",
    "street_address": "15214 Hawthorne Boulevard",
    "city": "Lawndale",
    "state": "CA",
    "zip_code": "90260",
    "latitude": 33.89305830000001,
    "longitude": -118.351765,
    "website": "https://m.facebook.com/Padrinos-Draft-House-577911962733672/",
    "category": "Bar & Restaurant",
    "types": "bar, restaurant, food, point_of_interest, establishment"
  },
  {
    "place_id": "ChIJC9uiZzO7woAR7TxfbCStiXA",
    "name": "The Culver Hotel Bar & Restaurant",
    "street_address": "9400 Culver Boulevard",
    "city": "Culver City",
    "state": "CA",
    "zip_code": "90232",
    "latitude": 34.0239233,
    "longitude": -118.3940638,
    "website": "https://www.culverhotel.com/downtown-culver-city-restaurants",
    "category": "Bar & Restaurant",
    "types": "restaurant, bar, food, point_of_interest, establishment"
  },
  {
    "place_id": "ChIJUyoBEauwwoARR1ow0VQFNpA",
    "name": "BJ's Restaurant & Brewhouse",
    "street_address": "6000 Sepulveda Boulevard",
    "city": "Culver City",
    "state": "CA",
    "zip_code": "90230",
    "latitude": 33.9855231,
    "longitude": -118.3952696,
    "website": "https://www.bjsrestaurants.com/locations/ca/culver-city",
    "category": "Bar & Restaurant",
    "types": "restaurant, bar, point_of_interest, food, establishment"
  },
  {
    "place_id": "ChIJbd4qg9y7woARUbCuM-c-1nI",
    "name": "Jameson's Pub - Culver City",
    "street_address": "9546 Washington Boulevard",
    "city": "Culver City",
    "state": "CA",
    "zip_code": "90232",
    "latitude": 34.02304559999999,
    "longitude": -118.3948051,
    "website": "http://culvercity.jamesonsirishpub.com/",
    "category": "Bar & Restaurant",
    "types": "bar, restaurant, food, point_of_interest, establishment"
  },
  {
    "place_id": "ChIJWy73kim6woAR7yI8vUXtPcU",
    "name": "Rocco's Tavern -Culver City",
    "street_address": "3843 Main Street",
    "city": "Culver City",
    "state": "CA",
    "zip_code": "90232",
    "latitude": 34.0245528,
    "longitude": -118.394709,
    "website": "https://roccos-tavern.club/",
    "category": "Bar & Restaurant",
    "types": "bar, restaurant, food, point_of_interest, establishment"
  },
  {
    "place_id": "ChIJYwKZ7Cm6woAR6PAY5hD5MLU",
    "name": "Public School 310",
    "street_address": "9411 Culver Boulevard",
    "city": "Culver City",
    "state": "CA",
    "zip_code": "90232",
    "latitude": 34.0242851,
    "longitude": -118.3945062,
    "website": "https://www.psontap.com/ps-310",
    "category": "Bar & Restaurant",
    "types": "bar, restaurant, food, point_of_interest, establishment"
  },
  {
    "place_id": "ChIJHe4T_F-7woARfJb1Gql2IDc",
    "name": "A.O.C. BRENTWOOD",
    "street_address": "11648 San Vicente Boulevard",
    "city": "Los Angeles",
    "state": "CA",
    "zip_code": "90049",
    "latitude": 34.0536754,
    "longitude": -118.4633645,
    "website": "http://www.aocwinebar.com/",
    "category": "Restaurant",
    "types": "restaurant, food, point_of_interest, establishment"
  },
  {
    "place_id": "ChIJ9d_s-6K7woARoj21snDKZyo",
    "name": "The Wellesbourne",
    "street_address": "10929 West Pico Boulevard",
    "city": "Los Angeles",
    "state": "CA",
    "zip_code": "90064",
    "latitude": 34.0395162,
    "longitude": -118.4304776,
    "website": "https://www.thewellesbourne.com/",
    "category": "Bar & Restaurant",
    "types": "bar, night_club, restaurant, food, point_of_interest, establishment"
  },
  {
    "place_id": "ChIJy6DoyPO9woAR1-mNQyKUaFA",
    "name": "Bar Toscana",
    "street_address": "11633 San Vicente Boulevard",
    "city": "Los Angeles",
    "state": "CA",
    "zip_code": "90049",
    "latitude": 34.05419090000001,
    "longitude": -118.4631879,
    "website": "http://www.bartoscana.com/",
    "category": "Bar & Restaurant",
    "types": "bar, restaurant, point_of_interest, food, establishment"
  },
  {
    "place_id": "ChIJAxCHD6C8woARyGTn5MorDgM",
    "name": "Coral Tree Cafe",
    "street_address": "11645 San Vicente Boulevard",
    "city": "Los Angeles",
    "state": "CA",
    "zip_code": "90049",
    "latitude": 34.0542238,
    "longitude": -118.4638113,
    "website": "http://coraltreecafe.com/?y_source=1_ODIwOTg5NDUtNzE1LWxvY2F0aW9uLndlYnNpdGU%3D",
    "category": "Restaurant",
    "types": "cafe, restaurant, food, point_of_interest, store, establishment"
  },
  {
    "place_id": "ChIJIdznpQLHwoARBnkxD_y79kw",
    "name": "El Compadre",
    "street_address": "1449 West Sunset Boulevard",
    "city": "Los Angeles",
    "state": "CA",
    "zip_code": "90026",
    "latitude": 34.075174,
    "longitude": -118.253142,
    "website": "http://www.elcompadrerestaurant.com/",
    "category": "Bar & Restaurant",
    "types": "restaurant, food, bar, point_of_interest, establishment"
  },
  {
    "place_id": "ChIJ6YtcQn3GwoARkgfd3-CG0rQ",
    "name": "The Airliner",
    "street_address": "2419 North Broadway",
    "city": "Los Angeles",
    "state": "CA",
    "zip_code": "90031",
    "latitude": 34.073875,
    "longitude": -118.2162379,
    "website": "http://barairliner.com/",
    "category": "Bar & Restaurant",
    "types": "bar, restaurant, food, point_of_interest, establishment"
  },
  {
    "place_id": "ChIJ87ZDws3AwoARQ6ZOCO3nXRs",
    "name": "Edendale Restaurant and Bar",
    "street_address": "2838 Rowena Avenue",
    "city": "Los Angeles",
    "state": "CA",
    "zip_code": "90039",
    "latitude": 34.1075135,
    "longitude": -118.2659008,
    "website": "http://www.theedendale.com/",
    "category": "Bar & Restaurant",
    "types": "bar, restaurant, food, point_of_interest, establishment"
  },
  {
    "place_id": "ChIJTadY5KK4woARkfH2Cf-o6Kc",
    "name": "BiergartenLA - Koreatown",
    "street_address": "206 North Western Avenue",
    "city": "Los Angeles",
    "state": "CA",
    "zip_code": "90004",
    "latitude": 34.07484110000001,
    "longitude": -118.3088919,
    "website": "https://biergartenla.com/",
    "category": "Bar & Restaurant",
    "types": "bar, restaurant, point_of_interest, food, establishment"
  },
  {
    "place_id": "ChIJDfxIfEy5woARD4PpITiLN_8",
    "name": "The Phoenix Bar & Restaurant",
    "street_address": "8480 West 3rd Street",
    "city": "Los Angeles",
    "state": "CA",
    "zip_code": "90048",
    "latitude": 34.0731137,
    "longitude": -118.3758828,
    "website": "http://www.thephoenixla.com/",
    "category": "Bar & Restaurant",
    "types": "night_club, restaurant, bar, food, point_of_interest, establishment"
  },
  {
    "place_id": "ChIJnYQZE125woARdmqMJ-a0sno",
    "name": "Founders Ale House",
    "street_address": "8771 West Pico Boulevard",
    "city": "Los Angeles",
    "state": "CA",
    "zip_code": "90035",
    "latitude": 34.054926,
    "longitude": -118.383229,
    "website": "http://www.foundersalehouse.com/",
    "category": "Bar & Restaurant",
    "types": "bar, restaurant, food, point_of_interest, establishment"
  },
  {
    "place_id": "ChIJe1OEhhzHwoARgvlgRluHI7U",
    "name": "Honey Hi",
    "street_address": "1620 West Sunset Boulevard",
    "city": "Los Angeles",
    "state": "CA",
    "zip_code": "90026",
    "latitude": 34.0769058,
    "longitude": -118.2581031,
    "website": "http://honeyhi.co/",
    "category": "Restaurant",
    "types": "cafe, restaurant, food, point_of_interest, establishment"
  },
  {
    "place_id": "ChIJi4G5KCPGwoARZI_gTqJmHiI",
    "name": "Zinc Caf\u00e9 & Bar",
    "street_address": "580 Mateo Street",
    "city": "Los Angeles",
    "state": "CA",
    "zip_code": "90013",
    "latitude": 34.03938969999999,
    "longitude": -118.2327283,
    "website": "http://www.zinccafe.com/",
    "category": "Restaurant",
    "types": "restaurant, food, point_of_interest, establishment"
  },
  {
    "place_id": "ChIJwfCk1crHwoARLRa9EWdHDws",
    "name": "Wild Living Foods",
    "street_address": "760 Main Street",
    "city": "Los Angeles",
    "state": "CA",
    "zip_code": "90014",
    "latitude": 34.0427132,
    "longitude": -118.2529025,
    "website": "http://www.wildlivingfoods.com/",
    "category": "Restaurant",
    "types": "restaurant, food, point_of_interest, store, establishment"
  },
  {
    "place_id": "ChIJmbGqH7THwoAR1UfWzlucCek",
    "name": "District",
    "street_address": "700 West 7th Street",
    "city": "Los Angeles",
    "state": "CA",
    "zip_code": "90017",
    "latitude": 34.0480155,
    "longitude": -118.2583847,
    "website": "http://www.districtdtla.com/",
    "category": "Bar & Restaurant",
    "types": "bar, restaurant, point_of_interest, food, establishment"
  },
  {
    "place_id": "ChIJkZBQe7zHwoARWdY_-4ZLViM",
    "name": "Wyman Bar",
    "street_address": "304 South Broadway",
    "city": "Los Angeles",
    "state": "CA",
    "zip_code": "90013",
    "latitude": 34.0505072,
    "longitude": -118.2478199,
    "website": "https://www.neuehouse.com/wyman-bar/",
    "category": "Bar & Restaurant",
    "types": "bar, restaurant, point_of_interest, food, establishment"
  },
  {
    "place_id": "ChIJFQTJie7PwoARVudtY-EsM6o",
    "name": "Boyle Heights Bar llc",
    "street_address": "3717 Whittier Boulevard",
    "city": "Los Angeles",
    "state": "CA",
    "zip_code": "90023",
    "latitude": 34.0245876,
    "longitude": -118.193226,
    "website": null,
    "category": "Bar & Restaurant",
    "types": "bar, night_club, restaurant, food, point_of_interest, establishment"
  },
  {
    "place_id": "ChIJA6IDVLXHwoAR8gTOFqwApzg",
    "name": "Clifton's Republic",
    "street_address": "648 South Broadway",
    "city": "Los Angeles",
    "state": "CA",
    "zip_code": "90014",
    "latitude": 34.0454209,
    "longitude": -118.2530005,
    "website": "https://cliftonsrepublic.com/",
    "category": "Bar & Restaurant",
    "types": "night_club, tourist_attraction, museum, bar, restaurant, point_of_interest, food, establishment"
  },
  {
    "place_id": "ChIJq3j4WYLHwoARV7LbuJTus58",
    "name": "LALA'S Argentine Grill Downtown Los Angeles",
    "street_address": "105 West 9th Street",
    "city": "Los Angeles",
    "state": "CA",
    "zip_code": "90015",
    "latitude": 34.04187129999999,
    "longitude": -118.255055,
    "website": "https://lalasgrill.com/",
    "category": "Bar & Restaurant",
    "types": "bar, restaurant, food, point_of_interest, establishment"
  },
  {
    "place_id": "ChIJgXcqtG_DwoAR9EItV6kArg4",
    "name": "Yard House",
    "street_address": "300 East Colorado Boulevard",
    "city": "Pasadena",
    "state": "CA",
    "zip_code": "91101",
    "latitude": 34.1456,
    "longitude": -118.14364,
    "website": "https://www.yardhouse.com/locations/ca/pasadena/pasadena-paseo-colorado/8307?cmpid=br:yh_ag:ie_ch:loc_ca:YHGMB_sn:gmb_gt:pasadena-ca-8307_pl:locurl_rd:1006",
    "category": "Bar & Restaurant",
    "types": "meal_takeaway, restaurant, food, bar, point_of_interest, establishment"
  },
  {
    "place_id": "ChIJN0f4mFTDwoARSvjhToR4XhI",
    "name": "Lucky Baldwin's Pub",
    "street_address": "1770 East Colorado Boulevard",
    "city": "Pasadena",
    "state": "CA",
    "zip_code": "91106",
    "latitude": 34.1458364,
    "longitude": -118.113882,
    "website": "https://www.luckybaldwins.com/",
    "category": "Bar & Restaurant",
    "types": "restaurant, bar, food, point_of_interest, establishment"
  },
  {
    "place_id": "ChIJuTUkXFvDwoAR2vbT9VZDGt8",
    "name": "T. Boyle's Tavern",
    "street_address": "37 North Catalina Avenue",
    "city": "Pasadena",
    "state": "CA",
    "zip_code": "91106",
    "latitude": 34.146602,
    "longitude": -118.1299644,
    "website": null,
    "category": "Bar & Restaurant",
    "types": "bar, restaurant, food, point_of_interest, establishment"
  },
  {
    "place_id": "ChIJQQKYaKjcwoARdCR4s6YBcuw",
    "name": "Plate 38 Kitchen And Bar",
    "street_address": "2361 East Colorado Boulevard",
    "city": "Pasadena",
    "state": "CA",
    "zip_code": "91107",
    "latitude": 34.1463306,
    "longitude": -118.1013806,
    "website": "https://plate38.com/",
    "category": "Restaurant",
    "types": "restaurant, food, point_of_interest, establishment"
  },
  {
    "place_id": "ChIJaQZKeHHDwoAR6cFaTKrHQN8",
    "name": "Der Wolf",
    "street_address": "72 North Fair Oaks Avenue",
    "city": "Pasadena",
    "state": "CA",
    "zip_code": "91103",
    "latitude": 34.1471338,
    "longitude": -118.1503607,
    "website": "http://www.thederwolfpasadena.com/?utm_source=google&utm_medium=wix_google_business_profile&utm_campaign=8193400445063472020",
    "category": "Bar & Restaurant",
    "types": "restaurant, night_club, bar, food, point_of_interest, establishment"
  },
  {
    "place_id": "ChIJx7cmKQLDwoARClF7sl8koes",
    "name": "Hawg Heaven BBQ & Gastro Pub",
    "street_address": "119 East Colorado Boulevard",
    "city": "Pasadena",
    "state": "CA",
    "zip_code": "91105",
    "latitude": 34.1459776,
    "longitude": -118.1477956,
    "website": "https://hawgheavenbbq.com/",
    "category": "Restaurant",
    "types": "restaurant, food, point_of_interest, establishment"
  },
  {
    "place_id": "ChIJs7Ia3HHDwoARqTa7df-zueU",
    "name": "Home Brewed Bar",
    "street_address": "101 South Madison Avenue",
    "city": "Pasadena",
    "state": "CA",
    "zip_code": "91101",
    "latitude": 34.1441449,
    "longitude": -118.1385776,
    "website": "https://homebrewedbar.square.site/",
    "category": "Restaurant",
    "types": "cafe, restaurant, food, point_of_interest, store, establishment"
  },
  {
    "place_id": "ChIJuTz2DIPEwoAR3wdBKHGdhkg",
    "name": "Buffalo Wild Wings",
    "street_address": "1000 South Fair Oaks Avenue",
    "city": "Pasadena",
    "state": "CA",
    "zip_code": "91105",
    "latitude": 34.1286521,
    "longitude": -118.1497328,
    "website": "https://www.buffalowildwings.com/locations/us/ca/pasadena/1000-s--fair-oaks-avenue/sports-bar-1041?utm_source=google%20my%20business&utm_medium=organic&utm_campaign=website%20link",
    "category": "Bar & Restaurant",
    "types": "meal_takeaway, bar, restaurant, point_of_interest, food, establishment"
  },
  {
    "place_id": "ChIJb8igOfHEwoARHIKh2RJwjxQ",
    "name": "The Barkley Restaurant & Bar",
    "street_address": "1400 Huntington Drive",
    "city": "South Pasadena",
    "state": "CA",
    "zip_code": "91030",
    "latitude": 34.10439960000001,
    "longitude": -118.1522695,
    "website": "https://thebarkleyrestaurant.com/",
    "category": "Bar & Restaurant",
    "types": "bar, restaurant, food, point_of_interest, establishment"
  },
  {
    "place_id": "ChIJtY_ihInEwoARLla_wQcBFfc",
    "name": "Griffins Of Kinsale",
    "street_address": "1007 Mission Street",
    "city": "South Pasadena",
    "state": "CA",
    "zip_code": "91030",
    "latitude": 34.1155917,
    "longitude": -118.1567667,
    "website": "https://griffinsofkinsale.com/",
    "category": "Bar & Restaurant",
    "types": "bar, restaurant, food, point_of_interest, establishment"
  },
  {
    "place_id": "ChIJiUxFEHHDwoARnRkIrVgpLwk",
    "name": "Edwin Mills by Equator",
    "street_address": "22 Mills Place",
    "city": "Pasadena",
    "state": "CA",
    "zip_code": "91105",
    "latitude": 34.1454673,
    "longitude": -118.1511204,
    "website": "http://edwinmills.com/",
    "category": "Bar & Restaurant",
    "types": "bar, restaurant, point_of_interest, food, establishment"
  },
  {
    "place_id": "ChIJi9ksymjDwoARXdBpIMZ_lkA",
    "name": "The Mixx",
    "street_address": "443 East Colorado Boulevard",
    "city": "Pasadena",
    "state": "CA",
    "zip_code": "91101",
    "latitude": 34.14600280000001,
    "longitude": -118.1412522,
    "website": "http://themixxclub.com/",
    "category": "Bar & Restaurant",
    "types": "bar, restaurant, food, point_of_interest, establishment"
  },
  {
    "place_id": "ChIJK3E4_27DwoARyhdFB1zXXwc",
    "name": "Urban Pocha",
    "street_address": "61 South Fair Oaks Avenue",
    "city": "Pasadena",
    "state": "CA",
    "zip_code": "91105",
    "latitude": 34.1447333,
    "longitude": -118.1509425,
    "website": "http://urbanpocha.com/",
    "category": "Restaurant",
    "types": "restaurant, food, point_of_interest, establishment"
  },
  {
    "place_id": "ChIJq_c4OHDDwoAR7ICGHOZ-Oyo",
    "name": "Copa Vida",
    "street_address": "70 South Raymond Avenue",
    "city": "Pasadena",
    "state": "CA",
    "zip_code": "91105",
    "latitude": 34.1447129,
    "longitude": -118.1486833,
    "website": "http://www.copa-vida.com/",
    "category": "Restaurant",
    "types": "cafe, restaurant, food, store, point_of_interest, establishment"
  },
  {
    "place_id": "ChIJEUqIAYXEwoARviUfBxlVtOA",
    "name": "1886 Bar Restaurant at The Raymond - Pasadena CA",
    "street_address": "1250 South Fair Oaks Avenue",
    "city": "Pasadena",
    "state": "CA",
    "zip_code": "91105",
    "latitude": 34.1244631,
    "longitude": -118.1499428,
    "website": "https://theraymond1886.com/",
    "category": "Bar & Restaurant",
    "types": "bar, restaurant, food, point_of_interest, establishment"
  },
  {
    "place_id": "ChIJoXRwTL_dwoAR_e4hqsNkcQ8",
    "name": "Foothill restaurant",
    "street_address": "2835 East Foothill Boulevard",
    "city": "Pasadena",
    "state": "CA",
    "zip_code": "91107",
    "latitude": 34.150151,
    "longitude": -118.091807,
    "website": "https://www.foothill.co/",
    "category": "Restaurant",
    "types": "restaurant, food, point_of_interest, establishment"
  },
  {
    "place_id": "ChIJQdStdpTDwoARZzv1bXzHt_s",
    "name": "Little Flower",
    "street_address": "1424 West Colorado Boulevard",
    "city": "Pasadena",
    "state": "CA",
    "zip_code": "91105",
    "latitude": 34.1407165,
    "longitude": -118.178508,
    "website": "http://littleflowercandyco.com/",
    "category": "Restaurant",
    "types": "cafe, bakery, store, restaurant, food, point_of_interest, establishment"
  },
  {
    "place_id": "ChIJP8O0AXHDwoARm1szmreNC-U",
    "name": "All India Cafe - Best Indian Restaurant in Pasadena",
    "street_address": "39 South Fair Oaks Avenue",
    "city": "Pasadena",
    "state": "CA",
    "zip_code": "91105",
    "latitude": 34.1449763,
    "longitude": -118.1505429,
    "website": "https://www.allindiacafe.com/",
    "category": "Restaurant",
    "types": "restaurant, food, point_of_interest, establishment"
  }
]