[
  {
    "place_id": "ChIJvZdZjJN-1YcRcJJiqvE8PF0",
    "name": "The Brass Door Irish Pub",
    "street_address": "152 Madison Avenue",
    "city": "Memphis",
    "state": "TN",
    "zip_code": "38103",
    "latitude": 35.1449456,
    "longitude": -90.05095,
    "website": "http://thebrassdoor.com/",
    "category": "Bar & Restaurant",
    "types": "bar, restaurant, food, point_of_interest, establishment"
  },
  {
    "place_id": "ChIJ70cM_JZ-1YcR0jNZq0jTXXA",
    "name": "Flying Saucer Draught Emporium",
    "street_address": "130 Peabody Place",
    "city": "Memphis",
    "state": "TN",
    "zip_code": "38103",
    "latitude": 35.140943,
    "longitude": -90.05328039999999,
    "website": "http://www.beerknurd.com/stores/memphis/",
    "category": "Bar & Restaurant",
    "types": "bar, restaurant, food, point_of_interest, establishment"
  },
  {
    "place_id": "ChIJtW3hxTp-1YcR1oRSv6hwdNY",
    "name": "Alex's Tavern",
    "street_address": "1445 Jackson Avenue",
    "city": "Memphis",
    "state": "TN",
    "zip_code": "38107",
    "latitude": 35.1582547,
    "longitude": -90.0100701,
    "website": "https://facebook.com/Alexs-Tavern-Memphis-Tennessee-44036882398/",
    "category": "Bar & Restaurant",
    "types": "bar, restaurant, food, point_of_interest, establishment"
  },
  {
    "place_id": "ChIJK3IBQ-B_1YcR0POAIktfKO0",
    "name": "Crossroads Tavern & Grille",
    "street_address": "250 North Main Street",
    "city": "Memphis",
    "state": "TN",
    "zip_code": "38105",
    "latitude": 35.1515706,
    "longitude": -90.04967909999999,
    "website": null,
    "category": "Restaurant",
    "types": "restaurant, food, point_of_interest, establishment"
  },
  {
    "place_id": "ChIJ69T9tBp-1YcRg-y39GnBv6k",
    "name": "Murphy's",
    "street_address": "1589 Madison Avenue",
    "city": "Memphis",
    "state": "TN",
    "zip_code": "38104",
    "latitude": 35.1379204,
    "longitude": -90.0083272,
    "website": "http://murphysmemphis.wixsite.com/murphysmemphis",
    "category": "Bar & Restaurant",
    "types": "bar, restaurant, food, point_of_interest, establishment"
  },
  {
    "place_id": "ChIJ9ydfN5d-1YcRQzyN1-j61aU",
    "name": "Silky O'Sullivan's",
    "street_address": "South B.B. King Boulevard",
    "city": "Memphis",
    "state": "TN",
    "zip_code": "38103",
    "latitude": 35.1393608,
    "longitude": -90.0521553,
    "website": "https://www.silkyosullivans.com/",
    "category": "Bar & Restaurant",
    "types": "bar, restaurant, food, point_of_interest, establishment"
  },
  {
    "place_id": "ChIJVy7gyaJ-1YcRl9k_w00iUV0",
    "name": "The Green Beetle",
    "street_address": "325 South Main Street",
    "city": "Memphis",
    "state": "TN",
    "zip_code": "38103",
    "latitude": 35.1374684,
    "longitude": -90.0571365,
    "website": "http://www.thegreenbeetle.com/",
    "category": "Bar & Restaurant",
    "types": "bar, restaurant, food, point_of_interest, establishment"
  },
  {
    "place_id": "ChIJ5SffBqR-1YcRAO8gP4x3ClY",
    "name": "The Blue Monkey",
    "street_address": "513 South Front Street",
    "city": "Memphis",
    "state": "TN",
    "zip_code": "38103",
    "latitude": 35.13343220000001,
    "longitude": -90.06110129999999,
    "website": "http://bluemonkeymemphis.com/contact.php",
    "category": "Bar & Restaurant",
    "types": "bar, restaurant, food, point_of_interest, establishment"
  },
  {
    "place_id": "ChIJmYS1SJZ-1YcRnv8QxW8WKIE",
    "name": "The Majestic Grille",
    "street_address": "145 South Main Street",
    "city": "Memphis",
    "state": "TN",
    "zip_code": "38103",
    "latitude": 35.14132499999999,
    "longitude": -90.0545528,
    "website": "http://www.majesticgrille.com/",
    "category": "Bar & Restaurant",
    "types": "bar, restaurant, food, point_of_interest, establishment"
  },
  {
    "place_id": "ChIJJS1uD5d-1YcRvpo0tlCVyNo",
    "name": "B.B. King's Blues Club",
    "street_address": "143 Beale Street",
    "city": "Memphis",
    "state": "TN",
    "zip_code": "38103",
    "latitude": 35.1397152,
    "longitude": -90.0534038,
    "website": "http://bbkings.com/",
    "category": "Bar & Restaurant",
    "types": "bar, restaurant, food, point_of_interest, establishment"
  },
  {
    "place_id": "ChIJtREn1e1-1YcRIepo1-bPOkE",
    "name": "Westy's",
    "street_address": "346 North Main Street",
    "city": "Memphis",
    "state": "TN",
    "zip_code": "38103",
    "latitude": 35.1542256,
    "longitude": -90.0489577,
    "website": "http://www.westysmemphis.com/",
    "category": "Bar & Restaurant",
    "types": "bar, restaurant, food, point_of_interest, establishment"
  },
  {
    "place_id": "ChIJ0z9xo-1-1YcRBhL_cK-t2Xw",
    "name": "Notes & Provisions Restaurant and Bar",
    "street_address": "300 North 2nd Street",
    "city": "Memphis",
    "state": "TN",
    "zip_code": "38105",
    "latitude": 35.152102,
    "longitude": -90.04788690000001,
    "website": "https://www.cphotelmemphis.com/dining?utm_source=google%20my%20business&utm_medium=listing&utm_campaign=visit%20website",
    "category": "Bar & Restaurant",
    "types": "restaurant, bar, food, point_of_interest, establishment"
  },
  {
    "place_id": "ChIJOd9jjpZ-1YcRyHivutZf44s",
    "name": "Belle Tavern",
    "street_address": "117 Barboro Alley",
    "city": "Memphis",
    "state": "TN",
    "zip_code": "38103",
    "latitude": 35.1424364,
    "longitude": -90.0531852,
    "website": "http://www.belletavern.com/",
    "category": "Bar & Restaurant",
    "types": "bar, restaurant, food, point_of_interest, establishment"
  },
  {
    "place_id": "ChIJywe_pQF_1YcRlvShPSJ8uzU",
    "name": "Louis Connelly's Bar for Fun Times & Friendship",
    "street_address": "322 South Cleveland Street",
    "city": "Memphis",
    "state": "TN",
    "zip_code": "38104",
    "latitude": 35.1332694,
    "longitude": -90.0166055,
    "website": "https://www.louisconnellys.com/",
    "category": "Bar & Restaurant",
    "types": "bar, restaurant, point_of_interest, food, establishment"
  },
  {
    "place_id": "ChIJeyf8OZd-1YcRyLU4060CCzs",
    "name": "Rum Boogie Cafe",
    "street_address": "182 Beale Street",
    "city": "Memphis",
    "state": "TN",
    "zip_code": "38103",
    "latitude": 35.13971639999999,
    "longitude": -90.0519819,
    "website": "http://rumboogie.co/",
    "category": "Bar & Restaurant",
    "types": "cafe, bar, restaurant, food, point_of_interest, establishment"
  },
  {
    "place_id": "ChIJISGba6d-1YcRFghnzTsAprw",
    "name": "Loflin Yard",
    "street_address": "7 West Carolina Avenue",
    "city": "Memphis",
    "state": "TN",
    "zip_code": "38103",
    "latitude": 35.12814809999999,
    "longitude": -90.0621141,
    "website": "http://www.loflinyard.com/",
    "category": "Bar & Restaurant",
    "types": "bar, restaurant, food, point_of_interest, establishment"
  },
  {
    "place_id": "ChIJS2KdopZ-1YcR31NrAUu1znw",
    "name": "Huey's Downtown",
    "street_address": "77 South 2nd Street",
    "city": "Memphis",
    "state": "TN",
    "zip_code": "38103",
    "latitude": 35.1428093,
    "longitude": -90.05267420000001,
    "website": "https://hueyburger.com/",
    "category": "Bar & Restaurant",
    "types": "bar, restaurant, point_of_interest, food, establishment"
  },
  {
    "place_id": "ChIJZZZV6ed-1YcRLzlj7xsJPbc",
    "name": "Tug's Casual Grill",
    "street_address": "51 Harbor Town Square",
    "city": "Memphis",
    "state": "TN",
    "zip_code": "38103",
    "latitude": 35.1609288,
    "longitude": -90.0551383,
    "website": "http://www.tugsmemphis.com/",
    "category": "Bar & Restaurant",
    "types": "bar, restaurant, food, point_of_interest, establishment"
  },
  {
    "place_id": "ChIJw9ADWpZ-1YcRfVkIHf7veRU",
    "name": "Silly Goose Lounge",
    "street_address": "100 Peabody Place",
    "city": "Memphis",
    "state": "TN",
    "zip_code": "38103",
    "latitude": 35.1411209,
    "longitude": -90.0539952,
    "website": "https://sillygoosememphis.com/",
    "category": "Bar & Restaurant",
    "types": "bar, night_club, restaurant, food, point_of_interest, establishment"
  },
  {
    "place_id": "ChIJmcbRPJd-1YcRUUfHAqKcBIQ",
    "name": "Beale Street Tap Room",
    "street_address": "168 Beale Street",
    "city": "Memphis",
    "state": "TN",
    "zip_code": "38103",
    "latitude": 35.1397815,
    "longitude": -90.0523874,
    "website": "http://www.eatdrinkboogie.com/",
    "category": "Bar & Restaurant",
    "types": "bar, restaurant, food, point_of_interest, establishment"
  },
  {
    "place_id": "ChIJAa5eaK-Af4gRkmLNMOIQUqo",
    "name": "The Blue Monkey",
    "street_address": "2012 Madison Avenue",
    "city": "Memphis",
    "state": "TN",
    "zip_code": "38104",
    "latitude": 35.13727009999999,
    "longitude": -89.9940901,
    "website": "http://bluemonkeymemphis.com/index.php",
    "category": "Bar & Restaurant",
    "types": "bar, restaurant, food, point_of_interest, establishment"
  },
  {
    "place_id": "ChIJm7WTkK5_1YcRVLSwfAE83eI",
    "name": "Curfew",
    "street_address": "164 Union Avenue",
    "city": "Memphis",
    "state": "TN",
    "zip_code": "38103",
    "latitude": 35.1428152,
    "longitude": -90.05150640000001,
    "website": "http://www.curfewmemphis.com/",
    "category": "Restaurant",
    "types": "restaurant, food, point_of_interest, establishment"
  },
  {
    "place_id": "ChIJ5ybwNJd-1YcRD-gi2oYxG3Q",
    "name": "Wet Willie's",
    "street_address": "209 Beale Street",
    "city": "Memphis",
    "state": "TN",
    "zip_code": "38103",
    "latitude": 35.1393832,
    "longitude": -90.0512425,
    "website": "https://wetwillies.com/locations/memphis/",
    "category": "Bar & Restaurant",
    "types": "restaurant, bar, food, point_of_interest, establishment"
  },
  {
    "place_id": "ChIJXyow3aJ-1YcRHs_RnmKJ8_E",
    "name": "SOB Downtown",
    "street_address": "345 South Main Street",
    "city": "Memphis",
    "state": "TN",
    "zip_code": "38103",
    "latitude": 35.1369462,
    "longitude": -90.0575535,
    "website": "http://www.southofbeale.com/",
    "category": "Bar & Restaurant",
    "types": "restaurant, bar, food, point_of_interest, establishment"
  },
  {
    "place_id": "ChIJDykCP5d-1YcRC10TTOs9uwU",
    "name": "The Pig On Beale",
    "street_address": "167 Beale Street",
    "city": "Memphis",
    "state": "TN",
    "zip_code": "38103",
    "latitude": 35.1395661,
    "longitude": -90.05250869999999,
    "website": "http://pigonbeale.com/",
    "category": "Restaurant",
    "types": "restaurant, food, point_of_interest, establishment"
  },
  {
    "place_id": "ChIJzyaeOw1_1YcRs57fNpcvCUs",
    "name": "Memphis Chess Club",
    "street_address": "195 Madison Avenue",
    "city": "Memphis",
    "state": "TN",
    "zip_code": "38103",
    "latitude": 35.14423060000001,
    "longitude": -90.0495645,
    "website": "http://memphischessclub.com/",
    "category": "Bar & Restaurant",
    "types": "cafe, meal_delivery, bar, store, restaurant, food, point_of_interest, establishment"
  },
  {
    "place_id": "ChIJN-yPlpZ-1YcRvOx6ETDtdJU",
    "name": "Kooky Canuck",
    "street_address": "87 South 2nd Street",
    "city": "Memphis",
    "state": "TN",
    "zip_code": "38103",
    "latitude": 35.14253800000001,
    "longitude": -90.0526252,
    "website": "https://www.kookycanuck.com/",
    "category": "Restaurant",
    "types": "restaurant, food, point_of_interest, establishment"
  },
  {
    "place_id": "ChIJF_4LhaiAf4gRqknVPu5rcw0",
    "name": "Huey's Midtown",
    "street_address": "1927 Madison Avenue",
    "city": "Memphis",
    "state": "TN",
    "zip_code": "38104",
    "latitude": 35.137255,
    "longitude": -89.9971255,
    "website": "https://hueyburger.com/",
    "category": "Bar & Restaurant",
    "types": "bar, restaurant, food, point_of_interest, establishment"
  },
  {
    "place_id": "ChIJHycDQ-l-1YcRQ-W3xVh4IJY",
    "name": "The Lookout At The Pyramid",
    "street_address": "1 Bass Pro Drive",
    "city": "Memphis",
    "state": "TN",
    "zip_code": "38105",
    "latitude": 35.1556963,
    "longitude": -90.0520623,
    "website": "http://www.big-cypress.com/dining/the-lookout-at-the-pyramid-en.html",
    "category": "Restaurant",
    "types": "restaurant, food, point_of_interest, establishment"
  },
  {
    "place_id": "ChIJiVexSkR-1YcRy4Z2mi2i_VY",
    "name": "Smoky City BBQ",
    "street_address": "1023 Jackson Avenue",
    "city": "Memphis",
    "state": "TN",
    "zip_code": "38107",
    "latitude": 35.15706289999999,
    "longitude": -90.0245772,
    "website": "https://smokycitybbq.com/",
    "category": "Restaurant",
    "types": "restaurant, food, point_of_interest, establishment"
  },
  {
    "place_id": "ChIJt_f1l5Z-1YcRoRC3xtfc4a4",
    "name": "Automatic Slim's",
    "street_address": "83 South 2nd Street",
    "city": "Memphis",
    "state": "TN",
    "zip_code": "38103",
    "latitude": 35.14266870000001,
    "longitude": -90.0525542,
    "website": "http://www.automaticslimsmemphis.com/",
    "category": "Restaurant",
    "types": "restaurant, food, point_of_interest, establishment"
  },
  {
    "place_id": "ChIJLcEj7bF_1YcRU941-wT5MV4",
    "name": "WISEACRE Brewing Company HQ",
    "street_address": "398 South B.B. King Boulevard",
    "city": "Memphis",
    "state": "TN",
    "zip_code": "38126",
    "latitude": 35.13409660000001,
    "longitude": -90.0547697,
    "website": "http://www.wiseacrebrew.com/",
    "category": "Bar & Restaurant",
    "types": "bar, restaurant, food, point_of_interest, establishment"
  },
  {
    "place_id": "ChIJi8KhRK-Af4gRMmCSm5z5XaU",
    "name": "Molly's La Casita",
    "street_address": "2006 Madison Avenue",
    "city": "Memphis",
    "state": "TN",
    "zip_code": "38104",
    "latitude": 35.1372972,
    "longitude": -89.9941861,
    "website": "http://www.mollyslacasita.com/",
    "category": "Restaurant",
    "types": "restaurant, food, point_of_interest, establishment"
  },
  {
    "place_id": "ChIJBR930PZ_1YcRsq98HxP_ahY",
    "name": "King & Union Bar Grocery",
    "street_address": "185 Union Avenue",
    "city": "Memphis",
    "state": "TN",
    "zip_code": "38103",
    "latitude": 35.14225649999999,
    "longitude": -90.0511101,
    "website": "https://www.toasttab.com/king-union-bar-grocery-185-union-avenue/v3",
    "category": "Bar & Restaurant",
    "types": "restaurant, bar, grocery_or_supermarket, store, food, point_of_interest, establishment"
  },
  {
    "place_id": "ChIJ_7WzUjh_1YcR-Eq4Y9Tszzw",
    "name": "Global Caf\u00e9",
    "street_address": "1350 Concourse Avenue",
    "city": "Memphis",
    "state": "TN",
    "zip_code": "38104",
    "latitude": 35.15183539999999,
    "longitude": -90.01424920000001,
    "website": "http://globalcafememphis.com/",
    "category": "Restaurant",
    "types": "restaurant, food, point_of_interest, establishment"
  },
  {
    "place_id": "ChIJ14nht5B-1YcRIAIVzwIIBsc",
    "name": "Tin Roof",
    "street_address": "315 Beale Street",
    "city": "Memphis",
    "state": "TN",
    "zip_code": "38103",
    "latitude": 35.1393571,
    "longitude": -90.0509107,
    "website": "https://tinroofmemphis.com/?utm_source=cumulus+&utm_medium=onlinepresence&utm_campaign=gbp",
    "category": "Bar & Restaurant",
    "types": "bar, restaurant, food, point_of_interest, establishment"
  },
  {
    "place_id": "ChIJXYzXEJd-1YcR5PC-6fvdl4c",
    "name": "King Jerry Lawler's Hall of Fame Bar & Grille",
    "street_address": "159 Beale Street",
    "city": "Memphis",
    "state": "TN",
    "zip_code": "38103",
    "latitude": 35.1396738,
    "longitude": -90.052819,
    "website": "http://www.lawlersonbeale.com/",
    "category": "Bar & Restaurant",
    "types": "museum, bar, restaurant, food, point_of_interest, establishment"
  },
  {
    "place_id": "ChIJ_TCzrhx-1YcRCcNEMRT3ZSc",
    "name": "Lamplighter Lounge",
    "street_address": "1702 Madison Avenue",
    "city": "Memphis",
    "state": "TN",
    "zip_code": "38104",
    "latitude": 35.1382317,
    "longitude": -90.0044846,
    "website": "http://lamplighterloungememphis.com/",
    "category": "Bar & Restaurant",
    "types": "restaurant, bar, cafe, store, food, point_of_interest, establishment"
  },
  {
    "place_id": "ChIJDyOM2qN-1YcRZtrdsSgDvko",
    "name": "Earnestine & Hazel's",
    "street_address": "531 South Main Street",
    "city": "Memphis",
    "state": "TN",
    "zip_code": "38103",
    "latitude": 35.132959,
    "longitude": -90.05927249999999,
    "website": "https://earnestineandhazel.com/",
    "category": "Bar & Restaurant",
    "types": "bar, restaurant, food, point_of_interest, establishment"
  },
  {
    "place_id": "ChIJ74ZJ6JN-1YcRdQmjnLBkcyA",
    "name": "The Archives Bar & Bistro",
    "street_address": "179 Madison Avenue",
    "city": "Memphis",
    "state": "TN",
    "zip_code": "38103",
    "latitude": 35.14420589999999,
    "longitude": -90.0502379,
    "website": "https://hotelnapoleonmemphis.com/the-archives/",
    "category": "Restaurant",
    "types": "restaurant, food, point_of_interest, establishment"
  },
  {
    "place_id": "ChIJlUUq1KN-1YcRDB4Bt-t6vyg",
    "name": "The Arcade Restaurant",
    "street_address": "540 South Main Street",
    "city": "Memphis",
    "state": "TN",
    "zip_code": "38103",
    "latitude": 35.1326585,
    "longitude": -90.05880979999999,
    "website": "http://www.arcaderestaurant.com/",
    "category": "Restaurant",
    "types": "cafe, restaurant, food, point_of_interest, establishment"
  },
  {
    "place_id": "ChIJG25sLpR-1YcR0cYhTuNpvJw",
    "name": "Flight Restaurant and Wine Bar",
    "street_address": "39 South Main Street",
    "city": "Memphis",
    "state": "TN",
    "zip_code": "38103",
    "latitude": 35.1441195,
    "longitude": -90.053495,
    "website": "http://www.flightmemphis.com/",
    "category": "Bar & Restaurant",
    "types": "bar, restaurant, food, point_of_interest, establishment"
  },
  {
    "place_id": "ChIJJ3pTNpqBf4gRx9w-hMvpL2o",
    "name": "Buds and Brews Memphis",
    "street_address": "2519 Broad Avenue",
    "city": "Memphis",
    "state": "TN",
    "zip_code": "38112",
    "latitude": 35.1478059,
    "longitude": -89.9753647,
    "website": "https://budsandbrewsusa.com/",
    "category": "Restaurant",
    "types": "restaurant, food, point_of_interest, establishment"
  },
  {
    "place_id": "ChIJZdopLrCAf4gRJtyu5E1ASIM",
    "name": "The Second Line",
    "street_address": "2144 Monroe Avenue",
    "city": "Memphis",
    "state": "TN",
    "zip_code": "38104",
    "latitude": 35.1355473,
    "longitude": -89.9900701,
    "website": "http://www.secondlinememphis.com/",
    "category": "Restaurant",
    "types": "restaurant, food, point_of_interest, establishment"
  },
  {
    "place_id": "ChIJf2kqXDGBf4gRVu5I9f0Xxf0",
    "name": "Madison Tavern",
    "street_address": "2126 Madison Avenue",
    "city": "Memphis",
    "state": "TN",
    "zip_code": "38104",
    "latitude": 35.1368196,
    "longitude": -89.99027559999999,
    "website": null,
    "category": "Restaurant",
    "types": "restaurant, food, point_of_interest, establishment"
  },
  {
    "place_id": "ChIJrSXHY8iGf4gRxiEBW7ZLV_s",
    "name": "Newby's",
    "street_address": "539 South Highland Street",
    "city": "Memphis",
    "state": "TN",
    "zip_code": "38111",
    "latitude": 35.1168524,
    "longitude": -89.94588689999999,
    "website": null,
    "category": "Bar & Restaurant",
    "types": "bar, restaurant, food, point_of_interest, establishment"
  },
  {
    "place_id": "ChIJm782HLCAf4gReGVTFlRqMKI",
    "name": "Boscos Squared",
    "street_address": "2120 Madison Avenue",
    "city": "Memphis",
    "state": "TN",
    "zip_code": "38104",
    "latitude": 35.1369335,
    "longitude": -89.9906005,
    "website": "http://www.boscosbeer.com/",
    "category": "Bar & Restaurant",
    "types": "restaurant, bar, food, point_of_interest, establishment"
  },
  {
    "place_id": "ChIJ324b71GHf4gRSy6Y5w9_toE",
    "name": "Hammer & Ale",
    "street_address": "921 Cooper Street",
    "city": "Memphis",
    "state": "TN",
    "zip_code": "38104",
    "latitude": 35.1204319,
    "longitude": -89.9913186,
    "website": "http://www.hammerandale.com/",
    "category": "Bar & Restaurant",
    "types": "bar, liquor_store, restaurant, food, point_of_interest, store, establishment"
  },
  {
    "place_id": "ChIJc5HT7a-Af4gRXyb5coQtqis",
    "name": "Bayou",
    "street_address": "2094 Madison Avenue",
    "city": "Memphis",
    "state": "TN",
    "zip_code": "38104",
    "latitude": 35.137019,
    "longitude": -89.99156330000001,
    "website": "http://www.bayoubarmemphis.com/",
    "category": "Bar & Restaurant",
    "types": "bar, restaurant, food, point_of_interest, establishment"
  },
  {
    "place_id": "ChIJoe5gi8KAf4gR7Li6kW_GQLQ",
    "name": "The Cove",
    "street_address": "2559 Broad Avenue",
    "city": "Memphis",
    "state": "TN",
    "zip_code": "38112",
    "latitude": 35.14769529999999,
    "longitude": -89.9741387,
    "website": "http://www.thecovememphis.com",
    "category": "Bar & Restaurant",
    "types": "bar, restaurant, food, point_of_interest, establishment"
  },
  {
    "place_id": "ChIJCzgJxFGHf4gRtDgNflm8Kns",
    "name": "Young Avenue Deli",
    "street_address": "2119 Young Avenue",
    "city": "Memphis",
    "state": "TN",
    "zip_code": "38104",
    "latitude": 35.1193897,
    "longitude": -89.9915517,
    "website": "http://www.youngavenuedeli.com/",
    "category": "Bar & Restaurant",
    "types": "bar, restaurant, food, point_of_interest, establishment"
  },
  {
    "place_id": "ChIJQwYYgIN_1YcRnpxa_yBbG8w",
    "name": "Hugstables Sports Bar & Grill",
    "street_address": "813 Jackson Avenue",
    "city": "Memphis",
    "state": "TN",
    "zip_code": "38107",
    "latitude": 35.1565681,
    "longitude": -90.0315165,
    "website": null,
    "category": "Restaurant",
    "types": "restaurant, food, point_of_interest, establishment"
  },
  {
    "place_id": "ChIJA6PeA8iGf4gRTWQbWgxag2s",
    "name": "RP Tracks Restaurant & Bar",
    "street_address": "3547 Walker Avenue",
    "city": "Memphis",
    "state": "TN",
    "zip_code": "38111",
    "latitude": 35.1162008,
    "longitude": -89.94421489999999,
    "website": "https://rptracks.com/",
    "category": "Bar & Restaurant",
    "types": "bar, restaurant, food, point_of_interest, establishment"
  },
  {
    "place_id": "ChIJJ83aI8F_1YcRMT0cuUvtzeo",
    "name": "Jamrack Restaurant and Bar",
    "street_address": "150 North Avalon Street",
    "city": "Memphis",
    "state": "TN",
    "zip_code": "38104",
    "latitude": 35.1420047,
    "longitude": -90.00625819999999,
    "website": "https://www.jamrackmem.com/",
    "category": "Bar & Restaurant",
    "types": "restaurant, night_club, bar, food, point_of_interest, establishment"
  },
  {
    "place_id": "ChIJT3T4K7GHf4gRlI8dZPzBK-Y",
    "name": "Memphis Whistle",
    "street_address": "2299 Young Avenue",
    "city": "Memphis",
    "state": "TN",
    "zip_code": "38104",
    "latitude": 35.1193623,
    "longitude": -89.9856928,
    "website": "http://memphiswhistle.com/",
    "category": "Bar & Restaurant",
    "types": "bar, restaurant, food, point_of_interest, establishment"
  },
  {
    "place_id": "ChIJQxqzxqaAf4gRqmx7ydtxOqo",
    "name": "Growlers",
    "street_address": "1911 Poplar Avenue",
    "city": "Memphis",
    "state": "TN",
    "zip_code": "38104",
    "latitude": 35.1420657,
    "longitude": -89.99685799999999,
    "website": "http://901growlers.com/",
    "category": "Bar & Restaurant",
    "types": "bar, restaurant, food, point_of_interest, establishment"
  },
  {
    "place_id": "ChIJ-0m_4qSFf4gRP95I4kP7Uz4",
    "name": "Bog & Barley Irish Pub",
    "street_address": "6150 Poplar Avenue",
    "city": "Memphis",
    "state": "TN",
    "zip_code": "38119",
    "latitude": 35.1027895,
    "longitude": -89.85755329999999,
    "website": "http://www.bogandbarley.com/",
    "category": "Bar & Restaurant",
    "types": "bar, restaurant, food, point_of_interest, establishment"
  },
  {
    "place_id": "ChIJXSOWtmOEf4gR32DK6qTihC4",
    "name": "Brookhaven Pub & Grill",
    "street_address": "695 West Brookhaven Circle",
    "city": "Memphis",
    "state": "TN",
    "zip_code": "38117",
    "latitude": 35.11180590000001,
    "longitude": -89.8909489,
    "website": "http://www.brookhavenpubandgrill.com/",
    "category": "Bar & Restaurant",
    "types": "bar, restaurant, food, point_of_interest, establishment"
  },
  {
    "place_id": "ChIJ55G1TG6Ef4gRr9S0PhphTic",
    "name": "Huey's Poplar",
    "street_address": "4872 Poplar Avenue",
    "city": "Memphis",
    "state": "TN",
    "zip_code": "38117",
    "latitude": 35.1144336,
    "longitude": -89.8995219,
    "website": "https://hueyburger.com/",
    "category": "Bar & Restaurant",
    "types": "bar, restaurant, food, point_of_interest, establishment"
  },
  {
    "place_id": "ChIJxSXFx-aEf4gRahrbQIACUy0",
    "name": "Neil's Music Room",
    "street_address": "5725 Quince Road",
    "city": "Memphis",
    "state": "TN",
    "zip_code": "38119",
    "latitude": 35.08909149999999,
    "longitude": -89.87260649999999,
    "website": "https://neilsmemphis.com/",
    "category": "Bar & Restaurant",
    "types": "bar, restaurant, food, point_of_interest, establishment"
  },
  {
    "place_id": "ChIJy3hOz2eEf4gREK9q6vrVenc",
    "name": "Patrick's",
    "street_address": "4972 Park Avenue",
    "city": "Memphis",
    "state": "TN",
    "zip_code": "38117",
    "latitude": 35.1069444,
    "longitude": -89.8964328,
    "website": "https://www.patricksmemphis.com/",
    "category": "Restaurant",
    "types": "restaurant, food, point_of_interest, establishment"
  },
  {
    "place_id": "ChIJeZXsc2WEf4gRuH6wuXU2t6c",
    "name": "Belmont Grill",
    "street_address": "4970 Poplar Avenue",
    "city": "Memphis",
    "state": "TN",
    "zip_code": "38117",
    "latitude": 35.1133941,
    "longitude": -89.89633289999999,
    "website": "https://m.facebook.com/Belmont-Grill-Memphis-884961494868914/",
    "category": "Bar & Restaurant",
    "types": "bar, restaurant, food, point_of_interest, establishment"
  },
  {
    "place_id": "ChIJ4RoQx-qDf4gRSdv1hsriZyw",
    "name": "Mortimer's",
    "street_address": "590 North Perkins Road",
    "city": "Memphis",
    "state": "TN",
    "zip_code": "38122",
    "latitude": 35.1474293,
    "longitude": -89.9075811,
    "website": "https://mortimersmemphis.com/",
    "category": "Bar & Restaurant",
    "types": "bar, restaurant, food, point_of_interest, establishment"
  },
  {
    "place_id": "ChIJd_u8Q_uFf4gRtac10fMIP0E",
    "name": "Belle Meade Social",
    "street_address": "518 Perkins Extd",
    "city": "Memphis",
    "state": "TN",
    "zip_code": "38117",
    "latitude": 35.11732159999999,
    "longitude": -89.9079841,
    "website": "https://www.bellemeadesocial.com/",
    "category": "Restaurant",
    "types": "restaurant, food, point_of_interest, establishment"
  },
  {
    "place_id": "ChIJ45cgQw-Ff4gRsFCL3UeGn2w",
    "name": "Hen House",
    "street_address": "679 South Mendenhall Road",
    "city": "Memphis",
    "state": "TN",
    "zip_code": "38117",
    "latitude": 35.1123724,
    "longitude": -89.8966782,
    "website": "http://henhousewinebar.com/",
    "category": "Restaurant",
    "types": "restaurant, food, point_of_interest, establishment"
  },
  {
    "place_id": "ChIJTQy17G2Ef4gRnprN-IdXnoU",
    "name": "Swanky's Taco Shop East Memphis",
    "street_address": "4770 Poplar Avenue",
    "city": "Memphis",
    "state": "TN",
    "zip_code": "38117",
    "latitude": 35.11539500000001,
    "longitude": -89.90309599999999,
    "website": "http://www.swankystacoshop.com/",
    "category": "Bar & Restaurant",
    "types": "bar, restaurant, point_of_interest, food, establishment"
  },
  {
    "place_id": "ChIJe07TqZqFf4gRgTyjk2Emys8",
    "name": "SOB East",
    "street_address": "5040 Sanderlin Avenue",
    "city": "Memphis",
    "state": "TN",
    "zip_code": "38117",
    "latitude": 35.117644,
    "longitude": -89.8944396,
    "website": "http://www.southofbeale.com/",
    "category": "Restaurant",
    "types": "restaurant, point_of_interest, food, establishment"
  },
  {
    "place_id": "ChIJkdUXjDmbf4gR80MN8dTIgcU",
    "name": "T J Mulligans",
    "street_address": "1817 Kirby Parkway",
    "city": "Memphis",
    "state": "TN",
    "zip_code": "38138",
    "latitude": 35.099754,
    "longitude": -89.83980009999999,
    "website": "http://www.tjmulligans.com/",
    "category": "Bar & Restaurant",
    "types": "bar, restaurant, food, point_of_interest, establishment"
  },
  {
    "place_id": "ChIJUVL1_5SZf4gRSXbw7KYz6b4",
    "name": "Forest Hill Grill",
    "street_address": "9102 Poplar Pike",
    "city": "Germantown",
    "state": "TN",
    "zip_code": "38138",
    "latitude": 35.06331759999999,
    "longitude": -89.75915119999999,
    "website": "http://www.foresthillgrill.com/",
    "category": "Bar & Restaurant",
    "types": "restaurant, bar, food, point_of_interest, establishment"
  },
  {
    "place_id": "ChIJd9ElgEGbf4gRcnCNjdEk5fk",
    "name": "Moondance Grill",
    "street_address": "1730 South Germantown Road",
    "city": "Germantown",
    "state": "TN",
    "zip_code": "38138",
    "latitude": 35.1017646,
    "longitude": -89.80390159999999,
    "website": "http://moondancegrill.com/",
    "category": "Bar & Restaurant",
    "types": "bar, restaurant, food, point_of_interest, establishment"
  },
  {
    "place_id": "ChIJ8_qXlHKaf4gR1zbam9Ms5w4",
    "name": "East End Grill",
    "street_address": "7956 Winchester Road",
    "city": "Memphis",
    "state": "TN",
    "zip_code": "38125",
    "latitude": 35.0498797,
    "longitude": -89.7967419,
    "website": "https://eastendgrill.com/",
    "category": "Restaurant",
    "types": "restaurant, food, point_of_interest, establishment"
  },
  {
    "place_id": "ChIJKxYyVKWaf4gRP516ke5gHNE",
    "name": "Chicken Coop Memphis",
    "street_address": "6665 Winchester Road",
    "city": "Memphis",
    "state": "TN",
    "zip_code": "38115",
    "latitude": 35.04910289999999,
    "longitude": -89.8413089,
    "website": "http://www.chickencoopmemphis.org/menu.html",
    "category": "Restaurant",
    "types": "meal_takeaway, restaurant, food, point_of_interest, establishment"
  },
  {
    "place_id": "ChIJVV0pDKWbf4gRpbqMN9EcS0c",
    "name": "Hueys Germantown",
    "street_address": "7677 Farmington Boulevard",
    "city": "Germantown",
    "state": "TN",
    "zip_code": "38138",
    "latitude": 35.0945719,
    "longitude": -89.8072806,
    "website": "https://hueyburger.com/",
    "category": "Bar & Restaurant",
    "types": "bar, restaurant, food, point_of_interest, establishment"
  },
  {
    "place_id": "ChIJQ_gRGkCaf4gRtQwmATIa7Y0",
    "name": "Mr. P's Buffalo Wings Germantown",
    "street_address": "2075 Exeter Road",
    "city": "Germantown",
    "state": "TN",
    "zip_code": "38138",
    "latitude": 35.0927295,
    "longitude": -89.803742,
    "website": "https://www.mrpsbuffalowings.com/",
    "category": "Restaurant",
    "types": "meal_delivery, restaurant, food, point_of_interest, establishment"
  },
  {
    "place_id": "ChIJ1yP2E3Caf4gRY-8RXzlOxRM",
    "name": "Huey's Southwind",
    "street_address": "7825 Winchester Road",
    "city": "Memphis",
    "state": "TN",
    "zip_code": "38125",
    "latitude": 35.04758649999999,
    "longitude": -89.8033859,
    "website": "https://hueyburger.com/",
    "category": "Bar & Restaurant",
    "types": "bar, restaurant, food, point_of_interest, establishment"
  },
  {
    "place_id": "ChIJSeMYDeWZf4gRd0VrueXeZXM",
    "name": "Hyderabad Biryani and More",
    "street_address": "3675 Southwind Park Cove",
    "city": "Memphis",
    "state": "TN",
    "zip_code": "38125",
    "latitude": 35.04826299999999,
    "longitude": -89.764326,
    "website": "http://hb-memphis.com/",
    "category": "Restaurant",
    "types": "restaurant, point_of_interest, food, establishment"
  },
  {
    "place_id": "ChIJsUheWHaZf4gRR-NsvpNPE6s",
    "name": "Wimpy's Burgers & Fries",
    "street_address": "9245 Poplar Avenue",
    "city": "Germantown",
    "state": "TN",
    "zip_code": "38138",
    "latitude": 35.06511819999999,
    "longitude": -89.7547136,
    "website": "http://www.wimpysburgers.com/",
    "category": "Restaurant",
    "types": "restaurant, food, point_of_interest, establishment"
  },
  {
    "place_id": "ChIJT1BWc7Gbf4gR62_cUfvOTBo",
    "name": "Rock\u2019n Dough Pizza & Brewery",
    "street_address": "7850 Poplar Avenue",
    "city": "Germantown",
    "state": "TN",
    "zip_code": "38138",
    "latitude": 35.0895699,
    "longitude": -89.8010877,
    "website": "http://www.rockndoughpizza.com/",
    "category": "Bar & Restaurant",
    "types": "bar, restaurant, food, point_of_interest, establishment"
  },
  {
    "place_id": "ChIJ9RyGb3Oaf4gRX0rZPrWY3MA",
    "name": "Buffalo Wild Wings",
    "street_address": "3770 Hacks Cross Road",
    "city": "Memphis",
    "state": "TN",
    "zip_code": "38125",
    "latitude": 35.04559969999999,
    "longitude": -89.7953659,
    "website": "https://www.buffalowildwings.com/locations/us/tn/memphis/3770-hack's-cross-rd/sports-bar-69?utm_source=google%20my%20business&utm_medium=organic&utm_campaign=website%20link",
    "category": "Bar & Restaurant",
    "types": "meal_takeaway, bar, restaurant, food, point_of_interest, establishment"
  },
  {
    "place_id": "ChIJw_TStKubf4gRkwPlJ7Rj9Kw",
    "name": "Southern Social",
    "street_address": "2285 South Germantown Road",
    "city": "Germantown",
    "state": "TN",
    "zip_code": "38138",
    "latitude": 35.0866011,
    "longitude": -89.8107149,
    "website": "http://www.southernsocial.com/",
    "category": "Restaurant",
    "types": "restaurant, food, point_of_interest, establishment"
  },
  {
    "place_id": "ChIJt3YZBqibf4gRDGBGZE6m3Wk",
    "name": "Stoney River Steakhouse and Grill",
    "street_address": "7515 Poplar Avenue",
    "city": "Germantown",
    "state": "TN",
    "zip_code": "38138",
    "latitude": 35.0929937,
    "longitude": -89.812727,
    "website": "http://www.stoneyriver.com/",
    "category": "Bar & Restaurant",
    "types": "meal_takeaway, bar, restaurant, food, point_of_interest, establishment"
  },
  {
    "place_id": "ChIJTfMDjDmbf4gRRNT6dSHT1dk",
    "name": "Cafe Med",
    "street_address": "1817 Kirby Parkway",
    "city": "Germantown",
    "state": "TN",
    "zip_code": "38138",
    "latitude": 35.09951309999999,
    "longitude": -89.8398158,
    "website": "http://www.cafemed1.com/",
    "category": "Restaurant",
    "types": "restaurant, food, point_of_interest, establishment"
  },
  {
    "place_id": "ChIJM9BFdJaZf4gR43UKPYKdZ7w",
    "name": "Blue Honey Bistro",
    "street_address": "9155 Poplar Avenue",
    "city": "Germantown",
    "state": "TN",
    "zip_code": "38138",
    "latitude": 35.06655,
    "longitude": -89.75747229999999,
    "website": "http://www.bluehoneybistro.com/",
    "category": "Restaurant",
    "types": "restaurant, food, point_of_interest, establishment"
  },
  {
    "place_id": "ChIJgcr2X5Kjf4gRGt8ugBFFqbg",
    "name": "RockHouse Live Collierville",
    "street_address": "336 New Byhalia Road",
    "city": "Collierville",
    "state": "TN",
    "zip_code": "38017",
    "latitude": 35.0496436,
    "longitude": -89.68805479999999,
    "website": "http://www.facebook.com/rockhouselivecollierville",
    "category": "Restaurant",
    "types": "restaurant, food, point_of_interest, establishment"
  },
  {
    "place_id": "ChIJ223huu2Xf4gRyulVb0mEx48",
    "name": "Firebirds Wood Fired Grill",
    "street_address": "4600 Merchants Circle",
    "city": "Collierville",
    "state": "TN",
    "zip_code": "38017",
    "latitude": 35.0238803,
    "longitude": -89.72092219999999,
    "website": "https://firebirdsrestaurants.com/collierville",
    "category": "Restaurant",
    "types": "restaurant, food, point_of_interest, establishment"
  },
  {
    "place_id": "ChIJiyzEUCCXf4gRPMylBmOlxRs",
    "name": "Nashoba",
    "street_address": "4600 Merchants Park Circle",
    "city": "Collierville",
    "state": "TN",
    "zip_code": "38017",
    "latitude": 35.0239494,
    "longitude": -89.7206308,
    "website": "https://www.nashoba.live/",
    "category": "Restaurant",
    "types": "restaurant, food, point_of_interest, establishment"
  },
  {
    "place_id": "ChIJO-4EyTOYf4gRBGzbqpGqyRk",
    "name": "The Skybox Grill",
    "street_address": "2140 West Poplar Avenue",
    "city": "Collierville",
    "state": "TN",
    "zip_code": "38017",
    "latitude": 35.0527778,
    "longitude": -89.7341667,
    "website": "https://skyboxgrill.net/",
    "category": "Bar & Restaurant",
    "types": "bar, restaurant, food, point_of_interest, establishment"
  },
  {
    "place_id": "ChIJDTPP9q6if4gRc3OGFWkqPaA",
    "name": "Tony's Trophy Room",
    "street_address": "929 West Poplar Avenue",
    "city": "Collierville",
    "state": "TN",
    "zip_code": "38017",
    "latitude": 35.0457174,
    "longitude": -89.69365309999999,
    "website": "https://www.tonystrophyroom.com/",
    "category": "Restaurant",
    "types": "restaurant, food, point_of_interest, establishment"
  },
  {
    "place_id": "ChIJdW5mIW-jf4gRm1uws5ow0fY",
    "name": "Mugshots Grill and Bar - Collierville, TN",
    "street_address": "656 West Poplar Avenue",
    "city": "Collierville",
    "state": "TN",
    "zip_code": "38017",
    "latitude": 35.0463562,
    "longitude": -89.6841918,
    "website": "https://www.mugshotsgrillandbar.com/",
    "category": "Bar & Restaurant",
    "types": "bar, restaurant, food, point_of_interest, establishment"
  },
  {
    "place_id": "ChIJC8zsAOejf4gRgzhxhjtVKVk",
    "name": "Maeve's Tavern",
    "street_address": "78 North Main Street",
    "city": "Collierville",
    "state": "TN",
    "zip_code": "38017",
    "latitude": 35.04203169999999,
    "longitude": -89.6640421,
    "website": "https://www.maevestavern.com/",
    "category": "Restaurant",
    "types": "restaurant, food, point_of_interest, establishment"
  },
  {
    "place_id": "ChIJkWIL-66if4gRNdyP1cVgoFo",
    "name": "Booya's",
    "street_address": "954 West Poplar Avenue",
    "city": "Collierville",
    "state": "TN",
    "zip_code": "38017",
    "latitude": 35.0488889,
    "longitude": -89.69388889999999,
    "website": "http://www.booyasbnb.com/",
    "category": "Restaurant",
    "types": "restaurant, food, point_of_interest, establishment"
  },
  {
    "place_id": "ChIJ-W5GnyKYf4gRwvdrE3-SBlQ",
    "name": "Huey's Collierville",
    "street_address": "2130 West Poplar Avenue",
    "city": "Collierville",
    "state": "TN",
    "zip_code": "38017",
    "latitude": 35.05291399999999,
    "longitude": -89.7329474,
    "website": "https://hueyburger.com/",
    "category": "Bar & Restaurant",
    "types": "bar, restaurant, food, point_of_interest, establishment"
  },
  {
    "place_id": "ChIJAS7okjGYf4gRT2yeaOTH7fM",
    "name": "LongHorn Steakhouse",
    "street_address": "3581 South Houston Levee Road",
    "city": "Collierville",
    "state": "TN",
    "zip_code": "38017",
    "latitude": 35.05099800000001,
    "longitude": -89.733252,
    "website": "https://www.longhornsteakhouse.com/locations/tn/collierville/collierville/5336?cmpid=br:lh_ag:ie_ch:loc_ca:LHGMB_sn:gmb_gt:collierville-tn-5336_pl:locurl_rd:1282",
    "category": "Bar & Restaurant",
    "types": "meal_takeaway, bar, restaurant, food, point_of_interest, establishment"
  },
  {
    "place_id": "ChIJs_hIL6mif4gRelaqgnuOixI",
    "name": "El Porton Mexican Bar & Grill",
    "street_address": "1016 West Poplar Avenue",
    "city": "Collierville",
    "state": "TN",
    "zip_code": "38017",
    "latitude": 35.0475146,
    "longitude": -89.6961261,
    "website": "https://elportonmexicanrestauranttn.com/",
    "category": "Bar & Restaurant",
    "types": "bar, restaurant, food, point_of_interest, establishment"
  },
  {
    "place_id": "ChIJ223huu2Xf4gRJvc54x8guUA",
    "name": "Carrabba's Italian Grill",
    "street_address": "4600 Merchants Park Circle",
    "city": "Collierville",
    "state": "TN",
    "zip_code": "38017",
    "latitude": 35.0230589,
    "longitude": -89.7209783,
    "website": "https://locations.carrabbas.com/tennessee/collierville/4600-merchants-park-circle?y_source=1_MTU1MDMwNDItNzE1LWxvY2F0aW9uLndlYnNpdGU%3D",
    "category": "Bar & Restaurant",
    "types": "bar, meal_takeaway, restaurant, food, point_of_interest, establishment"
  },
  {
    "place_id": "ChIJkSIL0NWif4gRFRam-zSnaFQ",
    "name": "Silver Caboose Restaurant & Soda Fountain",
    "street_address": "132 East Mulberry Street",
    "city": "Collierville",
    "state": "TN",
    "zip_code": "38017",
    "latitude": 35.043092,
    "longitude": -89.6645861,
    "website": "http://www.silvercaboose.com/",
    "category": "Restaurant",
    "types": "restaurant, food, point_of_interest, establishment"
  },
  {
    "place_id": "ChIJh9qdhii9f4gRaMLRA-PtQLI",
    "name": "Dyer's Cafe",
    "street_address": "101 North Center Street",
    "city": "Collierville",
    "state": "TN",
    "zip_code": "38017",
    "latitude": 35.0427208,
    "longitude": -89.6657409,
    "website": "https://www.dyerscafe.com/",
    "category": "Restaurant",
    "types": "restaurant, food, point_of_interest, establishment"
  },
  {
    "place_id": "ChIJ7S84nJOXf4gRi_B2I7VId0o",
    "name": "Bonefish Grill",
    "street_address": "4680 Merchants Park Circle",
    "city": "Collierville",
    "state": "TN",
    "zip_code": "38017",
    "latitude": 35.02465969999999,
    "longitude": -89.7203073,
    "website": "https://locations.bonefishgrill.com/tennessee/collierville/4680-merchants-park-circle?y_source=1_MTU1MDI3MjYtNzE1LWxvY2F0aW9uLndlYnNpdGU%3D",
    "category": "Bar & Restaurant",
    "types": "meal_takeaway, bar, restaurant, food, point_of_interest, establishment"
  },
  {
    "place_id": "ChIJIRWK4zGYf4gR9qTTejKJ49o",
    "name": "Jim's Place Grille",
    "street_address": "3660 South Houston Levee Road",
    "city": "Collierville",
    "state": "TN",
    "zip_code": "38017",
    "latitude": 35.0499517,
    "longitude": -89.7310176,
    "website": "http://www.jimsplacegrille.com/",
    "category": "Restaurant",
    "types": "restaurant, food, point_of_interest, establishment"
  },
  {
    "place_id": "ChIJr79pptWif4gRhA5Vaij0OVw",
    "name": "Cafe Piazza",
    "street_address": "139 South Rowlett Street",
    "city": "Collierville",
    "state": "TN",
    "zip_code": "38017",
    "latitude": 35.041397,
    "longitude": -89.6644772,
    "website": "http://www.cafepiazzaonline.com/",
    "category": "Restaurant",
    "types": "restaurant, food, point_of_interest, establishment"
  },
  {
    "place_id": "ChIJccc_WeCdf4gRoKqcBX2VV6I",
    "name": "Brewskis Sports Bar & Grill",
    "street_address": "2244 Whitten Road",
    "city": "Memphis",
    "state": "TN",
    "zip_code": "38133",
    "latitude": 35.1867614,
    "longitude": -89.83541319999999,
    "website": null,
    "category": "Bar & Restaurant",
    "types": "bar, restaurant, food, point_of_interest, establishment"
  },
  {
    "place_id": "ChIJKVGSJmadf4gR571SwiiaPok",
    "name": "Stage 64 Lounge",
    "street_address": "7041 Stage Road",
    "city": "Memphis",
    "state": "TN",
    "zip_code": "38133",
    "latitude": 35.204071,
    "longitude": -89.8284606,
    "website": "https://stage64lounge.wixsite.com/stage64lounge",
    "category": "Bar & Restaurant",
    "types": "bar, restaurant, food, point_of_interest, establishment"
  },
  {
    "place_id": "ChIJexBcYEOdf4gRcx_T6Q3HXZY",
    "name": "Old Whitten Tavern",
    "street_address": "2465 Whitten Road",
    "city": "Memphis",
    "state": "TN",
    "zip_code": "38133",
    "latitude": 35.19340509999999,
    "longitude": -89.8370132,
    "website": "http://oldwhittentavern.com/",
    "category": "Bar & Restaurant",
    "types": "restaurant, bar, food, point_of_interest, establishment"
  },
  {
    "place_id": "ChIJaQq6SVCdf4gRJaiC8ck-u1A",
    "name": "Los Cabos Mexican Bar & Grill",
    "street_address": "6600 Stage Road",
    "city": "Bartlett",
    "state": "TN",
    "zip_code": "38134",
    "latitude": 35.205241,
    "longitude": -89.843077,
    "website": "https://loscabosmexicanbargrilltn.com/",
    "category": "Restaurant",
    "types": "restaurant, food, point_of_interest, establishment"
  },
  {
    "place_id": "ChIJo9PQ5g-df4gR9bdaeHfgGgo",
    "name": "Main Event Memphis",
    "street_address": "7219 Appling Farms Parkway",
    "city": "Memphis",
    "state": "TN",
    "zip_code": "38133",
    "latitude": 35.1829139,
    "longitude": -89.8222579,
    "website": "http://www.mainevent.com/locations/tennessee/memphis",
    "category": "Restaurant",
    "types": "restaurant, bowling_alley, food, point_of_interest, establishment"
  },
  {
    "place_id": "ChIJea0pXy6Df4gR4Sgm1tV6h5M",
    "name": "SHEGER ETHIOPIAN RESTAURANT& GROCERY",
    "street_address": "6195 Macon Road",
    "city": "Memphis",
    "state": "TN",
    "zip_code": "38134",
    "latitude": 35.162385,
    "longitude": -89.8566342,
    "website": "https://shegerethiopianrestaurantandgrocery.wordpress.com/",
    "category": "Restaurant",
    "types": "grocery_or_supermarket, store, restaurant, food, point_of_interest, establishment"
  },
  {
    "place_id": "ChIJ1ew3fHh6f4gRbepmiS0ItRU",
    "name": "Pops Bar & Grill Millington",
    "street_address": "6365 Navy Road",
    "city": "Millington",
    "state": "TN",
    "zip_code": "38053",
    "latitude": 35.337726,
    "longitude": -89.85115599999999,
    "website": "http://www.facebook.com/popsmillington",
    "category": "Bar & Restaurant",
    "types": "bar, restaurant, food, point_of_interest, establishment"
  },
  {
    "place_id": "ChIJnRqK1CB8f4gRA5AE89-P-Q0",
    "name": "The Haystack Cafe",
    "street_address": "6560 U.S. 51",
    "city": "Millington",
    "state": "TN",
    "zip_code": "38053",
    "latitude": 35.3049416,
    "longitude": -89.94823769999999,
    "website": "https://www.facebook.com/haystackbarandgrill/",
    "category": "Bar & Restaurant",
    "types": "bar, restaurant, food, point_of_interest, establishment"
  },
  {
    "place_id": "ChIJZ09yYhx7f4gRpJZBDfnBEus",
    "name": "Huey's Millington",
    "street_address": "8570 U.S. 51",
    "city": "Millington",
    "state": "TN",
    "zip_code": "38053",
    "latitude": 35.3603257,
    "longitude": -89.89148639999999,
    "website": "https://hueyburger.com/",
    "category": "Bar & Restaurant",
    "types": "bar, restaurant, food, point_of_interest, establishment"
  },
  {
    "place_id": "ChIJd_k8-Rx7f4gR35zBc1OpKyI",
    "name": "Buffalo Wild Wings",
    "street_address": "8544 U.S. 51",
    "city": "Millington",
    "state": "TN",
    "zip_code": "38053",
    "latitude": 35.35964919999999,
    "longitude": -89.8919124,
    "website": "https://www.buffalowildwings.com/locations/us/tn/millington/8544-n-us-hwy-51/sports-bar-1484?utm_source=google%20my%20business&utm_medium=organic&utm_campaign=website%20link",
    "category": "Bar & Restaurant",
    "types": "meal_takeaway, bar, restaurant, food, point_of_interest, establishment"
  },
  {
    "place_id": "ChIJg_FpUnN7f4gRQ_sB-wD5SX0",
    "name": "Harry's Italian Restaurant",
    "street_address": "8472 Tennessee 3",
    "city": "Millington",
    "state": "TN",
    "zip_code": "38053",
    "latitude": 35.3575993,
    "longitude": -89.8936778,
    "website": "https://harrysfineitalian.com/?utm_source=google",
    "category": "Restaurant",
    "types": "restaurant, food, point_of_interest, establishment"
  },
  {
    "place_id": "ChIJR8dG07F6f4gRbaEgf6S7k_c",
    "name": "Pig-N-Whistle BBQ & Catfish",
    "street_address": "8251 U.S. 51",
    "city": "Millington",
    "state": "TN",
    "zip_code": "38053",
    "latitude": 35.3516382,
    "longitude": -89.8996062,
    "website": "http://www.pignwhistlebbq.com/",
    "category": "Restaurant",
    "types": "restaurant, food, point_of_interest, establishment"
  },
  {
    "place_id": "ChIJOUZtDnN7f4gRrzI8XkDMp7s",
    "name": "LiT Caf\u00e9 & Billiard",
    "street_address": "7772 U.S. 51",
    "city": "Millington",
    "state": "TN",
    "zip_code": "38053",
    "latitude": 35.3384462,
    "longitude": -89.9124787,
    "website": "https://www.toasttab.com/lit-cafe-billiard-7772-highway-51-north",
    "category": "Bar & Restaurant",
    "types": "bar, restaurant, food, point_of_interest, establishment"
  },
  {
    "place_id": "ChIJnbH9t02ff4gRCbXUb-b9P0o",
    "name": "The Birdie Bar & Grill",
    "street_address": "3049 Davies Plantation Road",
    "city": "Lakeland",
    "state": "TN",
    "zip_code": "38002",
    "latitude": 35.2131741,
    "longitude": -89.747556,
    "website": "http://www.facebook.com/birdiebarandgrill",
    "category": "Bar & Restaurant",
    "types": "bar, restaurant, food, point_of_interest, establishment"
  },
  {
    "place_id": "ChIJy-W4TM6ff4gR-KyCbXtUNH0",
    "name": "T J Mulligans",
    "street_address": "2821 Houston Levee Road",
    "city": "Memphis",
    "state": "TN",
    "zip_code": "38016",
    "latitude": 35.202037,
    "longitude": -89.7322556,
    "website": "https://www.tjmulligans.com/",
    "category": "Bar & Restaurant",
    "types": "bar, restaurant, food, point_of_interest, establishment"
  },
  {
    "place_id": "ChIJtbiKo3J1f4gRQ2nTV7f9b5M",
    "name": "Owners Box Sports Grill",
    "street_address": "9757 Market Green Place South",
    "city": "Lakeland",
    "state": "TN",
    "zip_code": "38002",
    "latitude": 35.257133,
    "longitude": -89.73696559999999,
    "website": "https://ownersboxsportsgrill.com/",
    "category": "Bar & Restaurant",
    "types": "bar, restaurant, food, point_of_interest, establishment"
  },
  {
    "place_id": "ChIJ5bpJRvudf4gREgfkv4pbpWs",
    "name": "Firebirds Wood Fired Grill",
    "street_address": "8470 U.S. 64",
    "city": "Bartlett",
    "state": "TN",
    "zip_code": "38133",
    "latitude": 35.2048693,
    "longitude": -89.7810437,
    "website": "https://firebirdsrestaurants.com/memphis",
    "category": "Restaurant",
    "types": "restaurant, food, point_of_interest, establishment"
  },
  {
    "place_id": "ChIJJ8DdEPCdf4gRH-FRJT8RXKg",
    "name": "LongHorn Steakhouse",
    "street_address": "8324 U.S. 64",
    "city": "Bartlett",
    "state": "TN",
    "zip_code": "38133",
    "latitude": 35.20494899999999,
    "longitude": -89.78543599999999,
    "website": "https://www.longhornsteakhouse.com/locations/tn/bartlett/bartlett/5337?cmpid=br:lh_ag:ie_ch:loc_ca:LHGMB_sn:gmb_gt:bartlett-tn-5337_pl:locurl_rd:1283",
    "category": "Bar & Restaurant",
    "types": "meal_takeaway, bar, restaurant, food, point_of_interest, establishment"
  },
  {
    "place_id": "ChIJ-YMWz_qdf4gRvS25aPpew2A",
    "name": "Buffalo Wild Wings",
    "street_address": "8385 U.S. 64",
    "city": "Memphis",
    "state": "TN",
    "zip_code": "38133",
    "latitude": 35.2033373,
    "longitude": -89.784218,
    "website": "https://www.buffalowildwings.com/locations/us/tn/memphis/8385-us-hwy--64/sports-bar-50?utm_source=google%20my%20business&utm_medium=organic&utm_campaign=website%20link",
    "category": "Bar & Restaurant",
    "types": "bar, meal_takeaway, restaurant, food, point_of_interest, establishment"
  },
  {
    "place_id": "ChIJk7F2leydf4gR_myqwowB89s",
    "name": "Chili's Grill & Bar",
    "street_address": "8100 Giacosa Place",
    "city": "Memphis",
    "state": "TN",
    "zip_code": "38133",
    "latitude": 35.19947299999999,
    "longitude": -89.793207,
    "website": "https://www.chilis.com/locations/us/tennessee/memphis/wolfchase?utm_source=google&utm_medium=local&utm_campaign=Chilis",
    "category": "Bar & Restaurant",
    "types": "restaurant, bar, food, point_of_interest, establishment"
  },
  {
    "place_id": "ChIJIdRphPqdf4gRgmNLN_jbFyQ",
    "name": "East Coast Wings + Grill",
    "street_address": "2946 Kate Hyde Boulevard",
    "city": "Bartlett",
    "state": "TN",
    "zip_code": "38133",
    "latitude": 35.2057727,
    "longitude": -89.78430829999999,
    "website": "https://www.eastcoastwings.com/",
    "category": "Bar & Restaurant",
    "types": "bar, restaurant, point_of_interest, food, establishment"
  },
  {
    "place_id": "ChIJHxog38edf4gRUZB2bxlFLtg",
    "name": "Cheddar's Scratch Kitchen",
    "street_address": "2147 North Germantown Parkway",
    "city": "Memphis",
    "state": "TN",
    "zip_code": "38016",
    "latitude": 35.1846732,
    "longitude": -89.79345479999999,
    "website": "https://www.cheddars.com/locations/tn/cordova/cordova-germantown-pkwy/2157?cmpid=br:csk_ag:ie_ch:loc_ca:CSKGMB_sn:gmb_gt:cordova-tn-2157_pl:locurl_rd:1129",
    "category": "Restaurant",
    "types": "meal_takeaway, restaurant, food, point_of_interest, establishment"
  },
  {
    "place_id": "ChIJfy46JuOdf4gRUWvKiaIMaHs",
    "name": "Hooters",
    "street_address": "2838 New Brunswick Road",
    "city": "Memphis",
    "state": "TN",
    "zip_code": "38133",
    "latitude": 35.2023625,
    "longitude": -89.7779711,
    "website": "https://www.hooters.com/locations/3428-wolfchase?utm_medium=organic&utm_source=google&utm_campaign=gmb-ar-ms&utm_content=memphis&utm_term=website-cta",
    "category": "Bar & Restaurant",
    "types": "meal_delivery, bar, meal_takeaway, restaurant, food, point_of_interest, establishment"
  },
  {
    "place_id": "ChIJP_a_N-Cdf4gRNsv_mYlSC0Y",
    "name": "Sticks X Stones",
    "street_address": "2965 North Germantown Parkway",
    "city": "Bartlett",
    "state": "TN",
    "zip_code": "38133",
    "latitude": 35.2067554,
    "longitude": -89.7933894,
    "website": "http://sxslounge.com/",
    "category": "Bar & Restaurant",
    "types": "night_club, bar, store, restaurant, food, point_of_interest, establishment"
  },
  {
    "place_id": "ChIJOc-m1_qdf4gRFJC92XIgS0Q",
    "name": "Olive Garden Italian Restaurant",
    "street_address": "8405 U.S. 64",
    "city": "Memphis",
    "state": "TN",
    "zip_code": "38133",
    "latitude": 35.203863,
    "longitude": -89.78272899999999,
    "website": "https://www.olivegarden.com/locations/tn/memphis/memphis-wolfchase-mall/1553?cmpid=br:og_ag:ie_ch:loc_ca:OGGMB_sn:gmb_gt:memphis-tn-1553_pl:locurl_rd:1423",
    "category": "Bar & Restaurant",
    "types": "meal_takeaway, bar, restaurant, food, point_of_interest, establishment"
  },
  {
    "place_id": "ChIJM2soouydf4gRJHowdDk0unI",
    "name": "On The Border Mexican Grill & Cantina",
    "street_address": "8101 Giacosa Place",
    "city": "Memphis",
    "state": "TN",
    "zip_code": "38133",
    "latitude": 35.1984849,
    "longitude": -89.79337369999999,
    "website": "https://www.ontheborder.com/locations/wolfchase",
    "category": "Restaurant",
    "types": "meal_takeaway, restaurant, point_of_interest, food, establishment"
  },
  {
    "place_id": "ChIJ352G4yadf4gR7JTBEqflOzk",
    "name": "Tavern 018",
    "street_address": "8130 Macon Station",
    "city": "Memphis",
    "state": "TN",
    "zip_code": "38018",
    "latitude": 35.1527557,
    "longitude": -89.7920761,
    "website": "http://tavern018.com/",
    "category": "Bar & Restaurant",
    "types": "bar, restaurant, food, point_of_interest, establishment"
  },
  {
    "place_id": "ChIJ_f4ENzacf4gRuHiO2EZ1hy0",
    "name": "Flying Saucer Draught Emporium",
    "street_address": "1400 North Germantown Parkway",
    "city": "Memphis",
    "state": "TN",
    "zip_code": "38016",
    "latitude": 35.16371030000001,
    "longitude": -89.7934642,
    "website": "http://www.beerknurd.com/locations/cordova-flying-saucer",
    "category": "Bar & Restaurant",
    "types": "bar, restaurant, food, point_of_interest, establishment"
  },
  {
    "place_id": "ChIJnRIZxYKdf4gR1I1UJ8aTxAs",
    "name": "East End Grill",
    "street_address": "7547 U.S. 64",
    "city": "Memphis",
    "state": "TN",
    "zip_code": "38133",
    "latitude": 35.2040108,
    "longitude": -89.8116811,
    "website": "https://eastendgrill.com/",
    "category": "Bar & Restaurant",
    "types": "restaurant, bar, food, point_of_interest, establishment"
  },
  {
    "place_id": "ChIJH0DaSROcf4gRur2kdGDpAao",
    "name": "T J Mulligans",
    "street_address": "8071 Trinity Road",
    "city": "Memphis",
    "state": "TN",
    "zip_code": "38018",
    "latitude": 35.1417556,
    "longitude": -89.79395699999999,
    "website": "http://www.tjmulligans.com/",
    "category": "Bar & Restaurant",
    "types": "bar, restaurant, food, point_of_interest, establishment"
  },
  {
    "place_id": "ChIJyRAjDcqdf4gR9cOcuXKM5hg",
    "name": "Huey's Cordova",
    "street_address": "1771 North Germantown Parkway",
    "city": "Memphis",
    "state": "TN",
    "zip_code": "38016",
    "latitude": 35.17459099999999,
    "longitude": -89.79392050000001,
    "website": "https://hueyburger.com/",
    "category": "Bar & Restaurant",
    "types": "bar, restaurant, food, point_of_interest, establishment"
  },
  {
    "place_id": "ChIJlQAMSfSdf4gRsDhkl_pXKmg",
    "name": "Rock'n Dough Pizza & Brewery",
    "street_address": "1769 North Germantown Parkway",
    "city": "Memphis",
    "state": "TN",
    "zip_code": "38016",
    "latitude": 35.1741703,
    "longitude": -89.79441480000001,
    "website": "https://www.rockndoughpizza.com/",
    "category": "Restaurant",
    "types": "restaurant, food, point_of_interest, establishment"
  },
  {
    "place_id": "ChIJFeHYOlOdf4gRO6qTUkrzmlM",
    "name": "Reservations Bar &Bistro",
    "street_address": "8106 Cordova Center Drive",
    "city": "Memphis",
    "state": "TN",
    "zip_code": "38016",
    "latitude": 35.1715697,
    "longitude": -89.79247319999999,
    "website": "http://reservationsbarbistro.com/",
    "category": "Restaurant",
    "types": "restaurant, food, point_of_interest, establishment"
  },
  {
    "place_id": "ChIJrZmf0LCFf4gRn6mQsIF4Yxs",
    "name": "Prohibition Lounge",
    "street_address": "4855 American Way",
    "city": "Memphis",
    "state": "TN",
    "zip_code": "38118",
    "latitude": 35.0739832,
    "longitude": -89.90138689999999,
    "website": "http://prohibitionloungememphis.com/",
    "category": "Bar & Restaurant",
    "types": "night_club, bar, restaurant, food, point_of_interest, establishment"
  }
]