[
  {
    "place_id": "ChIJTVI83Ly12YgRzTDpzu64wOo",
    "name": "Mickey Burkes",
    "street_address": "1265 Washington Avenue",
    "city": "Miami Beach",
    "state": "FL",
    "zip_code": "33139",
    "latitude": 25.7840237,
    "longitude": -80.13194899999999,
    "website": "https://mickeyburkes.com/",
    "category": "Bar & Restaurant",
    "types": "bar, restaurant, food, point_of_interest, establishment"
  },
  {
    "place_id": "ChIJeR0KzPG02YgRghnAFY98sxU",
    "name": "South Pointe Tavern",
    "street_address": "40 South Pointe Drive",
    "city": "Miami Beach",
    "state": "FL",
    "zip_code": "33139",
    "latitude": 25.7682072,
    "longitude": -80.1330218,
    "website": "https://southpointetavern.com/",
    "category": "Bar & Restaurant",
    "types": "night_club, cafe, bar, restaurant, food, point_of_interest, establishment"
  },
  {
    "place_id": "ChIJB5mRuE-12YgRBKW24Am56ro",
    "name": "Wilde on the Porch",
    "street_address": "1700 Collins Avenue",
    "city": "Miami Beach",
    "state": "FL",
    "zip_code": "33139",
    "latitude": 25.7924555,
    "longitude": -80.12993259999999,
    "website": "http://wildeontheporch.com/",
    "category": "Bar & Restaurant",
    "types": "restaurant, night_club, bar, food, point_of_interest, establishment"
  },
  {
    "place_id": "ChIJdTigTZC02YgRRARwvo9T_4I",
    "name": "Finnegan's Way",
    "street_address": "1344 Ocean Drive",
    "city": "Miami Beach",
    "state": "FL",
    "zip_code": "33139",
    "latitude": 25.7847198,
    "longitude": -80.1300246,
    "website": "http://www.finnegansway.com/",
    "category": "Bar & Restaurant",
    "types": "bar, restaurant, food, point_of_interest, establishment"
  },
  {
    "place_id": "ChIJbYrWIza12YgRkWYCIvvK6cY",
    "name": "Sola Miami Beach",
    "street_address": "1000 Collins Avenue",
    "city": "Miami Beach",
    "state": "FL",
    "zip_code": "33139",
    "latitude": 25.78073299999999,
    "longitude": -80.1317913,
    "website": "https://solamiami.com/",
    "category": "Bar & Restaurant",
    "types": "bar, restaurant, food, point_of_interest, establishment"
  },
  {
    "place_id": "ChIJ9X7aKWaz2YgR2SpQuFesw7k",
    "name": "The Tavern - American Restaurant in Miami Beach",
    "street_address": "3720 Collins Avenue",
    "city": "Miami Beach",
    "state": "FL",
    "zip_code": "33140",
    "latitude": 25.810889,
    "longitude": -80.123506,
    "website": "https://hotelcroydonmiamibeach.com/thetavern/",
    "category": "Bar & Restaurant",
    "types": "night_club, bar, restaurant, food, point_of_interest, establishment"
  },
  {
    "place_id": "ChIJtXsiL_S02YgRgKuqiBBSgGc",
    "name": "Monty's Sunset - South Beach",
    "street_address": "300 Alton Road",
    "city": "Miami Beach",
    "state": "FL",
    "zip_code": "33139",
    "latitude": 25.7716538,
    "longitude": -80.1395683,
    "website": "http://www.montyssobe.com/",
    "category": "Bar & Restaurant",
    "types": "bar, restaurant, food, point_of_interest, establishment"
  },
  {
    "place_id": "ChIJxxk7Oui12YgRAOS8JPGIJlI",
    "name": "Bar Idol",
    "street_address": "758 Washington Avenue",
    "city": "Miami Beach",
    "state": "FL",
    "zip_code": "33139",
    "latitude": 25.7781394,
    "longitude": -80.1335677,
    "website": "https://www.baridolsobe.com/",
    "category": "Bar & Restaurant",
    "types": "bar, restaurant, point_of_interest, food, establishment"
  },
  {
    "place_id": "ChIJyVX8ZJu02YgR1Q-Psp8kj28",
    "name": "Maxine's Bistro and Bar - American Restaurant in Miami Beach",
    "street_address": "1756 Collins Avenue",
    "city": "Miami Beach",
    "state": "FL",
    "zip_code": "33139",
    "latitude": 25.7934272,
    "longitude": -80.1299013,
    "website": "https://catalinahotel.com/maxines",
    "category": "Bar & Restaurant",
    "types": "bar, restaurant, food, point_of_interest, establishment"
  },
  {
    "place_id": "ChIJc7X19dG12YgRlsyf-LxMn4o",
    "name": "Brother's Keeper",
    "street_address": "1710 Alton Road",
    "city": "Miami Beach",
    "state": "FL",
    "zip_code": "33139",
    "latitude": 25.7923832,
    "longitude": -80.14144689999999,
    "website": "https://www.brotherskeeperbar.com/",
    "category": "Bar & Restaurant",
    "types": "bar, restaurant, food, point_of_interest, establishment"
  },
  {
    "place_id": "ChIJCbHt04e02YgRSgndonaQOBo",
    "name": "Abbey Brewing Company",
    "street_address": "1115-1117 16th Street",
    "city": "Miami Beach",
    "state": "FL",
    "zip_code": "33139",
    "latitude": 25.7890432,
    "longitude": -80.14029190000001,
    "website": null,
    "category": "Bar & Restaurant",
    "types": "bar, restaurant, food, point_of_interest, establishment"
  },
  {
    "place_id": "ChIJNccS3uW12YgRteOfnGQyHow",
    "name": "Ole Ole Steak House",
    "street_address": "626 Lincoln Road",
    "city": "Miami Beach",
    "state": "FL",
    "zip_code": "33139",
    "latitude": 25.790412,
    "longitude": -80.1349422,
    "website": "https://www.oleolesteakhouse.com/",
    "category": "Restaurant",
    "types": "restaurant, food, point_of_interest, establishment"
  },
  {
    "place_id": "ChIJ0Xt0BlS12YgR0Ds_rKXNjzs",
    "name": "South Beach Brewing Company Taproom & Restaurant",
    "street_address": "210 11th Street",
    "city": "Miami Beach",
    "state": "FL",
    "zip_code": "33139",
    "latitude": 25.7817183,
    "longitude": -80.13191719999999,
    "website": "https://www.southbeachbrew.com/",
    "category": "Bar & Restaurant",
    "types": "bar, night_club, restaurant, food, point_of_interest, establishment"
  },
  {
    "place_id": "ChIJrWlI4o-02YgRChVUg23Pb_k",
    "name": "Havana 1957 Cuban Cuisine Espanola Way",
    "street_address": "405 Espa\u00f1ola Way",
    "city": "Miami Beach",
    "state": "FL",
    "zip_code": "33139",
    "latitude": 25.7870419,
    "longitude": -80.131975,
    "website": "https://www.havana1957.com/espanola-way/",
    "category": "Bar & Restaurant",
    "types": "bar, restaurant, food, point_of_interest, establishment"
  },
  {
    "place_id": "ChIJgxyJEpK02YgRIzITDeIUG9U",
    "name": "The Clevelander Bar",
    "street_address": "1020 Ocean Drive",
    "city": "Miami Beach",
    "state": "FL",
    "zip_code": "33139",
    "latitude": 25.7807913,
    "longitude": -80.13085819999999,
    "website": "http://www.clevelander.com/",
    "category": "Bar & Restaurant",
    "types": "bar, night_club, restaurant, food, point_of_interest, establishment"
  },
  {
    "place_id": "ChIJ8SSXm3m12YgRzVaNd45NiQY",
    "name": "Bar Habana",
    "street_address": "660 Washington Avenue",
    "city": "Miami Beach",
    "state": "FL",
    "zip_code": "33139",
    "latitude": 25.77653209999999,
    "longitude": -80.13417890000001,
    "website": "https://elpatio-barhabana.com/",
    "category": "Restaurant",
    "types": "restaurant, food, point_of_interest, establishment"
  },
  {
    "place_id": "ChIJKYgbM4202YgRL2NO8GrgllU",
    "name": "Bolivar Colombian Restaurant Bar Lounge",
    "street_address": "841 Washington Avenue",
    "city": "Miami Beach",
    "state": "FL",
    "zip_code": "33139",
    "latitude": 25.779079,
    "longitude": -80.1329652,
    "website": "http://www.bolivarmiamibeach.com/",
    "category": "Bar & Restaurant",
    "types": "night_club, bar, restaurant, food, point_of_interest, establishment"
  },
  {
    "place_id": "ChIJiQfZEB202YgRQMuGUF1mPU0",
    "name": "Mike's At Venetia",
    "street_address": "555 Northeast 15th Street",
    "city": "Miami",
    "state": "FL",
    "zip_code": "33132",
    "latitude": 25.7901686,
    "longitude": -80.1857505,
    "website": "https://mikesmiami.com/",
    "category": "Bar & Restaurant",
    "types": "bar, restaurant, food, point_of_interest, establishment"
  },
  {
    "place_id": "ChIJO27_38W12YgR2s1-f-ED7TI",
    "name": "Room 55 Speakeasy & Rooftop Cocktail Bar",
    "street_address": "826 Ocean Drive",
    "city": "Miami Beach",
    "state": "FL",
    "zip_code": "33139",
    "latitude": 25.778559,
    "longitude": -80.1313655,
    "website": "https://room55.pelicanhotel.com/",
    "category": "Bar & Restaurant",
    "types": "bar, restaurant, food, point_of_interest, establishment"
  },
  {
    "place_id": "ChIJ8XrxI4W22YgRyZiuIp0HdhQ",
    "name": "American Social - Bar & Kitchen - Miami",
    "street_address": "690 Southwest 1st Court",
    "city": "Miami",
    "state": "FL",
    "zip_code": "33130",
    "latitude": 25.767836,
    "longitude": -80.1962401,
    "website": "https://americansocialbar.com/locations/miami/",
    "category": "Bar & Restaurant",
    "types": "bar, restaurant, food, point_of_interest, establishment"
  },
  {
    "place_id": "ChIJIWmLI_y22YgRSPiKOqY47b8",
    "name": "Bar Nancy",
    "street_address": "2007 Southwest 8th Street",
    "city": "Miami",
    "state": "FL",
    "zip_code": "33135",
    "latitude": 25.7656286,
    "longitude": -80.2282647,
    "website": "http://www.nancy305.com/",
    "category": "Bar & Restaurant",
    "types": "night_club, bar, restaurant, food, point_of_interest, establishment"
  },
  {
    "place_id": "ChIJQ0jur_C22YgR3mIs-tQL-ZM",
    "name": "El Pub Restaurant",
    "street_address": "1548 Southwest 8th Street",
    "city": "Miami",
    "state": "FL",
    "zip_code": "33135",
    "latitude": 25.76553969999999,
    "longitude": -80.2203024,
    "website": "https://elpubrestaurant.com/",
    "category": "Bar & Restaurant",
    "types": "bar, restaurant, food, point_of_interest, establishment"
  },
  {
    "place_id": "ChIJzwEW8bK32YgRoeQcKaBkwrs",
    "name": "Over Under",
    "street_address": "151 East Flagler Street",
    "city": "Miami",
    "state": "FL",
    "zip_code": "33131",
    "latitude": 25.774428,
    "longitude": -80.190885,
    "website": "http://overundermiami.com/",
    "category": "Bar & Restaurant",
    "types": "bar, restaurant, food, point_of_interest, establishment"
  },
  {
    "place_id": "ChIJp2lBr4a22YgRFMCka0LXwfU",
    "name": "Batch Gastropub: Miami",
    "street_address": "30 Southwest 12th Street",
    "city": "Miami",
    "state": "FL",
    "zip_code": "33130",
    "latitude": 25.7623609,
    "longitude": -80.1939812,
    "website": "http://www.batchgastropub.com/miami",
    "category": "Bar & Restaurant",
    "types": "bar, restaurant, food, point_of_interest, establishment"
  },
  {
    "place_id": "ChIJz_kt7xG32YgRV9TzFJI3d3g",
    "name": "Grails Miami - Restaurant & Sports Bar",
    "street_address": "2800 North Miami Avenue",
    "city": "Miami",
    "state": "FL",
    "zip_code": "33127",
    "latitude": 25.8031231,
    "longitude": -80.195312,
    "website": "https://grailsmiami.com/?utm_source=gmb-listing&utm_medium=organic",
    "category": "Bar & Restaurant",
    "types": "bar, restaurant, food, point_of_interest, establishment"
  },
  {
    "place_id": "ChIJZ1-4KZy22YgRgMdMrTfQrOo",
    "name": "Lost Boy Dry Goods",
    "street_address": "157 East Flagler Street",
    "city": "Miami",
    "state": "FL",
    "zip_code": "33131",
    "latitude": 25.7744049,
    "longitude": -80.19071029999999,
    "website": "http://www.lostboydrygoods.com/",
    "category": "Bar & Restaurant",
    "types": "bar, restaurant, food, point_of_interest, establishment"
  },
  {
    "place_id": "ChIJmw-bdVSx2YgRx9Yq7aZgxn4",
    "name": "Tap 42 Craft Kitchen & Bar - Midtown Miami",
    "street_address": "3252 Northeast 1st Avenue",
    "city": "Miami",
    "state": "FL",
    "zip_code": "33137",
    "latitude": 25.808052,
    "longitude": -80.19301610000001,
    "website": "https://tap42.com/midtown-miami/",
    "category": "Bar & Restaurant",
    "types": "bar, restaurant, food, point_of_interest, establishment"
  },
  {
    "place_id": "ChIJQ9vJKdy32YgR2qzegZrOieQ",
    "name": "The Auld Dubliner Irish Pub & Kitchen",
    "street_address": "91 Northwest 1st Street",
    "city": "Miami",
    "state": "FL",
    "zip_code": "33128",
    "latitude": 25.7752559,
    "longitude": -80.19483819999999,
    "website": "http://theaulddubliner.com/",
    "category": "Bar & Restaurant",
    "types": "bar, restaurant, food, point_of_interest, establishment"
  },
  {
    "place_id": "ChIJpwznMWi32YgRs_iFE7Vok3Y",
    "name": "Rosa Sky",
    "street_address": "115 Southwest 8th Street",
    "city": "Miami",
    "state": "FL",
    "zip_code": "33130",
    "latitude": 25.7668472,
    "longitude": -80.196175,
    "website": "https://rosaskyrooftop.com/?utm_source=google&utm_medium=organic&utm_campaign=gbp",
    "category": "Bar & Restaurant",
    "types": "night_club, bar, restaurant, food, point_of_interest, establishment"
  },
  {
    "place_id": "ChIJ4yC24GK32YgRAEsm4jvWV30",
    "name": "Moxies Miami Restaurant",
    "street_address": "900 South Miami Avenue",
    "city": "Miami",
    "state": "FL",
    "zip_code": "33130",
    "latitude": 25.7651846,
    "longitude": -80.1934168,
    "website": "https://moxies.com/restaurants/miami-mary-brickell?utm_source=GMB&utm_medium=google-location-listing&utm_campaign=organic",
    "category": "Restaurant",
    "types": "restaurant, food, point_of_interest, establishment"
  },
  {
    "place_id": "ChIJ12SCIqe32YgRQaxpcFKQjF8",
    "name": "The Canvas Bar",
    "street_address": "1600 Northeast 1st Avenue",
    "city": "Miami",
    "state": "FL",
    "zip_code": "33132",
    "latitude": 25.7910545,
    "longitude": -80.1925837,
    "website": null,
    "category": "Bar & Restaurant",
    "types": "restaurant, bar, food, point_of_interest, establishment"
  },
  {
    "place_id": "ChIJX19cNJy22YgRjx4OIdVA_CQ",
    "name": "Black Market Miami",
    "street_address": "168 Southeast 1st Street",
    "city": "Miami",
    "state": "FL",
    "zip_code": "33131",
    "latitude": 25.77325,
    "longitude": -80.19050299999999,
    "website": "http://www.blackmarketmia.com/",
    "category": "Bar & Restaurant",
    "types": "bar, night_club, restaurant, food, point_of_interest, establishment"
  },
  {
    "place_id": "ChIJs-Ieb6S32YgRDe7QpRL9l4c",
    "name": "Black Market Bayside",
    "street_address": "401 Biscayne Boulevard",
    "city": "Miami",
    "state": "FL",
    "zip_code": "33132",
    "latitude": 25.77842249999999,
    "longitude": -80.1864513,
    "website": "http://www.blackmarketmia.com/",
    "category": "Bar & Restaurant",
    "types": "bar, restaurant, food, point_of_interest, establishment"
  },
  {
    "place_id": "ChIJhe3DKSu32YgRVOWZEyWPqdo",
    "name": "Mayami Wynwood",
    "street_address": "127 Northwest 23rd Street",
    "city": "Miami",
    "state": "FL",
    "zip_code": "33127",
    "latitude": 25.7993489,
    "longitude": -80.1976577,
    "website": "https://www.mayamiwynwood.com/",
    "category": "Bar & Restaurant",
    "types": "restaurant, night_club, bar, food, point_of_interest, establishment"
  },
  {
    "place_id": "ChIJv_lvTYW32YgRCt1yz-SmPEE",
    "name": "Kush Brickell",
    "street_address": "650 South Miami Avenue",
    "city": "Miami",
    "state": "FL",
    "zip_code": "33130",
    "latitude": 25.7674986,
    "longitude": -80.19362129999999,
    "website": "http://www.kushhospitality.com/",
    "category": "Bar & Restaurant",
    "types": "restaurant, bar, food, point_of_interest, establishment"
  },
  {
    "place_id": "ChIJ_e0K9K222YgRHQqoo1UVfKE",
    "name": "Gramps",
    "street_address": "176 Northwest 24th Street",
    "city": "Miami",
    "state": "FL",
    "zip_code": "33127",
    "latitude": 25.7996051,
    "longitude": -80.1982683,
    "website": "https://gramps.com/",
    "category": "Bar & Restaurant",
    "types": "bar, meal_takeaway, restaurant, food, point_of_interest, establishment"
  },
  {
    "place_id": "ChIJZ-EZIv232YgRCM_XdzyZ5Jk",
    "name": "305 Sports Bar",
    "street_address": "919 Brickell Avenue",
    "city": "Miami",
    "state": "FL",
    "zip_code": "33131",
    "latitude": 25.7651348,
    "longitude": -80.1906257,
    "website": "http://www.305sportsbar.com/",
    "category": "Bar & Restaurant",
    "types": "bar, restaurant, food, point_of_interest, establishment"
  },
  {
    "place_id": "ChIJCWCYxvC22YgRNWU2W-fZgn4",
    "name": "Old's Havana Cuban Bar & Cocina",
    "street_address": "1442 Southwest 8th Street",
    "city": "Miami",
    "state": "FL",
    "zip_code": "33135",
    "latitude": 25.765592,
    "longitude": -80.21921569999999,
    "website": "http://www.oldshavana.com/",
    "category": "Bar & Restaurant",
    "types": "bar, restaurant, food, point_of_interest, establishment"
  },
  {
    "place_id": "ChIJ22LQJJO32YgRvVI_Rwd7Z-Y",
    "name": "Thank You Miami Cocina & Beer House",
    "street_address": "1701 West Flagler Street",
    "city": "Miami",
    "state": "FL",
    "zip_code": "33135",
    "latitude": 25.7731522,
    "longitude": -80.22321269999999,
    "website": "http://www.thankyoumiami.com/",
    "category": "Bar & Restaurant",
    "types": "restaurant, night_club, bar, food, point_of_interest, establishment"
  },
  {
    "place_id": "ChIJteobKQe32YgRrjGoJeFI7Ps",
    "name": "Temple Wynwood",
    "street_address": "151 Northwest 24th Street",
    "city": "Miami",
    "state": "FL",
    "zip_code": "33127",
    "latitude": 25.8000675,
    "longitude": -80.1981542,
    "website": "https://templeusa.co/",
    "category": "Bar & Restaurant",
    "types": "bar, restaurant, food, point_of_interest, establishment"
  },
  {
    "place_id": "ChIJJ6hGwIC22YgRE0hEPzwvlDQ",
    "name": "Edge Brasserie and Cocktail Bar",
    "street_address": "1435 Brickell Avenue",
    "city": "Miami",
    "state": "FL",
    "zip_code": "33131",
    "latitude": 25.7587733,
    "longitude": -80.1913172,
    "website": "https://www.edgebrasserie.com/?utm_source=google&utm_medium=organicsearch&utm_campaign=tor-mia-fab-mid-seo-na&utm_content=na-na&utm_term=na",
    "category": "Bar & Restaurant",
    "types": "night_club, bar, restaurant, food, point_of_interest, establishment"
  },
  {
    "place_id": "ChIJe4rXvvC22YgRpjGQg1PlJmM",
    "name": "BALL & CHAIN",
    "street_address": "1513 Southwest 8th Street",
    "city": "Miami",
    "state": "FL",
    "zip_code": "33135",
    "latitude": 25.7658888,
    "longitude": -80.2197755,
    "website": "https://ballandchainmiami.com/",
    "category": "Bar & Restaurant",
    "types": "night_club, bar, restaurant, food, point_of_interest, establishment"
  },
  {
    "place_id": "ChIJl1O4GSe02YgRLccjkiMlp5Y",
    "name": "Toro Toro",
    "street_address": "100 Chopin Plaza",
    "city": "Miami",
    "state": "FL",
    "zip_code": "33131",
    "latitude": 25.7727195,
    "longitude": -80.1855149,
    "website": "http://www.torotoromiami.com/?utm_source=google&utm_medium=organic&utm_campaign=business-listing",
    "category": "Bar & Restaurant",
    "types": "restaurant, bar, food, point_of_interest, establishment"
  },
  {
    "place_id": "ChIJgcV-zbG22YgRTJGMSVDeKa0",
    "name": "Syndicate Wynwood",
    "street_address": "2451 Northwest 5th Avenue",
    "city": "Miami",
    "state": "FL",
    "zip_code": "33127",
    "latitude": 25.80045,
    "longitude": -80.2029767,
    "website": "http://syndicatewynwood.com/",
    "category": "Bar & Restaurant",
    "types": "bar, meal_takeaway, cafe, store, restaurant, food, point_of_interest, establishment"
  },
  {
    "place_id": "ChIJUSPEOLK22YgRbvGyPW5obxc",
    "name": "Le Chick Miami",
    "street_address": "310 Northwest 24th Street",
    "city": "Miami",
    "state": "FL",
    "zip_code": "33127",
    "latitude": 25.7999327,
    "longitude": -80.2004346,
    "website": "http://www.lechickmiami.com/",
    "category": "Bar & Restaurant",
    "types": "restaurant, night_club, bar, food, point_of_interest, establishment"
  },
  {
    "place_id": "ChIJMS8hpIS22YgRmA9NF1gySxo",
    "name": "Tobacco Road",
    "street_address": "69 Southwest 7th Street",
    "city": "Miami",
    "state": "FL",
    "zip_code": "33130",
    "latitude": 25.7675085,
    "longitude": -80.1934653,
    "website": "http://tobacco-road.com/index.php",
    "category": "Bar & Restaurant",
    "types": "bar, restaurant, food, point_of_interest, establishment"
  },
  {
    "place_id": "ChIJF-HcUii02YgRjZlgGF7qQcg",
    "name": "MO Bar & Lounge",
    "street_address": "500 Brickell Key Drive",
    "city": "Miami",
    "state": "FL",
    "zip_code": "33131",
    "latitude": 25.7649505,
    "longitude": -80.18527,
    "website": "https://www.mandarinoriental.com/miami/brickell-key/fine-dining/bars/mo-bar-and-lounge?htl=MOMIA&kw=MOMIA_mobar_lounge&eng=google&src=local",
    "category": "Bar & Restaurant",
    "types": "bar, night_club, restaurant, food, point_of_interest, establishment"
  },
  {
    "place_id": "ChIJ2_ERWIK22YgRI9cCTJogWh4",
    "name": "LOL ON THE BAY",
    "street_address": "905 Brickell Bay Drive",
    "city": "Miami",
    "state": "FL",
    "zip_code": "33131",
    "latitude": 25.7642779,
    "longitude": -80.18866200000001,
    "website": null,
    "category": "Bar & Restaurant",
    "types": "bar, restaurant, food, point_of_interest, establishment"
  },
  {
    "place_id": "ChIJ5SgmyZ-22YgRcKDLxeeC_Yw",
    "name": "Marina's Bar & Grill",
    "street_address": "Biscayne Boulevard",
    "city": "Miami",
    "state": "FL",
    "zip_code": "33130",
    "latitude": 25.7777897,
    "longitude": -80.18859719999999,
    "website": null,
    "category": "Bar & Restaurant",
    "types": "bar, restaurant, point_of_interest, food, establishment"
  },
  {
    "place_id": "ChIJed5Ggry32YgR2BTGIQpjyDM",
    "name": "Wynballs Billiards Bar & Grill Miami",
    "street_address": "2041 Northwest 1st Avenue",
    "city": "Miami",
    "state": "FL",
    "zip_code": "33127",
    "latitude": 25.7964904,
    "longitude": -80.1964892,
    "website": "https://www.wynballsbilliardsbarandgrill.com/",
    "category": "Bar & Restaurant",
    "types": "night_club, bar, meal_takeaway, restaurant, food, point_of_interest, establishment"
  },
  {
    "place_id": "ChIJVQ9LYL-32YgRV9kFDwePb4g",
    "name": "Sala'o Cuban Restaurant & Bar - Live music",
    "street_address": "1642 Southwest 8th Street",
    "city": "Miami",
    "state": "FL",
    "zip_code": "33135",
    "latitude": 25.76551,
    "longitude": -80.22144999999999,
    "website": "https://salaorestaurant.com/",
    "category": "Bar & Restaurant",
    "types": "bar, restaurant, food, point_of_interest, establishment"
  },
  {
    "place_id": "ChIJ4TcoYIO22YgRrLy7tQgjhwU",
    "name": "CMX Stone Sports Bar Brickell",
    "street_address": "701 South Miami Avenue",
    "city": "Miami",
    "state": "FL",
    "zip_code": "33130",
    "latitude": 25.7671641,
    "longitude": -80.1930805,
    "website": "https://www.cmxcinemas.com/experiences/CMX-STONE",
    "category": "Bar & Restaurant",
    "types": "movie_theater, bar, restaurant, point_of_interest, food, establishment"
  },
  {
    "place_id": "ChIJVcPE6ae22YgRhsmIHHpUGKs",
    "name": "1601 Lounge",
    "street_address": "1601 Biscayne Boulevard",
    "city": "Miami",
    "state": "FL",
    "zip_code": "33132",
    "latitude": 25.7910185,
    "longitude": -80.1885233,
    "website": "https://www.hilton.com/en/hotels/miadthf-hilton-miami-downtown/dining/",
    "category": "Bar & Restaurant",
    "types": "night_club, bar, restaurant, food, point_of_interest, establishment"
  },
  {
    "place_id": "ChIJhTvIQbq32YgR6nGx0qu953k",
    "name": "The Brightside",
    "street_address": "1721 Southwest 22nd Street",
    "city": "Miami",
    "state": "FL",
    "zip_code": "33145",
    "latitude": 25.7510492,
    "longitude": -80.2225029,
    "website": "https://www.brightsidemiami.com/",
    "category": "Bar & Restaurant",
    "types": "bar, restaurant, food, point_of_interest, establishment"
  },
  {
    "place_id": "ChIJs1e8QsW32YgR2n6XDREEhNk",
    "name": "Greenstreet Cafe",
    "street_address": "3468 Main Highway",
    "city": "Miami",
    "state": "FL",
    "zip_code": "33133",
    "latitude": 25.7267889,
    "longitude": -80.2440475,
    "website": "http://greenstreetcafe.net/",
    "category": "Bar & Restaurant",
    "types": "restaurant, bar, cafe, food, point_of_interest, establishment"
  },
  {
    "place_id": "ChIJKe7ZApG32YgRrcWNzrI9C34",
    "name": "Bayshore Club Bar & Grill",
    "street_address": "3391 Pan American Drive",
    "city": "Miami",
    "state": "FL",
    "zip_code": "33133",
    "latitude": 25.7287715,
    "longitude": -80.2341624,
    "website": "https://www.bayshoreclubmiami.com/",
    "category": "Bar & Restaurant",
    "types": "bar, restaurant, food, point_of_interest, establishment"
  },
  {
    "place_id": "ChIJb8Zih8-32YgRgxaWQFJtIFg",
    "name": "Barracuda Taphouse & Grill",
    "street_address": "3035 Fuller Street",
    "city": "Miami",
    "state": "FL",
    "zip_code": "33133",
    "latitude": 25.7277611,
    "longitude": -80.2431793,
    "website": "https://www.instagram.com/barracudagrove/",
    "category": "Bar & Restaurant",
    "types": "bar, restaurant, food, point_of_interest, establishment"
  },
  {
    "place_id": "ChIJrbIIns-32YgRDPBCD3UxY14",
    "name": "Sandbar Sports Grill",
    "street_address": "3064 Grand Avenue",
    "city": "Miami",
    "state": "FL",
    "zip_code": "33133",
    "latitude": 25.7279478,
    "longitude": -80.24301969999999,
    "website": null,
    "category": "Bar & Restaurant",
    "types": "bar, restaurant, food, point_of_interest, establishment"
  },
  {
    "place_id": "ChIJY-3KAZ-22YgR7TAs_Qzoad4",
    "name": "Biscayne Tavern",
    "street_address": "146 Biscayne Boulevard",
    "city": "Miami",
    "state": "FL",
    "zip_code": "33132",
    "latitude": 25.7761538,
    "longitude": -80.1881406,
    "website": "http://biscaynetavern.com/",
    "category": "Restaurant",
    "types": "restaurant, food, point_of_interest, establishment"
  },
  {
    "place_id": "ChIJ0bov8sm32YgRJTTDGVGpbS4",
    "name": "Flanigan's Seafood Bar and Grill",
    "street_address": "2721 Bird Avenue",
    "city": "Miami",
    "state": "FL",
    "zip_code": "33133",
    "latitude": 25.7358224,
    "longitude": -80.2383705,
    "website": "http://flanigans.net/",
    "category": "Bar & Restaurant",
    "types": "bar, restaurant, food, point_of_interest, establishment"
  },
  {
    "place_id": "ChIJ4wF8iVu22YgRVkTZDTYzKlM",
    "name": "Neme Gastro Bar",
    "street_address": "1252 Southwest 22nd Street",
    "city": "Miami",
    "state": "FL",
    "zip_code": "33145",
    "latitude": 25.7507932,
    "longitude": -80.21557779999999,
    "website": "http://www.nemegastrobar.com/",
    "category": "Bar & Restaurant",
    "types": "night_club, bar, restaurant, point_of_interest, food, establishment"
  },
  {
    "place_id": "ChIJ9-NERgm12YgRKKovM7gSpVQ",
    "name": "Gold Coast Kitchen and Cocktails",
    "street_address": "1633 North Bayshore Drive",
    "city": "Miami",
    "state": "FL",
    "zip_code": "33132",
    "latitude": 25.7909309,
    "longitude": -80.1865475,
    "website": "https://www.goldcoastkitchenandcocktails.com/?scid=feed67b0-9a2f-4de1-8df6-114544116108",
    "category": "Bar & Restaurant",
    "types": "restaurant, bar, food, point_of_interest, establishment"
  },
  {
    "place_id": "ChIJfyyIwv-52YgRmfgx1aSvF5M",
    "name": "Old Tom's Sports Bar Miami Springs",
    "street_address": "5001 Northwest 36th Street",
    "city": "Miami Springs",
    "state": "FL",
    "zip_code": "33166",
    "latitude": 25.80820079999999,
    "longitude": -80.27812949999999,
    "website": "http://www.oldtoms.com/",
    "category": "Bar & Restaurant",
    "types": "night_club, bar, restaurant, food, point_of_interest, establishment"
  },
  {
    "place_id": "ChIJeYIJO-O52YgRxL2sPjw3XpU",
    "name": "The Clover Irish Pub",
    "street_address": "2100 Northwest 42nd Avenue",
    "city": "Miami",
    "state": "FL",
    "zip_code": "33126",
    "latitude": 25.7971099,
    "longitude": -80.2804262,
    "website": null,
    "category": "Bar & Restaurant",
    "types": "bar, restaurant, food, point_of_interest, establishment"
  },
  {
    "place_id": "ChIJc-8wFZq32YgRKvrhZknW_bY",
    "name": "Tap 42 Craft Kitchen & Bar - Coral Gables",
    "street_address": "301 Giralda Avenue",
    "city": "Coral Gables",
    "state": "FL",
    "zip_code": "33134",
    "latitude": 25.7512384,
    "longitude": -80.2610097,
    "website": "http://tap42.com/coral-gables",
    "category": "Bar & Restaurant",
    "types": "bar, restaurant, food, point_of_interest, establishment"
  },
  {
    "place_id": "ChIJ6VerW5q32YgRXxW3mvMwnho",
    "name": "The Globe",
    "street_address": "377 Alhambra Circle",
    "city": "Coral Gables",
    "state": "FL",
    "zip_code": "33134",
    "latitude": 25.7520638,
    "longitude": -80.2622758,
    "website": "http://theglobecafe.com/",
    "category": "Bar & Restaurant",
    "types": "cafe, night_club, bar, restaurant, food, point_of_interest, establishment"
  },
  {
    "place_id": "ChIJo4BlNWi32YgR7wSoVc-gwBU",
    "name": "Champions Sports Bar",
    "street_address": "1201 Northwest Le Jeune Road",
    "city": "Miami",
    "state": "FL",
    "zip_code": "33126",
    "latitude": 25.785,
    "longitude": -80.2625,
    "website": "https://www.marriott.com/en-us/hotels/miacs-courtyard-miami-airport/dining/champions-sports-bar/?scid=feed67b0-9a2f-4de1-8df6-114544116108",
    "category": "Bar & Restaurant",
    "types": "restaurant, bar, food, point_of_interest, establishment"
  },
  {
    "place_id": "ChIJD-aEFZi32YgR5IxMSzk9IJ8",
    "name": "Fritz & Franz Bierhaus",
    "street_address": "60 Merrick Way",
    "city": "Coral Gables",
    "state": "FL",
    "zip_code": "33134",
    "latitude": 25.7509053,
    "longitude": -80.2561628,
    "website": "http://www.bierhaus.cc/",
    "category": "Bar & Restaurant",
    "types": "bar, restaurant, food, point_of_interest, establishment"
  },
  {
    "place_id": "ChIJe-VAWZe32YgRfSCYQk3JFe0",
    "name": "Copper 29 Bar",
    "street_address": "206 Miracle Mile",
    "city": "Coral Gables",
    "state": "FL",
    "zip_code": "33134",
    "latitude": 25.7491912,
    "longitude": -80.2590427,
    "website": "http://www.copper29bar.com/",
    "category": "Bar & Restaurant",
    "types": "bar, restaurant, food, point_of_interest, establishment"
  },
  {
    "place_id": "ChIJq4wvoe632YgRSGxds7WerJg",
    "name": "Yard House",
    "street_address": "320 San Lorenzo Avenue",
    "city": "Coral Gables",
    "state": "FL",
    "zip_code": "33146",
    "latitude": 25.73234,
    "longitude": -80.25983,
    "website": "https://www.yardhouse.com/locations/fl/coral-gables/coral-gables-merrick-park/8323?cmpid=br:yh_ag:ie_ch:loc_ca:YHGMB_sn:gmb_gt:coral-gables-fl-8323_pl:locurl_rd:1021",
    "category": "Bar & Restaurant",
    "types": "meal_takeaway, bar, restaurant, point_of_interest, food, establishment"
  },
  {
    "place_id": "ChIJh_TDGFC32YgRTUByJXtWQdU",
    "name": "Bay 13 Brewery and Kitchen",
    "street_address": "65 Alhambra Plaza",
    "city": "Coral Gables",
    "state": "FL",
    "zip_code": "33134",
    "latitude": 25.7526724,
    "longitude": -80.2560079,
    "website": "https://www.bay13brewery.com/",
    "category": "Bar & Restaurant",
    "types": "bar, restaurant, food, point_of_interest, establishment"
  },
  {
    "place_id": "ChIJ13MQGHq32YgRxs6cKQgKASI",
    "name": "OUI BAR MIAMI",
    "street_address": "3401 Northwest 25th Street",
    "city": "Miami",
    "state": "FL",
    "zip_code": "33142",
    "latitude": 25.7992782,
    "longitude": -80.2514176,
    "website": "https://www.radissonhotelsamericas.com/en-us/hotels/radisson-red-miami-airport?cid=a:se+b:gmb+c:amer+i:local+e:rdr+d:us+h:USAMAPF",
    "category": "Restaurant",
    "types": "restaurant, food, point_of_interest, establishment"
  },
  {
    "place_id": "ChIJ4baHNsu32YgRvc_m-TSnB64",
    "name": "Monty's Coconut Grove",
    "street_address": "2550 South Bayshore Drive",
    "city": "Miami",
    "state": "FL",
    "zip_code": "33133",
    "latitude": 25.73227,
    "longitude": -80.23248799999999,
    "website": "https://www.montysrawbar.com/",
    "category": "Bar & Restaurant",
    "types": "restaurant, bar, food, point_of_interest, establishment"
  },
  {
    "place_id": "ChIJw_8_X-XH2YgRrwqTNsMchgo",
    "name": "PUB 52 Bar & Kitchen - South Miami",
    "street_address": "5829 Southwest 73rd Street",
    "city": "South Miami",
    "state": "FL",
    "zip_code": "33143",
    "latitude": 25.7035442,
    "longitude": -80.28774220000001,
    "website": "https://www.pub52.com/",
    "category": "Bar & Restaurant",
    "types": "bar, restaurant, point_of_interest, food, establishment"
  },
  {
    "place_id": "ChIJDRMLTSW42YgR6ncsA54jdMo",
    "name": "Duffy's Tavern",
    "street_address": "2108 Southwest 57th Avenue",
    "city": "Miami",
    "state": "FL",
    "zip_code": "33155",
    "latitude": 25.7511845,
    "longitude": -80.2875767,
    "website": null,
    "category": "Bar & Restaurant",
    "types": "restaurant, bar, food, point_of_interest, establishment"
  },
  {
    "place_id": "ChIJPSNlW-XH2YgRrKOXwQSLZaw",
    "name": "Bougainvillea's Old Florida Tavern",
    "street_address": "7221 Southwest 58th Avenue",
    "city": "South Miami",
    "state": "FL",
    "zip_code": "33143",
    "latitude": 25.7038345,
    "longitude": -80.287161,
    "website": "https://www.bougiesbar.com/",
    "category": "Bar & Restaurant",
    "types": "night_club, bar, restaurant, food, point_of_interest, establishment"
  },
  {
    "place_id": "ChIJKRzFpqS32YgRQOoNSv06HPA",
    "name": "Hooters",
    "street_address": "3301 Southwest 22nd Street",
    "city": "Miami",
    "state": "FL",
    "zip_code": "33145",
    "latitude": 25.750417,
    "longitude": -80.2496863,
    "website": "https://www.hooters.com/locations/31726-coral-way?utm_medium=organic&utm_source=google&utm_campaign=gmb-wings-of-south-florida-franchise&utm_content=miami&utm_term=website-cta",
    "category": "Bar & Restaurant",
    "types": "meal_delivery, meal_takeaway, bar, restaurant, food, point_of_interest, establishment"
  },
  {
    "place_id": "ChIJ-0ezVZe32YgRNR3tv10FRJw",
    "name": "John Martin's Irish Pub & Restaurant",
    "street_address": "253 Miracle Mile",
    "city": "Coral Gables",
    "state": "FL",
    "zip_code": "33134",
    "latitude": 25.7497344,
    "longitude": -80.2598203,
    "website": "https://johnmartinsmiami.com/",
    "category": "Bar & Restaurant",
    "types": "bar, restaurant, food, point_of_interest, establishment"
  },
  {
    "place_id": "ChIJv4vocsW32YgRPxw8nJd0kM4",
    "name": "Bombay Darbar",
    "street_address": "2901 Florida Avenue",
    "city": "Miami",
    "state": "FL",
    "zip_code": "33133",
    "latitude": 25.7291536,
    "longitude": -80.2408311,
    "website": "https://www.bombaydarbar.com/",
    "category": "Restaurant",
    "types": "meal_delivery, meal_takeaway, restaurant, food, point_of_interest, establishment"
  },
  {
    "place_id": "ChIJp6chQZe32YgRJBwcJ8qFH0M",
    "name": "Bulla Gastrobar",
    "street_address": "2500 Ponce de Leon",
    "city": "Coral Gables",
    "state": "FL",
    "zip_code": "33134",
    "latitude": 25.7485084,
    "longitude": -80.25890869999999,
    "website": "https://bullagastrobar.com/locations/coral-gables/",
    "category": "Bar & Restaurant",
    "types": "bar, restaurant, food, point_of_interest, establishment"
  },
  {
    "place_id": "ChIJR5GQV_nH2YgR7o8X04M8dYA",
    "name": "Titanic Brewery & Restaurant",
    "street_address": "5813 Ponce de Leon",
    "city": "Coral Gables",
    "state": "FL",
    "zip_code": "33146",
    "latitude": 25.71061,
    "longitude": -80.2830312,
    "website": "https://titanicbrewery.com/",
    "category": "Bar & Restaurant",
    "types": "bar, restaurant, food, point_of_interest, establishment"
  },
  {
    "place_id": "ChIJf3zMwe_H2YgRb6KJu6gFBlI",
    "name": "Deli Lane Cafe & Sunset Tavern",
    "street_address": "7230 Southwest 59th Avenue",
    "city": "South Miami",
    "state": "FL",
    "zip_code": "33143",
    "latitude": 25.70380089999999,
    "longitude": -80.2894942,
    "website": "http://www.delilane.com/",
    "category": "Bar & Restaurant",
    "types": "bar, restaurant, food, point_of_interest, establishment"
  },
  {
    "place_id": "ChIJUTvasQy32YgRraY2C5JeCm4",
    "name": "Vinya Table",
    "street_address": "266 Miracle Mile",
    "city": "Coral Gables",
    "state": "FL",
    "zip_code": "33134",
    "latitude": 25.7491381,
    "longitude": -80.2601052,
    "website": "https://vinyawine.com/coral-gables",
    "category": "Bar & Restaurant",
    "types": "bar, restaurant, food, point_of_interest, establishment"
  },
  {
    "place_id": "ChIJYdgU0v-32YgRfrb1VL4rgMw",
    "name": "Moon Thai & Japanese",
    "street_address": "1118 South Dixie Highway",
    "city": "Coral Gables",
    "state": "FL",
    "zip_code": "33146",
    "latitude": 25.716465,
    "longitude": -80.273994,
    "website": "http://www.moonthai.com/",
    "category": "Restaurant",
    "types": "restaurant, food, point_of_interest, establishment"
  },
  {
    "place_id": "ChIJHbFf-Jm32YgRelU8TIeivEo",
    "name": "The Caf\u00e9 at Books & Books",
    "street_address": "265 Aragon Avenue",
    "city": "Coral Gables",
    "state": "FL",
    "zip_code": "33134",
    "latitude": 25.7505596,
    "longitude": -80.2598575,
    "website": "http://www.booksandbooks.com/",
    "category": "Bar & Restaurant",
    "types": "cafe, bar, store, restaurant, point_of_interest, food, establishment"
  },
  {
    "place_id": "ChIJmTwFN-XH2YgRJP8yVrEWSdc",
    "name": "Spris Artisan Pizza - South Miami",
    "street_address": "5748 Sunset Drive",
    "city": "South Miami",
    "state": "FL",
    "zip_code": "33143",
    "latitude": 25.704176,
    "longitude": -80.2862794,
    "website": "https://www.sprispizza.com/",
    "category": "Restaurant",
    "types": "restaurant, food, point_of_interest, establishment"
  },
  {
    "place_id": "ChIJaWJXyoi32YgReB2is9AFOks",
    "name": "CRAFT Coral Gables",
    "street_address": "127 Giralda Avenue",
    "city": "Coral Gables",
    "state": "FL",
    "zip_code": "33134",
    "latitude": 25.7515153,
    "longitude": -80.25741889999999,
    "website": "https://www.craftmiami.us/",
    "category": "Restaurant",
    "types": "cafe, store, restaurant, food, point_of_interest, establishment"
  },
  {
    "place_id": "ChIJN33xYgMG2YgRoqC2GvbjCqs",
    "name": "Carolina Ale House - Miami",
    "street_address": "6810 Southwest 40th Street",
    "city": "Miami",
    "state": "FL",
    "zip_code": "33155",
    "latitude": 25.7327522,
    "longitude": -80.3046079,
    "website": "https://www.carolinaalehouse.com/locations/miami-fl",
    "category": "Bar & Restaurant",
    "types": "bar, restaurant, food, point_of_interest, establishment"
  },
  {
    "place_id": "ChIJk4u3l1m32YgRH_rxjcAzkXo",
    "name": "Cebada Rooftop",
    "street_address": "124 Giralda Avenue",
    "city": "Coral Gables",
    "state": "FL",
    "zip_code": "33134",
    "latitude": 25.7512195,
    "longitude": -80.257361,
    "website": "http://cebadarooftop.com/",
    "category": "Bar & Restaurant",
    "types": "bar, restaurant, food, point_of_interest, establishment"
  },
  {
    "place_id": "ChIJ59FlWe7H2YgR-wZPZtHKb6Q",
    "name": "Fox's Lounge",
    "street_address": "6030 South Dixie Highway",
    "city": "Miami",
    "state": "FL",
    "zip_code": "33143",
    "latitude": 25.7024501,
    "longitude": -80.291533,
    "website": "https://www.foxslounge.com/",
    "category": "Bar & Restaurant",
    "types": "night_club, bar, restaurant, point_of_interest, food, establishment"
  },
  {
    "place_id": "ChIJLbfnxyG42YgRthBjT2m8DYU",
    "name": "Cascade Pool Cafe at The Biltmore Hotel Miami",
    "street_address": "1200 Anastasia Avenue",
    "city": "Coral Gables",
    "state": "FL",
    "zip_code": "33134",
    "latitude": 25.7405004,
    "longitude": -80.2788739,
    "website": "https://www.biltmorehotel.com/dining/cascade/?utm_source=google&utm_medium=organic&utm_campaign=gmb-listing",
    "category": "Bar & Restaurant",
    "types": "bar, restaurant, food, point_of_interest, establishment"
  },
  {
    "place_id": "ChIJNZCKquu32YgRkqgo-hCpxF8",
    "name": "Ventanas Restaurant Bar & Lounge",
    "street_address": "3861 Southwest 40th Street",
    "city": "Miami",
    "state": "FL",
    "zip_code": "33146",
    "latitude": 25.7351729,
    "longitude": -80.25756229999999,
    "website": null,
    "category": "Bar & Restaurant",
    "types": "bar, restaurant, food, point_of_interest, establishment"
  },
  {
    "place_id": "ChIJ35aelbW52YgRteXYkyNZFKk",
    "name": "The Cellar Club Bar",
    "street_address": "1200 Anastasia Avenue",
    "city": "Coral Gables",
    "state": "FL",
    "zip_code": "33134",
    "latitude": 25.7408186,
    "longitude": -80.2784533,
    "website": "https://biltmorehotel.com/coral-gables-dining/cellar-club/?utm_source=google&utm_medium=organic&utm_campaign=gmb-listing",
    "category": "Bar & Restaurant",
    "types": "bar, restaurant, food, point_of_interest, establishment"
  },
  {
    "place_id": "ChIJ__8Dp5C32YgRd4E6f-zoXM4",
    "name": "Doc B's Restaurant",
    "street_address": "301 Miracle Mile",
    "city": "Coral Gables",
    "state": "FL",
    "zip_code": "33134",
    "latitude": 25.7496233,
    "longitude": -80.26085669999999,
    "website": "https://docbsrestaurant.com/locations/coral-gables",
    "category": "Bar & Restaurant",
    "types": "bar, restaurant, food, point_of_interest, establishment"
  },
  {
    "place_id": "ChIJMTWn1OTH2YgRbqByR5GJQA8",
    "name": "Sports Grill South Miami",
    "street_address": "1559 Sunset Drive",
    "city": "Miami",
    "state": "FL",
    "zip_code": "33143",
    "latitude": 25.7046862,
    "longitude": -80.2845226,
    "website": "https://sportsgrill.com/",
    "category": "Bar & Restaurant",
    "types": "bar, restaurant, food, point_of_interest, establishment"
  },
  {
    "place_id": "ChIJF6BWOS632YgRFYmvBwI0dkA",
    "name": "Armstrong Jazz House",
    "street_address": "271 Miracle Mile",
    "city": "Coral Gables",
    "state": "FL",
    "zip_code": "33134",
    "latitude": 25.7496563,
    "longitude": -80.2601451,
    "website": "https://armstrongjazzhouse.com/",
    "category": "Bar & Restaurant",
    "types": "restaurant, night_club, bar, food, point_of_interest, establishment"
  },
  {
    "place_id": "ChIJdbPOoZC32YgRJcjuK4J0I_A",
    "name": "Seasons 52",
    "street_address": "321 Miracle Mile",
    "city": "Coral Gables",
    "state": "FL",
    "zip_code": "33134",
    "latitude": 25.74963,
    "longitude": -80.2614,
    "website": "https://www.seasons52.com/locations/fl/coral-gables/coral-gables/4509?cmpid=br:s52_ag:ie_ch:loc_ca:S52GMB_sn:gmb_gt:coral-gables-fl-4509_pl:locurl_rd:1008",
    "category": "Bar & Restaurant",
    "types": "bar, meal_takeaway, restaurant, food, point_of_interest, establishment"
  },
  {
    "place_id": "ChIJNShNZwC32YgRRyeeMR3ufGY",
    "name": "Threefold",
    "street_address": "3060 Southwest 37th Avenue",
    "city": "Miami",
    "state": "FL",
    "zip_code": "33146",
    "latitude": 25.7338248,
    "longitude": -80.2554014,
    "website": null,
    "category": "Restaurant",
    "types": "restaurant, food, point_of_interest, establishment"
  },
  {
    "place_id": "ChIJ3yE1FzLL2YgRQJyao2hyF-E",
    "name": "Milanezza Kitchen Bar & Market - Key Biscayne",
    "street_address": "700 Crandon Boulevard",
    "city": "Key Biscayne",
    "state": "FL",
    "zip_code": "33149",
    "latitude": 25.6880827,
    "longitude": -80.1646403,
    "website": "http://milanezza.com/",
    "category": "Bar & Restaurant",
    "types": "meal_delivery, bar, liquor_store, store, restaurant, food, point_of_interest, establishment"
  },
  {
    "place_id": "ChIJISlLiM6t2YgReRzbdabC0W0",
    "name": "La Birra Bar (Burgers) - North Miami Beach",
    "street_address": "14831 Biscayne Boulevard",
    "city": "North Miami Beach",
    "state": "FL",
    "zip_code": "33181",
    "latitude": 25.9127553,
    "longitude": -80.1557004,
    "website": "https://www.labirrabarusa.com/",
    "category": "Bar & Restaurant",
    "types": "bar, restaurant, food, point_of_interest, establishment"
  },
  {
    "place_id": "ChIJGSqly4es2YgREHOmuQ9FutI",
    "name": "Yard House",
    "street_address": "601 Silks Run",
    "city": "Hallandale Beach",
    "state": "FL",
    "zip_code": "33009",
    "latitude": 25.97833,
    "longitude": -80.13989,
    "website": "https://www.yardhouse.com/locations/fl/hallandale-beach/hallandale-beach-gulfstream-park/8328?cmpid=br:yh_ag:ie_ch:loc_ca:YHGMB_sn:gmb_gt:hallandale-beach-fl-8328_pl:locurl_rd:1026",
    "category": "Bar & Restaurant",
    "types": "meal_takeaway, bar, restaurant, food, point_of_interest, establishment"
  },
  {
    "place_id": "ChIJR19hxhqt2YgRwX-lgH27Jh4",
    "name": "Duffy's Sports Grill",
    "street_address": "3969 Northeast 163rd Street",
    "city": "North Miami Beach",
    "state": "FL",
    "zip_code": "33160",
    "latitude": 25.9307602,
    "longitude": -80.13125649999999,
    "website": "https://www.duffysmvp.com/",
    "category": "Restaurant",
    "types": "restaurant, food, point_of_interest, establishment"
  },
  {
    "place_id": "ChIJV7BNnXGt2YgRnKL7ic1dli4",
    "name": "Reunion Ktchn Bar",
    "street_address": "18167 Biscayne Boulevard",
    "city": "Aventura",
    "state": "FL",
    "zip_code": "33160",
    "latitude": 25.9432231,
    "longitude": -80.1470508,
    "website": "https://www.reunionkb.com/",
    "category": "Bar & Restaurant",
    "types": "restaurant, bar, food, point_of_interest, establishment"
  },
  {
    "place_id": "ChIJaS5MupWt2YgRyrUaippVWaE",
    "name": "Styx Sports Bar And Grill",
    "street_address": "15336 West Dixie Highway",
    "city": "North Miami Beach",
    "state": "FL",
    "zip_code": "33162",
    "latitude": 25.9170013,
    "longitude": -80.1615085,
    "website": "http://styxsportsbarandgrill.com/",
    "category": "Bar & Restaurant",
    "types": "restaurant, bar, food, point_of_interest, establishment"
  },
  {
    "place_id": "ChIJ37xBu4Gs2YgRj_hh1E0tEe4",
    "name": "Upper Deck Ale and Sports Grille",
    "street_address": "906 East Hallandale Beach Boulevard",
    "city": "Hallandale Beach",
    "state": "FL",
    "zip_code": "33009",
    "latitude": 25.9852369,
    "longitude": -80.1390868,
    "website": "https://upperdeckhallandalebeach.com/",
    "category": "Bar & Restaurant",
    "types": "bar, restaurant, food, point_of_interest, establishment"
  },
  {
    "place_id": "ChIJlVEw8bmt2YgROjI2q32F598",
    "name": "Tap Beer Miami",
    "street_address": "17850 West Dixie Highway",
    "city": "North Miami Beach",
    "state": "FL",
    "zip_code": "33160",
    "latitude": 25.9402257,
    "longitude": -80.1505234,
    "website": "https://www.ubereats.com/store/tap-beer-miami/2pBQvf2rVZGqpyuZyhw--g",
    "category": "Bar & Restaurant",
    "types": "bar, restaurant, food, point_of_interest, establishment"
  },
  {
    "place_id": "ChIJS_4a10qs2YgR-54PQxYzNvk",
    "name": "Original Sin Tavern",
    "street_address": "18145 Northeast 19th Avenue",
    "city": "North Miami Beach",
    "state": "FL",
    "zip_code": "33162",
    "latitude": 25.9428901,
    "longitude": -80.16245239999999,
    "website": "http://originalsintavern.com/",
    "category": "Bar & Restaurant",
    "types": "bar, restaurant, food, point_of_interest, establishment"
  },
  {
    "place_id": "ChIJI_kbagWt2YgRLb7Ha2Pl45Q",
    "name": "The Tuck Room",
    "street_address": "3701 Northeast 163rd Street",
    "city": "North Miami Beach",
    "state": "FL",
    "zip_code": "33160",
    "latitude": 25.9315557,
    "longitude": -80.135183,
    "website": "https://www.thetuckroom.com/?utm_source=google&utm_medium=local_listings&utm_campaign=yext",
    "category": "Bar & Restaurant",
    "types": "bar, restaurant, food, point_of_interest, establishment"
  },
  {
    "place_id": "ChIJRQHxxKyt2YgRGjBIgdGRAQU",
    "name": "Neverland Coffee Bar",
    "street_address": "17830 West Dixie Highway",
    "city": "North Miami Beach",
    "state": "FL",
    "zip_code": "33160",
    "latitude": 25.940513,
    "longitude": -80.150391,
    "website": "https://neverlandcoffeebar.com/",
    "category": "Bar & Restaurant",
    "types": "cafe, bar, restaurant, food, point_of_interest, establishment"
  },
  {
    "place_id": "ChIJvXkf7eCs2YgR2UoaG5KG0Zg",
    "name": "Kalinka Euro Deli",
    "street_address": "18090 Collins Avenue",
    "city": "Sunny Isles Beach",
    "state": "FL",
    "zip_code": "33160",
    "latitude": 25.943457,
    "longitude": -80.122449,
    "website": "https://kalinkaeurodeli.miami/",
    "category": "Restaurant",
    "types": "cafe, meal_delivery, grocery_or_supermarket, restaurant, food, store, point_of_interest, establishment"
  },
  {
    "place_id": "ChIJAe2PTQit2YgRvc7XuQKG5wM",
    "name": "Hiro Japanese Restaurant",
    "street_address": "3007 Northeast 163rd Street",
    "city": "Miami",
    "state": "FL",
    "zip_code": "33160",
    "latitude": 25.9270463,
    "longitude": -80.1404596,
    "website": "http://www.hiro163.com/",
    "category": "Bar & Restaurant",
    "types": "bar, restaurant, food, point_of_interest, establishment"
  },
  {
    "place_id": "ChIJsQJz4B-t2YgRHO5JieuOC5Q",
    "name": "Megachuzo",
    "street_address": "17632 Collins Avenue",
    "city": "Sunny Isles Beach",
    "state": "FL",
    "zip_code": "33160",
    "latitude": 25.9395841,
    "longitude": -80.1218215,
    "website": "https://www.megachuzo.com/",
    "category": "Bar & Restaurant",
    "types": "liquor_store, bar, restaurant, food, point_of_interest, store, establishment"
  },
  {
    "place_id": "ChIJd232HeCs2YgRzf9-R0LDE6k",
    "name": "Treesome Natural Food Cafe",
    "street_address": "17608 Collins Avenue",
    "city": "Sunny Isles Beach",
    "state": "FL",
    "zip_code": "33160",
    "latitude": 25.93931300000001,
    "longitude": -80.121968,
    "website": "https://www.treesomenaturalfood.com/",
    "category": "Restaurant",
    "types": "restaurant, food, point_of_interest, establishment"
  },
  {
    "place_id": "ChIJ9yRSq5et2YgRkuozdaasY68",
    "name": "Tatore",
    "street_address": "14730 Biscayne Boulevard",
    "city": "North Miami Beach",
    "state": "FL",
    "zip_code": "33181",
    "latitude": 25.9116026,
    "longitude": -80.1578423,
    "website": "http://tatoremiami.com/",
    "category": "Restaurant",
    "types": "restaurant, meal_delivery, meal_takeaway, food, point_of_interest, establishment"
  },
  {
    "place_id": "ChIJo3hy1q-t2YgRfNUPaZCjcyY",
    "name": "Pho Mi 2Go",
    "street_address": "17010 West Dixie Highway",
    "city": "North Miami Beach",
    "state": "FL",
    "zip_code": "33160",
    "latitude": 25.9326345,
    "longitude": -80.1537967,
    "website": "https://m.facebook.com/pages/Pho-Mi-2Go/267449023597165",
    "category": "Restaurant",
    "types": "restaurant, food, point_of_interest, establishment"
  },
  {
    "place_id": "ChIJZ3mMypet2YgR83DGre5e8AE",
    "name": "Cheen Huaye - Southern Mexican Cuisine",
    "street_address": "15400 Biscayne Boulevard",
    "city": "North Miami Beach",
    "state": "FL",
    "zip_code": "33160",
    "latitude": 25.9169853,
    "longitude": -80.1567465,
    "website": "https://cheen-huaye.com/",
    "category": "Bar & Restaurant",
    "types": "bar, restaurant, food, point_of_interest, establishment"
  },
  {
    "place_id": "ChIJjfEhCPas2YgRN1EHKOyeFU8",
    "name": "Tap 42 Craft Kitchen & Bar",
    "street_address": "19565 Biscayne Boulevard",
    "city": "Aventura",
    "state": "FL",
    "zip_code": "33180",
    "latitude": 25.958536,
    "longitude": -80.14214779999999,
    "website": "https://tap42.com/aventura/",
    "category": "Bar & Restaurant",
    "types": "bar, restaurant, food, point_of_interest, establishment"
  },
  {
    "place_id": "ChIJp2YRqlut2YgRv3eRJ-RzEng",
    "name": "PANI Bistro",
    "street_address": "19501 Biscayne Boulevard",
    "city": "Aventura",
    "state": "FL",
    "zip_code": "33180",
    "latitude": 25.9584516,
    "longitude": -80.142264,
    "website": "https://welovepani.com/",
    "category": "Restaurant",
    "types": "restaurant, food, point_of_interest, establishment"
  },
  {
    "place_id": "ChIJ1WWVoICs2YgR9vmO2slTZrM",
    "name": "Flashback Diner",
    "street_address": "220 South Federal Highway",
    "city": "Hallandale Beach",
    "state": "FL",
    "zip_code": "33009",
    "latitude": 25.982507,
    "longitude": -80.1424704,
    "website": "http://www.flashbackdiner.com/",
    "category": "Restaurant",
    "types": "cafe, restaurant, food, point_of_interest, establishment"
  },
  {
    "place_id": "ChIJ9WIloQSt2YgRjn7shAAzg4w",
    "name": "Porterhouse Music bar & Restaurant",
    "street_address": "17008 Collins Avenue",
    "city": "Sunny Isles Beach",
    "state": "FL",
    "zip_code": "33160",
    "latitude": 25.9333286,
    "longitude": -80.12203149999999,
    "website": "http://porterhousemia.com/",
    "category": "Bar & Restaurant",
    "types": "restaurant, night_club, bar, food, point_of_interest, establishment"
  },
  {
    "place_id": "ChIJxXrcxvKt2YgRJcUQAIa1GwA",
    "name": "Plunge Bar & Grill",
    "street_address": "19201 Collins Avenue",
    "city": "Sunny Isles Beach",
    "state": "FL",
    "zip_code": "33160",
    "latitude": 25.954474,
    "longitude": -80.11974029999999,
    "website": "http://marcopolobeachresort.com/plunge-bar-grill/",
    "category": "Bar & Restaurant",
    "types": "bar, restaurant, food, point_of_interest, establishment"
  },
  {
    "place_id": "ChIJH08-dh-t2YgRXOPW2jyoQqY",
    "name": "BALEENkitchen",
    "street_address": "17315 Collins Avenue",
    "city": "Sunny Isles Beach",
    "state": "FL",
    "zip_code": "33160",
    "latitude": 25.9365256,
    "longitude": -80.12082219999999,
    "website": "https://www.solemiami.com/baleen-kitchen/?utm_source=gmb-restaurant&utm_medium=organic&utm_campaign=gmb",
    "category": "Bar & Restaurant",
    "types": "restaurant, night_club, bar, food, point_of_interest, establishment"
  },
  {
    "place_id": "ChIJ27l1bYCs2YgR4wFqXIbjfEc",
    "name": "Flanigan's Seafood Bar and Grill",
    "street_address": "4 North Federal Highway",
    "city": "Hallandale Beach",
    "state": "FL",
    "zip_code": "33009",
    "latitude": 25.986129,
    "longitude": -80.14211689999999,
    "website": "http://flanigans.net/",
    "category": "Bar & Restaurant",
    "types": "bar, restaurant, food, point_of_interest, establishment"
  },
  {
    "place_id": "ChIJF1sCgAat2YgRZ1EfQ9K8WVs",
    "name": "The Squeeze Juice Bar & Restaurant",
    "street_address": "16171 Biscayne Boulevard",
    "city": "North Miami Beach",
    "state": "FL",
    "zip_code": "33160",
    "latitude": 25.9246476,
    "longitude": -80.1534939,
    "website": "http://squeeze305.com/",
    "category": "Restaurant",
    "types": "restaurant, food, point_of_interest, establishment"
  },
  {
    "place_id": "ChIJNRN0rles2YgRBNnnLhyp06Y",
    "name": "Novecento",
    "street_address": "18831 Biscayne Boulevard",
    "city": "Aventura",
    "state": "FL",
    "zip_code": "33180",
    "latitude": 25.9502013,
    "longitude": -80.14488270000001,
    "website": "http://www.novecento.com/",
    "category": "Restaurant",
    "types": "restaurant, food, point_of_interest, establishment"
  },
  {
    "place_id": "ChIJvS0F26mt2YgR43l9B-uKc4o",
    "name": "Ocean View on Nine",
    "street_address": "17700 Collins Avenue",
    "city": "Sunny Isles Beach",
    "state": "FL",
    "zip_code": "33160",
    "latitude": 25.9397819,
    "longitude": -80.1221396,
    "website": "https://www.marriott.com/en-us/hotels/mianm-residence-inn-miami-sunny-isles-beach/dining/?scid=feed67b0-9a2f-4de1-8df6-114544116108",
    "category": "Restaurant",
    "types": "restaurant, food, point_of_interest, establishment"
  },
  {
    "place_id": "ChIJFVzHyBqt2YgRLBVjGWzqesg",
    "name": "Lique Miami Waterfront Restaurant",
    "street_address": "3957 Northeast 163rd Street",
    "city": "North Miami Beach",
    "state": "FL",
    "zip_code": "33160",
    "latitude": 25.9311157,
    "longitude": -80.1313709,
    "website": "https://liquemiami.com/?utm_source=google&utm_medium=wix_google_business_profile&utm_campaign=11824573648778969909",
    "category": "Restaurant",
    "types": "restaurant, food, point_of_interest, establishment"
  },
  {
    "place_id": "ChIJH5B-dVSs2YgRkmU7nVJnGyY",
    "name": "Miami Squeeze",
    "street_address": "18315 West Dixie Highway",
    "city": "North Miami Beach",
    "state": "FL",
    "zip_code": "33160",
    "latitude": 25.9454853,
    "longitude": -80.1483777,
    "website": "https://www.miamisqueeze.com/",
    "category": "Restaurant",
    "types": "meal_takeaway, meal_delivery, store, health, restaurant, food, point_of_interest, establishment"
  },
  {
    "place_id": "ChIJF6ofbqyt2YgRkXgsQY8KTa8",
    "name": "P.F. Chang's",
    "street_address": "17455 Biscayne Boulevard",
    "city": "North Miami Beach",
    "state": "FL",
    "zip_code": "33160",
    "latitude": 25.9374752,
    "longitude": -80.14914619999999,
    "website": "https://www.pfchangs.com/locations/us/fl/north-miami-beach/17455-biscayne-blvd/2000-n-miami.html?utm_source=google_gbp&utm_medium=organic",
    "category": "Restaurant",
    "types": "meal_delivery, meal_takeaway, restaurant, food, point_of_interest, establishment"
  },
  {
    "place_id": "ChIJDXEc4h-t2YgRWs27yYxtyrY",
    "name": "Timo Restaurant",
    "street_address": "17624 Collins Avenue",
    "city": "Sunny Isles Beach",
    "state": "FL",
    "zip_code": "33160",
    "latitude": 25.9394713,
    "longitude": -80.1219433,
    "website": "http://www.timorestaurant.com/",
    "category": "Restaurant",
    "types": "restaurant, food, point_of_interest, establishment"
  },
  {
    "place_id": "ChIJBY4HjGCs2YgRtWtQqo3aC_4",
    "name": "Sicilian Oven",
    "street_address": "20475 Biscayne Boulevard",
    "city": "Aventura",
    "state": "FL",
    "zip_code": "33180",
    "latitude": 25.9652167,
    "longitude": -80.14370559999999,
    "website": "http://www.sicilianoven.com/",
    "category": "Restaurant",
    "types": "restaurant, food, point_of_interest, establishment"
  },
  {
    "place_id": "ChIJ9Z8j_92y2YgRxG7_1TtvI0M",
    "name": "Norman's Tavern",
    "street_address": "6770 Collins Avenue",
    "city": "Miami Beach",
    "state": "FL",
    "zip_code": "33141",
    "latitude": 25.8518251,
    "longitude": -80.12064699999999,
    "website": "http://www.normans.biz/",
    "category": "Bar & Restaurant",
    "types": "restaurant, meal_delivery, bar, meal_takeaway, food, point_of_interest, establishment"
  },
  {
    "place_id": "ChIJ-eqNpqSz2YgRE8-8zHQdHGk",
    "name": "Sand Bar + Kitchen",
    "street_address": "6752 Collins Avenue",
    "city": "Miami Beach",
    "state": "FL",
    "zip_code": "33141",
    "latitude": 25.8516401,
    "longitude": -80.12059099999999,
    "website": null,
    "category": "Bar & Restaurant",
    "types": "restaurant, bar, food, point_of_interest, establishment"
  },
  {
    "place_id": "ChIJAwzZdJaz2YgRw88G9PYfnzQ",
    "name": "Silverlake Bistro",
    "street_address": "1211 71st Street",
    "city": "Miami Beach",
    "state": "FL",
    "zip_code": "33141",
    "latitude": 25.85466569999999,
    "longitude": -80.1317171,
    "website": "http://instagram.com/silverlakebistromiami",
    "category": "Bar & Restaurant",
    "types": "bar, restaurant, food, point_of_interest, establishment"
  },
  {
    "place_id": "ChIJU0fVOYqt2YgRQAYYvFqmjeY",
    "name": "Flanigan's Seafood Bar and Grill",
    "street_address": "13205 Biscayne Boulevard",
    "city": "North Miami",
    "state": "FL",
    "zip_code": "33181",
    "latitude": 25.8975827,
    "longitude": -80.1608783,
    "website": "http://www.flanigans.net/",
    "category": "Bar & Restaurant",
    "types": "bar, restaurant, food, point_of_interest, establishment"
  },
  {
    "place_id": "ChIJg9CCGJmy2YgRuN0kivnlhbU",
    "name": "Flanigan's Seafood Bar and Grill",
    "street_address": "9516 Harding Avenue",
    "city": "Surfside",
    "state": "FL",
    "zip_code": "33154",
    "latitude": 25.8855704,
    "longitude": -80.1237436,
    "website": "http://www.flanigans.net/",
    "category": "Bar & Restaurant",
    "types": "bar, restaurant, food, point_of_interest, establishment"
  },
  {
    "place_id": "ChIJfbGFlZ6y2YgR_YYwZXQtr_g",
    "name": "Makoto",
    "street_address": "9700 Collins Avenue",
    "city": "Miami Beach",
    "state": "FL",
    "zip_code": "33154",
    "latitude": 25.888378,
    "longitude": -80.12523689999999,
    "website": "https://makoto-restaurant.com/?utm_source=GoogleBusinessProfile&utm_medium=Website&utm_campaign=MapLabs",
    "category": "Restaurant",
    "types": "restaurant, meal_takeaway, food, point_of_interest, establishment"
  },
  {
    "place_id": "ChIJAQAAAJmy2YgRj0A2W_NgSf8",
    "name": "The Palm - Miami",
    "street_address": "9650 East Bay Harbor Drive",
    "city": "Miami",
    "state": "FL",
    "zip_code": "33154",
    "latitude": 25.8874548,
    "longitude": -80.1297359,
    "website": "https://www.thepalm.com/restaurants/miami/",
    "category": "Restaurant",
    "types": "restaurant, food, point_of_interest, establishment"
  },
  {
    "place_id": "ChIJSdJjH-Wy2YgRUDTeZcMZAYo",
    "name": "7tyone Restaurant & Coffee Bar",
    "street_address": "1130 Normandy Drive",
    "city": "Miami Beach",
    "state": "FL",
    "zip_code": "33141",
    "latitude": 25.8554842,
    "longitude": -80.1303405,
    "website": "https://www.7tyonerestaurantandcoffeebar.getsauce.com/",
    "category": "Restaurant",
    "types": "cafe, store, restaurant, food, point_of_interest, establishment"
  },
  {
    "place_id": "ChIJy1Pr35at2YgRfKarlvIjS-c",
    "name": "TGI Fridays",
    "street_address": "14891 Biscayne Boulevard",
    "city": "North Miami Beach",
    "state": "FL",
    "zip_code": "33181",
    "latitude": 25.9130853,
    "longitude": -80.1556896,
    "website": "https://locations.tgifridays.com/fl/north-miami-beach/14891-biscayne-blvd.html",
    "category": "Bar & Restaurant",
    "types": "restaurant, bar, food, point_of_interest, establishment"
  },
  {
    "place_id": "ChIJDYJwyG6z2YgRgo5MmVaL494",
    "name": "no reservations wine bar",
    "street_address": "10990 Biscayne Boulevard",
    "city": "Miami",
    "state": "FL",
    "zip_code": "33161",
    "latitude": 25.8764081,
    "longitude": -80.1693325,
    "website": "http://www.noreservationsmiami.com/",
    "category": "Bar & Restaurant",
    "types": "bar, restaurant, food, point_of_interest, establishment"
  },
  {
    "place_id": "ChIJz94YghSy2YgRTQIhZyeARLk",
    "name": "Los Antojos Restaurant",
    "street_address": "11099 Biscayne Boulevard",
    "city": "Miami",
    "state": "FL",
    "zip_code": "33161",
    "latitude": 25.878241,
    "longitude": -80.1676706,
    "website": "https://www.losantojos.co/",
    "category": "Restaurant",
    "types": "restaurant, food, point_of_interest, establishment"
  },
  {
    "place_id": "ChIJuxa16Iut2YgRUnGerFfv_4o",
    "name": "Sushi Sake North Miami Beach",
    "street_address": "13551 Biscayne Boulevard",
    "city": "North Miami",
    "state": "FL",
    "zip_code": "33181",
    "latitude": 25.9007549,
    "longitude": -80.15960470000002,
    "website": "http://sushisakemiami.com/?utm_source=local&utm_medium=organic&utm_campaign=gmb&utm_content=nmb",
    "category": "Bar & Restaurant",
    "types": "bar, restaurant, food, point_of_interest, establishment"
  },
  {
    "place_id": "ChIJ92EEyVSy2YgRaS5KleEwQaU",
    "name": "Happy's Stork Lounge and Liquor Store",
    "street_address": "1624 79th Street Causeway",
    "city": "North Bay Village",
    "state": "FL",
    "zip_code": "33141",
    "latitude": 25.8481016,
    "longitude": -80.1518049,
    "website": "https://www.happysmiami.com/",
    "category": "Bar & Restaurant",
    "types": "liquor_store, bar, store, restaurant, food, point_of_interest, establishment"
  },
  {
    "place_id": "ChIJWcPG9uey2YgRr0EDpcp3lTw",
    "name": "Locura Marina Peruvian Restaurant",
    "street_address": "7118 Collins Avenue",
    "city": "Miami Beach",
    "state": "FL",
    "zip_code": "33141",
    "latitude": 25.8565398,
    "longitude": -80.12081320000001,
    "website": "https://www.locuramarinarestaurant.com/",
    "category": "Restaurant",
    "types": "restaurant, food, point_of_interest, establishment"
  },
  {
    "place_id": "ChIJJeLI1Wat2YgR73ON9XmX8EM",
    "name": "Artisan Beach House",
    "street_address": "10295 Collins Avenue",
    "city": "Bal Harbour",
    "state": "FL",
    "zip_code": "33154",
    "latitude": 25.8989516,
    "longitude": -80.1234047,
    "website": "https://www.ritzcarlton.com/en/hotels/miazl-the-ritz-carlton-bal-harbour-miami/dining/",
    "category": "Restaurant",
    "types": "restaurant, food, point_of_interest, establishment"
  },
  {
    "place_id": "ChIJhzuxE6yt2YgRPdaUjNsY22k",
    "name": "Morton's The Steakhouse",
    "street_address": "17399 Biscayne Boulevard",
    "city": "Miami",
    "state": "FL",
    "zip_code": "33160",
    "latitude": 25.9367875,
    "longitude": -80.1489765,
    "website": "https://www.mortons.com/location/mortons-the-steakhouse-north-miami-beach-fl/",
    "category": "Restaurant",
    "types": "restaurant, food, point_of_interest, establishment"
  },
  {
    "place_id": "ChIJF-5GnB-t2YgRp5fpoZQujQE",
    "name": "Vue Bistro + Terrace Bar",
    "street_address": "17375 Collins Avenue",
    "city": "Sunny Isles Beach",
    "state": "FL",
    "zip_code": "33160",
    "latitude": 25.9369658,
    "longitude": -80.1206339,
    "website": "https://www.oceanpointresort.com/",
    "category": "Bar & Restaurant",
    "types": "bar, restaurant, food, point_of_interest, establishment"
  },
  {
    "place_id": "ChIJq52Om7et2YgRtM_cxeRhko0",
    "name": "Sea Salt Beach Bar and Restaurant",
    "street_address": "15901 Collins Avenue",
    "city": "Sunny Isles Beach",
    "state": "FL",
    "zip_code": "33160",
    "latitude": 25.923598,
    "longitude": -80.1217886,
    "website": null,
    "category": "Bar & Restaurant",
    "types": "bar, restaurant, food, point_of_interest, establishment"
  },
  {
    "place_id": "ChIJ5xCMzwOy2YgRoaabPQ5SMPE",
    "name": "Billy's Pub Too",
    "street_address": "732 Northeast 125th Street",
    "city": "North Miami",
    "state": "FL",
    "zip_code": "33161",
    "latitude": 25.8901482,
    "longitude": -80.1840632,
    "website": "http://www.billyspubtoomiami.com/",
    "category": "Bar & Restaurant",
    "types": "bar, restaurant, food, point_of_interest, establishment"
  },
  {
    "place_id": "ChIJ8TnBtnau2YgRlRymfBYOOg0",
    "name": "NE",
    "street_address": "372 Northeast 167th Street",
    "city": "Miami",
    "state": "FL",
    "zip_code": "33162",
    "latitude": 25.9279767,
    "longitude": -80.1926349,
    "website": null,
    "category": "Bar & Restaurant",
    "types": "bar, restaurant, food, point_of_interest, establishment"
  },
  {
    "place_id": "ChIJI7QULGKu2YgR7fpYbGGIy1E",
    "name": "Tootsie's Cabaret Miami",
    "street_address": "150 Northwest 183rd Street",
    "city": "Miami",
    "state": "FL",
    "zip_code": "33169",
    "latitude": 25.9414643,
    "longitude": -80.20343059999999,
    "website": "https://www.tootsiescabaret.com/?utm_source=googlemybusiness&utm_medium=Organic&utm_campaign=Google%20My%20Business%20Tootsies",
    "category": "Bar & Restaurant",
    "types": "bar, restaurant, food, point_of_interest, establishment"
  },
  {
    "place_id": "ChIJ42Q2G2iu2YgRwQ08XPZkvgc",
    "name": "Topgolf Miami Gardens",
    "street_address": "17321 Northwest 7th Avenue",
    "city": "Miami Gardens",
    "state": "FL",
    "zip_code": "33169",
    "latitude": 25.9331094,
    "longitude": -80.2092404,
    "website": "https://topgolf.com/us/miami-gardens/",
    "category": "Bar & Restaurant",
    "types": "restaurant, bar, health, food, point_of_interest, establishment"
  },
  {
    "place_id": "ChIJQz66j-es2YgRzPcidAUxVyY",
    "name": "Il Ponte Vecchio Pizzeria",
    "street_address": "18660 Collins Avenue",
    "city": "Sunny Isles Beach",
    "state": "FL",
    "zip_code": "33160",
    "latitude": 25.9489938,
    "longitude": -80.1211986,
    "website": "https://www.ilpontevecchiopizzeria.com/",
    "category": "Restaurant",
    "types": "restaurant, food, point_of_interest, establishment"
  },
  {
    "place_id": "ChIJi3iJenu02YgRZ_CX33n3ev4",
    "name": "Lido Bayside",
    "street_address": "40 Island Avenue",
    "city": "Miami Beach",
    "state": "FL",
    "zip_code": "33139",
    "latitude": 25.7927696,
    "longitude": -80.14934,
    "website": "https://www.lidobayside.com/?utm_source=google&utm_campaign=google_my_business&utm_medium=organic",
    "category": "Bar & Restaurant",
    "types": "restaurant, bar, food, point_of_interest, establishment"
  },
  {
    "place_id": "ChIJRYfaVIOx2YgRP48BlDOSnTk",
    "name": "Sins Gastrobar",
    "street_address": "9835 Northeast 2nd Avenue",
    "city": "Miami Shores",
    "state": "FL",
    "zip_code": "33138",
    "latitude": 25.8655786,
    "longitude": -80.1933536,
    "website": "https://sinsgastrobar.com/?utm_source=google",
    "category": "Bar & Restaurant",
    "types": "restaurant, bar, food, point_of_interest, establishment"
  },
  {
    "place_id": "ChIJQZJ2i9O52YgR4PNchMF1SUw",
    "name": "Copper Blues Rock Pub & Kitchen",
    "street_address": "3450 Northwest 83rd Avenue",
    "city": "Doral",
    "state": "FL",
    "zip_code": "33122",
    "latitude": 25.8070207,
    "longitude": -80.33104,
    "website": "http://www.copperblueslive.com/miami?utm_source=gmb&utm_medium=yext",
    "category": "Restaurant",
    "types": "restaurant, food, point_of_interest, establishment"
  },
  {
    "place_id": "ChIJd5twfbK-2YgR_lroG00TgKg",
    "name": "WXYZ Bar & Lounge",
    "street_address": "3265 Northwest 107th Avenue",
    "city": "Doral",
    "state": "FL",
    "zip_code": "33172",
    "latitude": 25.80327089999999,
    "longitude": -80.3687909,
    "website": null,
    "category": "Bar & Restaurant",
    "types": "bar, night_club, restaurant, food, point_of_interest, establishment"
  },
  {
    "place_id": "ChIJAAAAAAAAAAARGOkVuKWpCDM",
    "name": "Miller's Ale House",
    "street_address": "3271 Northwest 87th Avenue",
    "city": "Doral",
    "state": "FL",
    "zip_code": "33172",
    "latitude": 25.8040246,
    "longitude": -80.33669429999999,
    "website": "https://millersalehouse.com/locations/miami-doral/?utm_source=gmb&utm_medium=organic",
    "category": "Bar & Restaurant",
    "types": "restaurant, bar, meal_takeaway, food, point_of_interest, establishment"
  },
  {
    "place_id": "ChIJs7AuR4a52YgRT1m7ya5OUy8",
    "name": "Tap 42 Craft Kitchen & Bar - Doral",
    "street_address": "3535 Northwest 83rd Avenue",
    "city": "Doral",
    "state": "FL",
    "zip_code": "33122",
    "latitude": 25.8091228,
    "longitude": -80.3310614,
    "website": "https://tap42.com/doral/",
    "category": "Bar & Restaurant",
    "types": "restaurant, bar, food, point_of_interest, establishment"
  },
  {
    "place_id": "ChIJAAAAAAAAAAARiVMsAFSW-Yw",
    "name": "Rumors",
    "street_address": "3905 Northwest 107th Avenue",
    "city": "Doral",
    "state": "FL",
    "zip_code": "33178",
    "latitude": 25.8108465,
    "longitude": -80.36811569999999,
    "website": "https://rumorsmiami.com/",
    "category": "Bar & Restaurant",
    "types": "restaurant, night_club, bar, food, point_of_interest, establishment"
  },
  {
    "place_id": "ChIJGWWgmfy72YgR8ijfivQnSZU",
    "name": "Sports Grill Doral",
    "street_address": "5241 Northwest 87th Avenue",
    "city": "Doral",
    "state": "FL",
    "zip_code": "33178",
    "latitude": 25.8192121,
    "longitude": -80.3371619,
    "website": "http://sportsgrill.com/",
    "category": "Restaurant",
    "types": "restaurant, food, point_of_interest, establishment"
  },
  {
    "place_id": "ChIJc1J1OdK52YgRnY2YJOr2C1w",
    "name": "Twin Peaks",
    "street_address": "8700 Northwest 18th Terrace",
    "city": "Doral",
    "state": "FL",
    "zip_code": "33172",
    "latitude": 25.7907822,
    "longitude": -80.3374556,
    "website": "https://twinpeaksrestaurant.com/locations/doral",
    "category": "Bar & Restaurant",
    "types": "bar, restaurant, point_of_interest, food, establishment"
  },
  {
    "place_id": "ChIJAAAAAAAAAAARtdgptOxm5iI",
    "name": "Bryson's Irish Pub",
    "street_address": "3790 Curtiss Parkway",
    "city": "Virginia Gardens",
    "state": "FL",
    "zip_code": "33166",
    "latitude": 25.8088543,
    "longitude": -80.28940899999999,
    "website": "https://www.brysonspub.com/",
    "category": "Bar & Restaurant",
    "types": "liquor_store, bar, store, restaurant, food, point_of_interest, establishment"
  },
  {
    "place_id": "ChIJAAAAAAAAAAARIyV9StJw4Kg",
    "name": "Champions Bar & Grill",
    "street_address": "4400 Northwest 87th Avenue",
    "city": "Doral",
    "state": "FL",
    "zip_code": "33178",
    "latitude": 25.8141186,
    "longitude": -80.3397667,
    "website": "https://www.trumphotels.com/miami/dining/miami-sports-bars?utm_source=gmb&utm_medium=Yext",
    "category": "Restaurant",
    "types": "restaurant, point_of_interest, food, establishment"
  },
  {
    "place_id": "ChIJAVkNB_-72YgR8nw1-WFW6UQ",
    "name": "Backyard Kitchen & Bar",
    "street_address": "5001 Northwest 104th Avenue",
    "city": "Doral",
    "state": "FL",
    "zip_code": "33178",
    "latitude": 25.81739259999999,
    "longitude": -80.36359619999999,
    "website": "http://www.doralpark.org/backyard",
    "category": "Restaurant",
    "types": "restaurant, food, point_of_interest, establishment"
  },
  {
    "place_id": "ChIJS4shxUq72YgRBhcYPGuHC0U",
    "name": "Hole 19 - Scratch Kitchen + Bar",
    "street_address": "650 Curtiss Parkway",
    "city": "Miami Springs",
    "state": "FL",
    "zip_code": "33166",
    "latitude": 25.8143829,
    "longitude": -80.2887368,
    "website": "https://hole19scratchkitchen.com/",
    "category": "Restaurant",
    "types": "restaurant, point_of_interest, food, establishment"
  },
  {
    "place_id": "ChIJB3807MS_2YgRzd1F90xzAWw",
    "name": "Ollie Sports Bar & Grill",
    "street_address": "10469 Northwest 41st Street",
    "city": "Doral",
    "state": "FL",
    "zip_code": "33178",
    "latitude": 25.81221589999999,
    "longitude": -80.3669865,
    "website": "http://olliesportsbar.com/?utm_medium=referral&utm_source=gmb&utm_campaign=lnk-gmb",
    "category": "Restaurant",
    "types": "restaurant, point_of_interest, food, establishment"
  },
  {
    "place_id": "ChIJAAAAAAAAAAARfgIvxvd4VJY",
    "name": "Flanigan's Seafood Bar and Grill",
    "street_address": "8695 Northwest 12th Street",
    "city": "Miami",
    "state": "FL",
    "zip_code": "33126",
    "latitude": 25.7838311,
    "longitude": -80.33615019999999,
    "website": "http://flanigans.net/",
    "category": "Bar & Restaurant",
    "types": "bar, restaurant, food, point_of_interest, establishment"
  },
  {
    "place_id": "ChIJmSuujNu72YgRieZswLNZ1VA",
    "name": "Bulla Gastrobar",
    "street_address": "5335 Northwest 87th Avenue",
    "city": "Doral",
    "state": "FL",
    "zip_code": "33178",
    "latitude": 25.82025179999999,
    "longitude": -80.3371717,
    "website": "https://bullagastrobar.com/locations/doral",
    "category": "Bar & Restaurant",
    "types": "bar, restaurant, food, point_of_interest, establishment"
  },
  {
    "place_id": "ChIJbb28kgW72YgR3tnBy7rfXcg",
    "name": "The Doral Yard",
    "street_address": "8455 Northwest 53rd Street",
    "city": "Doral",
    "state": "FL",
    "zip_code": "33166",
    "latitude": 25.820116,
    "longitude": -80.3357624,
    "website": "https://thedoralyard.com/",
    "category": "Bar & Restaurant",
    "types": "restaurant, bar, food, point_of_interest, establishment"
  },
  {
    "place_id": "ChIJD_Nph62-2YgRiKRIAlxJufw",
    "name": "107 Steak & Bar",
    "street_address": "3285 Northwest 107th Avenue",
    "city": "Doral",
    "state": "FL",
    "zip_code": "33172",
    "latitude": 25.8040104,
    "longitude": -80.3688231,
    "website": "https://www.107steakandbar.com/",
    "category": "Bar & Restaurant",
    "types": "bar, restaurant, point_of_interest, food, establishment"
  },
  {
    "place_id": "ChIJAAAAAAAAAAARqruKmuvXF1I",
    "name": "Bistro Bar",
    "street_address": "100 Costa Del Sol Boulevard",
    "city": "Doral",
    "state": "FL",
    "zip_code": "33178",
    "latitude": 25.8071551,
    "longitude": -80.35929639999999,
    "website": null,
    "category": "Bar & Restaurant",
    "types": "restaurant, bar, food, point_of_interest, establishment"
  },
  {
    "place_id": "ChIJf494Mne72YgR5BfRC9d0arE",
    "name": "Eight Bistro Lounge",
    "street_address": "9851 Northwest 58th Street",
    "city": "Doral",
    "state": "FL",
    "zip_code": "33178",
    "latitude": 25.8264509,
    "longitude": -80.3572185,
    "website": null,
    "category": "Restaurant",
    "types": "restaurant, food, point_of_interest, establishment"
  },
  {
    "place_id": "ChIJo3HjKXi_2YgRItXdW69pNWY",
    "name": "Sant\u00e9 Cocktail Lounge",
    "street_address": "1701 Northwest 112th Avenue",
    "city": "Miami",
    "state": "FL",
    "zip_code": "33172",
    "latitude": 25.7900371,
    "longitude": -80.37635039999999,
    "website": "http://santelounge.com/",
    "category": "Bar & Restaurant",
    "types": "night_club, bar, restaurant, food, point_of_interest, establishment"
  },
  {
    "place_id": "ChIJAAAAAAAAAAAR-BgoDmfyjMU",
    "name": "BJ's Restaurant & Brewhouse",
    "street_address": "1401 Northwest 107th Avenue",
    "city": "Doral",
    "state": "FL",
    "zip_code": "33172",
    "latitude": 25.7865087,
    "longitude": -80.3682455,
    "website": "https://www.bjsrestaurants.com/locations/fl/miami-int-mall?utm_source=google&utm_medium=organic&utm_campaign=google_my_business",
    "category": "Bar & Restaurant",
    "types": "restaurant, bar, food, point_of_interest, establishment"
  },
  {
    "place_id": "ChIJC3cAVaG-2YgRnDe3GmQcsrY",
    "name": "Baru Doral Resto-Bar",
    "street_address": "11402 Northwest 41st Street",
    "city": "Doral",
    "state": "FL",
    "zip_code": "33178",
    "latitude": 25.8108204,
    "longitude": -80.3835653,
    "website": "http://barudoral.com/",
    "category": "Bar & Restaurant",
    "types": "bar, restaurant, food, point_of_interest, establishment"
  },
  {
    "place_id": "ChIJa99GR3a52YgRvTKugwAvEtk",
    "name": "Doral Billiards & Sports Bar",
    "street_address": "7800 Northwest 25th Street",
    "city": "Doral",
    "state": "FL",
    "zip_code": "33122",
    "latitude": 25.7962095,
    "longitude": -80.3241496,
    "website": "http://www.doralbilliards.com/",
    "category": "Bar & Restaurant",
    "types": "night_club, bar, restaurant, food, point_of_interest, establishment"
  },
  {
    "place_id": "ChIJiyWW_MW-2YgRGGEXrKFUSoM",
    "name": "Buffalo Wild Wings",
    "street_address": "11401 Northwest 12th Street",
    "city": "Miami",
    "state": "FL",
    "zip_code": "33172",
    "latitude": 25.786618,
    "longitude": -80.3807836,
    "website": "https://www.buffalowildwings.com/locations/us/fl/miami/11401-nw-12th-street/sports-bar-1658/?utm_source=google%20my%20business&utm_medium=organic&utm_campaign=website%20link",
    "category": "Bar & Restaurant",
    "types": "meal_takeaway, bar, restaurant, point_of_interest, food, establishment"
  },
  {
    "place_id": "ChIJa99GR3a52YgRxUcofB0FSec",
    "name": "La Taberna de San Roman Spanish Restaurant",
    "street_address": "7800 Northwest 25th Street",
    "city": "Doral",
    "state": "FL",
    "zip_code": "33122",
    "latitude": 25.7962095,
    "longitude": -80.3241496,
    "website": "http://www.latabernadesanroman.com/",
    "category": "Bar & Restaurant",
    "types": "bar, restaurant, food, point_of_interest, establishment"
  },
  {
    "place_id": "ChIJVZ2Z2D252YgRK4rVyJg4CSo",
    "name": "Novecento",
    "street_address": "3450 Northwest 83rd Avenue",
    "city": "Doral",
    "state": "FL",
    "zip_code": "33122",
    "latitude": 25.8072371,
    "longitude": -80.3307533,
    "website": "http://www.novecento.com/",
    "category": "Restaurant",
    "types": "restaurant, food, point_of_interest, establishment"
  },
  {
    "place_id": "ChIJU7iMPxS52YgRE5NkUp5fq6A",
    "name": "Champions Florida",
    "street_address": "1360 Northwest 88th Avenue",
    "city": "Miami",
    "state": "FL",
    "zip_code": "33172",
    "latitude": 25.7859098,
    "longitude": -80.3395843,
    "website": "http://www.championsfl.com/",
    "category": "Bar & Restaurant",
    "types": "bar, restaurant, food, point_of_interest, establishment"
  },
  {
    "place_id": "ChIJNxYwcyS62YgRC6vIRn4dVIE",
    "name": "Woody's Backyard Grill",
    "street_address": "600 Payne Drive",
    "city": "Miami Springs",
    "state": "FL",
    "zip_code": "33166",
    "latitude": 25.8188201,
    "longitude": -80.3050732,
    "website": "https://www.woodysbyg.com/",
    "category": "Bar & Restaurant",
    "types": "restaurant, bar, food, point_of_interest, establishment"
  },
  {
    "place_id": "ChIJPQ7DR8K_2YgRF5dhVm5ssDM",
    "name": "El Gran Inka",
    "street_address": "11401 Northwest 12th Street",
    "city": "Miami",
    "state": "FL",
    "zip_code": "33172",
    "latitude": 25.7871485,
    "longitude": -80.381153,
    "website": "http://graninka.com/",
    "category": "Bar & Restaurant",
    "types": "bar, restaurant, food, point_of_interest, establishment"
  },
  {
    "place_id": "ChIJ6-MUNie92YgRSfOVjOoPlwI",
    "name": "Aprile Restaurant - Doral",
    "street_address": "7761 Northwest 107th Avenue",
    "city": "Doral",
    "state": "FL",
    "zip_code": "33178",
    "latitude": 25.8437762,
    "longitude": -80.3700208,
    "website": "https://www.aprilemiami.com/",
    "category": "Bar & Restaurant",
    "types": "bar, store, restaurant, food, point_of_interest, establishment"
  },
  {
    "place_id": "ChIJmTfxVK2-2YgRkfyYvt7wnfI",
    "name": "MIA Bruhaus",
    "street_address": "10400 Northwest 33rd Street",
    "city": "Doral",
    "state": "FL",
    "zip_code": "33172",
    "latitude": 25.8036969,
    "longitude": -80.36577799999999,
    "website": "http://www.grainandstill.com/",
    "category": "Bar & Restaurant",
    "types": "night_club, bar, restaurant, food, point_of_interest, establishment"
  },
  {
    "place_id": "ChIJKfrj2fa62YgR00YMebLObEQ",
    "name": "Cuba Lives Restaurant",
    "street_address": "4590 West 12th Avenue",
    "city": "Hialeah",
    "state": "FL",
    "zip_code": "33012",
    "latitude": 25.86353429999999,
    "longitude": -80.3070687,
    "website": "https://www.cubalivesbuffet.com/",
    "category": "Bar & Restaurant",
    "types": "bar, restaurant, point_of_interest, food, establishment"
  },
  {
    "place_id": "ChIJ5cFNMd252YgRHPzCPF8oYeo",
    "name": "94th Aero Squadron Restaurant",
    "street_address": "1395 Northwest 57th Avenue",
    "city": "Miami",
    "state": "FL",
    "zip_code": "33126",
    "latitude": 25.7850697,
    "longitude": -80.2875962,
    "website": "https://www.94miami.com/",
    "category": "Restaurant",
    "types": "restaurant, food, point_of_interest, establishment"
  },
  {
    "place_id": "ChIJV-8gaf2_2YgRrNqdXTW3fQo",
    "name": "Maracaibo Club by Charles. Rooftop Party and Restaurant",
    "street_address": "10648 Fontainebleau Boulevard",
    "city": "Miami",
    "state": "FL",
    "zip_code": "33172",
    "latitude": 25.7749085,
    "longitude": -80.36836249999999,
    "website": "http://www.maracaiboclub.com/",
    "category": "Bar & Restaurant",
    "types": "restaurant, bar, food, point_of_interest, establishment"
  },
  {
    "place_id": "ChIJMxKoUgu82YgRhQ9WpaAEMcc",
    "name": "Sokai Sushi Bar Doral",
    "street_address": "10726 Northwest 74th Street",
    "city": "Doral",
    "state": "FL",
    "zip_code": "33178",
    "latitude": 25.8393109,
    "longitude": -80.3711892,
    "website": "http://www.sokaisushi.com/",
    "category": "Bar & Restaurant",
    "types": "restaurant, bar, food, point_of_interest, establishment"
  },
  {
    "place_id": "ChIJFySlnpW_2YgRoyhbC9eoiWI",
    "name": "Metropol Restaurant & Bar (Miami)",
    "street_address": "11401 Northwest 12th Street",
    "city": "Miami",
    "state": "FL",
    "zip_code": "33172",
    "latitude": 25.78689709999999,
    "longitude": -80.38071740000001,
    "website": "http://metropolrestaurant.com/",
    "category": "Bar & Restaurant",
    "types": "bar, restaurant, food, point_of_interest, establishment"
  },
  {
    "place_id": "ChIJe8cEnS662YgRBENJrHMJHPs",
    "name": "The Tank Brewing Co.",
    "street_address": "5100 Northwest 72nd Avenue",
    "city": "Miami",
    "state": "FL",
    "zip_code": "33166",
    "latitude": 25.820066,
    "longitude": -80.3138556,
    "website": "https://www.thetankbrewing.com/",
    "category": "Bar & Restaurant",
    "types": "bar, restaurant, food, point_of_interest, establishment"
  },
  {
    "place_id": "ChIJfyyGN2m52YgRtwdtCXpz8T4",
    "name": "Brisa De Espa\u00f1a",
    "street_address": "8726 Northwest 26th Street",
    "city": "Doral",
    "state": "FL",
    "zip_code": "33172",
    "latitude": 25.7974882,
    "longitude": -80.3390643,
    "website": "https://brisadeespana.com/",
    "category": "Restaurant",
    "types": "liquor_store, bakery, grocery_or_supermarket, store, restaurant, food, point_of_interest, establishment"
  },
  {
    "place_id": "ChIJD6M7R2K_2YgRzdEZ43zwFAw",
    "name": "La Terraza Organic Restaurant-Doral",
    "street_address": "3105 Northwest 107th Avenue",
    "city": "Doral",
    "state": "FL",
    "zip_code": "33172",
    "latitude": 25.8028835,
    "longitude": -80.3679964,
    "website": "http://laterrazaorganic.online/",
    "category": "Bar & Restaurant",
    "types": "cafe, bar, restaurant, food, point_of_interest, establishment"
  },
  {
    "place_id": "ChIJ8Y8jLBW52YgR8ybZN5xKlOg",
    "name": "Craft American Eatery",
    "street_address": "5911 Northwest 36th Street",
    "city": "Miami",
    "state": "FL",
    "zip_code": "33166",
    "latitude": 25.8079212,
    "longitude": -80.2957845,
    "website": "http://craftamericaneatery.us/",
    "category": "Restaurant",
    "types": "restaurant, food, point_of_interest, establishment"
  },
  {
    "place_id": "ChIJ7UoERle32YgRXHdCwBc7zCc",
    "name": "Islander Bar and Grill",
    "street_address": "2100 Northwest 42nd Avenue",
    "city": "Miami",
    "state": "FL",
    "zip_code": "33126",
    "latitude": 25.7978379,
    "longitude": -80.2842242,
    "website": "https://www.shopmiamiairport.com/directory/islander-bar-and-grill-north-terminal-d-49/",
    "category": "Bar & Restaurant",
    "types": "bar, restaurant, food, point_of_interest, establishment"
  },
  {
    "place_id": "ChIJCxuh0yTH2YgRUtzdF9OO0gY",
    "name": "Sports Grill Kendall",
    "street_address": "9090 Southwest 97th Avenue",
    "city": "Miami",
    "state": "FL",
    "zip_code": "33176",
    "latitude": 25.6856151,
    "longitude": -80.3514288,
    "website": "https://sportsgrill.com/",
    "category": "Bar & Restaurant",
    "types": "bar, restaurant, food, point_of_interest, establishment"
  },
  {
    "place_id": "ChIJO1vXv6rH2YgRTTtpNAHmyEg",
    "name": "Keg South Pinecrest",
    "street_address": "10417 South Dixie Highway",
    "city": "Miami",
    "state": "FL",
    "zip_code": "33156",
    "latitude": 25.67332579999999,
    "longitude": -80.32015729999999,
    "website": null,
    "category": "Bar & Restaurant",
    "types": "bar, restaurant, food, point_of_interest, establishment"
  },
  {
    "place_id": "ChIJLb4GipHG2YgRPs32h_x-HNE",
    "name": "Miller's Ale House",
    "street_address": "13603 South Dixie Highway",
    "city": "Palmetto Bay",
    "state": "FL",
    "zip_code": "33176",
    "latitude": 25.64295,
    "longitude": -80.3338105,
    "website": "https://millersalehouse.com/locations/miami-falls/?utm_source=gmb&utm_medium=organic",
    "category": "Bar & Restaurant",
    "types": "restaurant, meal_takeaway, bar, food, point_of_interest, establishment"
  },
  {
    "place_id": "ChIJRVB15ArH2YgRoIHSdXGs0RA",
    "name": "Hole in the Wall",
    "street_address": "8002 Southwest 81st Drive",
    "city": "Miami",
    "state": "FL",
    "zip_code": "33143",
    "latitude": 25.6935889,
    "longitude": -80.3236953,
    "website": "http://holeinthewallflorida.com/",
    "category": "Bar & Restaurant",
    "types": "bar, restaurant, food, point_of_interest, establishment"
  },
  {
    "place_id": "ChIJtz41kkjH2YgRmn-p7E5Pg-Y",
    "name": "Sports Grill Sunset",
    "street_address": "10005 Southwest 72nd Street",
    "city": "Miami",
    "state": "FL",
    "zip_code": "33173",
    "latitude": 25.7017108,
    "longitude": -80.35639599999999,
    "website": "https://sportsgrill.com/",
    "category": "Bar & Restaurant",
    "types": "bar, restaurant, point_of_interest, food, establishment"
  },
  {
    "place_id": "ChIJbX2MWJHG2YgRUni7Fl4_T3E",
    "name": "BJ's Restaurant & Brewhouse",
    "street_address": "8888 Southwest 136th Street",
    "city": "Miami",
    "state": "FL",
    "zip_code": "33176",
    "latitude": 25.6436192,
    "longitude": -80.3370758,
    "website": "https://www.bjsrestaurants.com/locations/fl/miami-falls?utm_source=google&utm_medium=organic&utm_campaign=google_my_business",
    "category": "Bar & Restaurant",
    "types": "restaurant, bar, food, point_of_interest, establishment"
  },
  {
    "place_id": "ChIJaWFCKKDG2YgRzG6eTdHqG88",
    "name": "Sports Grill Palmetto Golf Course",
    "street_address": "9300 Southwest 152nd Street",
    "city": "Miami",
    "state": "FL",
    "zip_code": "33157",
    "latitude": 25.62843909999999,
    "longitude": -80.34417859999999,
    "website": "https://sportsgrill.com/",
    "category": "Bar & Restaurant",
    "types": "bar, restaurant, point_of_interest, food, establishment"
  },
  {
    "place_id": "ChIJwUL1-HrH2YgRjP3qmfHDa_Y",
    "name": "Bulla Gastrobar",
    "street_address": "8870 Southwest 136th Street",
    "city": "Miami",
    "state": "FL",
    "zip_code": "33176",
    "latitude": 25.6453076,
    "longitude": -80.33778629999999,
    "website": "https://bullagastrobar.com/locations/the-falls/",
    "category": "Bar & Restaurant",
    "types": "bar, restaurant, point_of_interest, food, establishment"
  },
  {
    "place_id": "ChIJM_AvH8_H2YgRemYJ8IKo6gQ",
    "name": "Peruvian Ceviches + Bar",
    "street_address": "14501 South Dixie Highway",
    "city": "Miami",
    "state": "FL",
    "zip_code": "33176",
    "latitude": 25.6352141,
    "longitude": -80.3378294,
    "website": "http://www.peruvianceviches.com/",
    "category": "Restaurant",
    "types": "restaurant, food, point_of_interest, establishment"
  }
]