[
  {
    "place_id": "ChIJRbo08u8ZBYgR9qBFVAiPknI",
    "name": "On Tap",
    "street_address": "1203 North 10th Street",
    "city": "Milwaukee",
    "state": "WI",
    "zip_code": "53205",
    "latitude": 43.04592239999999,
    "longitude": -87.92451710000002,
    "website": "https://ontapmilwaukee.com/",
    "category": "Bar & Restaurant",
    "types": "bar, restaurant, food, point_of_interest, establishment"
  },
  {
    "place_id": "ChIJCd8LJacZBYgR27UOG--1MTc",
    "name": "Swingin' Door Exchange",
    "street_address": "219 East Michigan Street",
    "city": "Milwaukee",
    "state": "WI",
    "zip_code": "53202",
    "latitude": 43.0371987,
    "longitude": -87.9082476,
    "website": "http://www.swingindoorexchange.com/",
    "category": "Bar & Restaurant",
    "types": "restaurant, bar, food, point_of_interest, establishment"
  },
  {
    "place_id": "ChIJC4Uvv3QZBYgRElnmPP7d1no",
    "name": "Who's on Third | A Cream City Concepts Destination",
    "street_address": "1007 North Doctor Martin Luther King Junior Drive",
    "city": "Milwaukee",
    "state": "WI",
    "zip_code": "53203",
    "latitude": 43.0431681,
    "longitude": -87.91464169999999,
    "website": "http://whosonthirdmke.com/",
    "category": "Bar & Restaurant",
    "types": "bar, restaurant, food, point_of_interest, establishment"
  },
  {
    "place_id": "ChIJs2lc97wZBYgR00Nt_qRxfO8",
    "name": "O'Lydia's Bar and Grill",
    "street_address": "338 South 1st Street",
    "city": "Milwaukee",
    "state": "WI",
    "zip_code": "53204",
    "latitude": 43.02751009999999,
    "longitude": -87.9109064,
    "website": "http://www.olydias.com/",
    "category": "Bar & Restaurant",
    "types": "bar, restaurant, food, point_of_interest, establishment"
  },
  {
    "place_id": "ChIJizcMFQoZBYgRkj4kpvkhYGc",
    "name": "SafeHouse",
    "street_address": "779 North Front Street",
    "city": "Milwaukee",
    "state": "WI",
    "zip_code": "53202",
    "latitude": 43.0405857,
    "longitude": -87.9103019,
    "website": "http://www.safe-house.com/",
    "category": "Bar & Restaurant",
    "types": "restaurant, bar, food, point_of_interest, establishment"
  },
  {
    "place_id": "ChIJxSaCuXQZBYgRV7pFT2g0eTE",
    "name": "Milwaukee Brat House",
    "street_address": "1013 North Doctor Martin Luther King Junior Drive",
    "city": "Milwaukee",
    "state": "WI",
    "zip_code": "53203",
    "latitude": 43.0432973,
    "longitude": -87.9149207,
    "website": "http://www.milwaukeebrathouse.com/",
    "category": "Bar & Restaurant",
    "types": "bar, restaurant, food, point_of_interest, establishment"
  },
  {
    "place_id": "ChIJ71JuoqYZBYgRRStD3vllXKo",
    "name": "The Wicked Hop",
    "street_address": "345 North Broadway",
    "city": "Milwaukee",
    "state": "WI",
    "zip_code": "53202",
    "latitude": 43.03482820000001,
    "longitude": -87.9075775,
    "website": "http://www.thewickedhop.com/",
    "category": "Bar & Restaurant",
    "types": "bar, restaurant, food, point_of_interest, establishment"
  },
  {
    "place_id": "ChIJt97c_k0ZBYgRrEGIM3huMXk",
    "name": "Copper on King",
    "street_address": "1019 North Doctor Martin Luther King Junior Drive",
    "city": "Milwaukee",
    "state": "WI",
    "zip_code": "53203",
    "latitude": 43.0433734,
    "longitude": -87.9147583,
    "website": "http://copperonking.com/",
    "category": "Bar & Restaurant",
    "types": "restaurant, bar, food, point_of_interest, establishment"
  },
  {
    "place_id": "ChIJN1c8YikaBYgRpJmWTPvf6CM",
    "name": "Sobelmans on St. Paul",
    "street_address": "1900 West Saint Paul Avenue",
    "city": "Milwaukee",
    "state": "WI",
    "zip_code": "53233",
    "latitude": 43.0349154,
    "longitude": -87.9368887,
    "website": "https://sobelmanspubandgrill.com/",
    "category": "Bar & Restaurant",
    "types": "bar, restaurant, food, point_of_interest, establishment"
  },
  {
    "place_id": "ChIJN89oxogZBYgRNK5CbSqdTU4",
    "name": "Wisconsin Tap Room",
    "street_address": "717 North Plankinton Avenue",
    "city": "Milwaukee",
    "state": "WI",
    "zip_code": "53203",
    "latitude": 43.03911719999999,
    "longitude": -87.9117148,
    "website": "http://www.mosirishpub.com/milwaukee",
    "category": "Bar & Restaurant",
    "types": "bar, restaurant, point_of_interest, food, establishment"
  },
  {
    "place_id": "ChIJ2fOqMd0YBYgRShJEKlTf3tU",
    "name": "Hooligan's Super Bar",
    "street_address": "2017 East North Avenue",
    "city": "Milwaukee",
    "state": "WI",
    "zip_code": "53202",
    "latitude": 43.05995299999999,
    "longitude": -87.884863,
    "website": "https://www.hooligansmke.com/",
    "category": "Bar & Restaurant",
    "types": "bar, restaurant, food, point_of_interest, establishment"
  },
  {
    "place_id": "ChIJp7gZo3QZBYgRJUcVU1HF5tg",
    "name": "Oak Barrel Public House",
    "street_address": "1033 North Doctor Martin Luther King Junior Drive",
    "city": "Milwaukee",
    "state": "WI",
    "zip_code": "53203",
    "latitude": 43.0437545,
    "longitude": -87.9148252,
    "website": "https://www.oakbarrelmilwaukee.com/",
    "category": "Restaurant",
    "types": "restaurant, food, point_of_interest, establishment"
  },
  {
    "place_id": "ChIJGUOIcp4ZBYgR2vim2UVlmMs",
    "name": "Miller Time Pub & Grill",
    "street_address": "509 West Wisconsin Avenue",
    "city": "Milwaukee",
    "state": "WI",
    "zip_code": "53203",
    "latitude": 43.038676,
    "longitude": -87.91775009999999,
    "website": "https://milwaukee.millertimepubandgrill.com/",
    "category": "Bar & Restaurant",
    "types": "bar, restaurant, food, point_of_interest, establishment"
  },
  {
    "place_id": "ChIJ9w5Jnt4YBYgRgiP2850pbRg",
    "name": "Champion's Pub",
    "street_address": "2417 North Bartlett Avenue",
    "city": "Milwaukee",
    "state": "WI",
    "zip_code": "53211",
    "latitude": 43.06179890000001,
    "longitude": -87.8895106,
    "website": "http://championspub.com/",
    "category": "Bar & Restaurant",
    "types": "bar, restaurant, food, point_of_interest, establishment"
  },
  {
    "place_id": "ChIJUwUkOr0ZBYgR6hjkkB4peRw",
    "name": "Black Sheep MKE",
    "street_address": "216 South 2nd Street",
    "city": "Milwaukee",
    "state": "WI",
    "zip_code": "53204",
    "latitude": 43.028949,
    "longitude": -87.912312,
    "website": "http://blacksheepmke.com/",
    "category": "Bar & Restaurant",
    "types": "restaurant, bar, food, point_of_interest, establishment"
  },
  {
    "place_id": "ChIJu2_fh84bBYgRWjVii-fPmhM",
    "name": "J. Leinenkugel's Barrel Yard | Year-Round Brewpub & Active Brewery",
    "street_address": "1 Brewers Way",
    "city": "Milwaukee",
    "state": "WI",
    "zip_code": "53214",
    "latitude": 43.02841109999999,
    "longitude": -87.9701992,
    "website": "http://barrelyardmke.com/",
    "category": "Bar & Restaurant",
    "types": "bar, restaurant, food, point_of_interest, establishment"
  },
  {
    "place_id": "ChIJWxKxMggZBYgRUMcGSXDSlbI",
    "name": "City Social Bar and Grill on Water Street",
    "street_address": "530 North Water Street",
    "city": "Milwaukee",
    "state": "WI",
    "zip_code": "53202",
    "latitude": 43.03693930000001,
    "longitude": -87.9085788,
    "website": null,
    "category": "Bar & Restaurant",
    "types": "bar, restaurant, food, point_of_interest, establishment"
  },
  {
    "place_id": "ChIJdyNgGhAZBYgRreagmVBslPY",
    "name": "Points East Pub",
    "street_address": "1501 North Jackson Street",
    "city": "Milwaukee",
    "state": "WI",
    "zip_code": "53202",
    "latitude": 43.0494982,
    "longitude": -87.9049398,
    "website": "https://thepointseastpub.com/",
    "category": "Bar & Restaurant",
    "types": "bar, restaurant, food, point_of_interest, establishment"
  },
  {
    "place_id": "ChIJzWkXeqcZBYgR46dBATZH--E",
    "name": "East Town Kitchen + Bar",
    "street_address": "625 North Milwaukee Street",
    "city": "Milwaukee",
    "state": "WI",
    "zip_code": "53202",
    "latitude": 43.03803279999999,
    "longitude": -87.90670349999999,
    "website": "https://www.easttownkitchenandbar.com/?utm_source=google&utm_medium=organic&utm_campaign=business_listing",
    "category": "Bar & Restaurant",
    "types": "bar, restaurant, food, point_of_interest, establishment"
  },
  {
    "place_id": "ChIJ66MZ62UZBYgRkuJ8zIQ0HZc",
    "name": "The Social American Tavern",
    "street_address": "611 North Broadway",
    "city": "Milwaukee",
    "state": "WI",
    "zip_code": "53202",
    "latitude": 43.0378833,
    "longitude": -87.9079091,
    "website": "https://www.thesocialmke.com/?utm_source=google&utm_medium=organic&utm_campaign=gbp_listing",
    "category": "Restaurant",
    "types": "restaurant, point_of_interest, food, establishment"
  },
  {
    "place_id": "ChIJG-W7wF4ZBYgRd8g0AfDe06I",
    "name": "Pete's Pub",
    "street_address": "1234 East Brady Street",
    "city": "Milwaukee",
    "state": "WI",
    "zip_code": "53202",
    "latitude": 43.0531276,
    "longitude": -87.8956633,
    "website": "https://www.petespubonbrady.com/",
    "category": "Bar & Restaurant",
    "types": "bar, restaurant, food, point_of_interest, establishment"
  },
  {
    "place_id": "ChIJuxi7faAZBYgRvQQAPQtpojw",
    "name": "Mo's Irish Pub Downtown, Milwaukee",
    "street_address": "142 West Wisconsin Avenue",
    "city": "Milwaukee",
    "state": "WI",
    "zip_code": "53203",
    "latitude": 43.03899,
    "longitude": -87.9116238,
    "website": "https://mosirishpub.com/milwaukee/",
    "category": "Bar & Restaurant",
    "types": "bar, restaurant, food, point_of_interest, establishment"
  },
  {
    "place_id": "ChIJZbKwP74ZBYgRpHSJiBnbKwE",
    "name": "Roundhouse Beer Garden",
    "street_address": "1750 North Lincoln Memorial Drive",
    "city": "Milwaukee",
    "state": "WI",
    "zip_code": "53202",
    "latitude": 43.05116009999999,
    "longitude": -87.8832547,
    "website": "https://www.roundhousemke.com/",
    "category": "Bar & Restaurant",
    "types": "bar, restaurant, food, point_of_interest, establishment"
  },
  {
    "place_id": "ChIJnY6WRb4ZBYgR42MhHlXZBy4",
    "name": "Steny's Tavern & Grill",
    "street_address": "800 South 2nd Street",
    "city": "Milwaukee",
    "state": "WI",
    "zip_code": "53204",
    "latitude": 43.0230301,
    "longitude": -87.91230619999999,
    "website": "https://www.stenystavern.com/",
    "category": "Bar & Restaurant",
    "types": "bar, restaurant, food, point_of_interest, establishment"
  },
  {
    "place_id": "ChIJmejSk-sZBYgRxiigeYbAbi8",
    "name": "State Street Pizza Pub",
    "street_address": "322 West State Street",
    "city": "Milwaukee",
    "state": "WI",
    "zip_code": "53203",
    "latitude": 43.0431964,
    "longitude": -87.915289,
    "website": "http://www.statestreetpizzapub.com/",
    "category": "Bar & Restaurant",
    "types": "bar, restaurant, food, point_of_interest, establishment"
  },
  {
    "place_id": "ChIJbSX2mi4fBYgRc6xRxR2G884",
    "name": "Harry's Bar and Grill",
    "street_address": "3549 North Oakland Avenue",
    "city": "Milwaukee",
    "state": "WI",
    "zip_code": "53211",
    "latitude": 43.08292100000001,
    "longitude": -87.88792099999999,
    "website": "http://www.harrysbarandgrillmilwaukee.com/",
    "category": "Bar & Restaurant",
    "types": "bar, restaurant, food, point_of_interest, establishment"
  },
  {
    "place_id": "ChIJG6kvJnEaBYgR1Gz2j1AYQZI",
    "name": "McKiernan's Irish Pub & Grill",
    "street_address": "2066 South 37th Street",
    "city": "Milwaukee",
    "state": "WI",
    "zip_code": "53215",
    "latitude": 43.0069857,
    "longitude": -87.96034089999999,
    "website": "http://mckiernansirishpub.com/",
    "category": "Bar & Restaurant",
    "types": "bar, restaurant, food, point_of_interest, establishment"
  },
  {
    "place_id": "ChIJHwaavZkZBYgRNn04mxpVLxk",
    "name": "MOTOR Bar and Restaurant",
    "street_address": "400 West Canal Street",
    "city": "Milwaukee",
    "state": "WI",
    "zip_code": "53203",
    "latitude": 43.03121790000001,
    "longitude": -87.91598189999999,
    "website": "http://www.motorrestaurant.com/",
    "category": "Bar & Restaurant",
    "types": "bar, restaurant, food, point_of_interest, establishment"
  },
  {
    "place_id": "ChIJQUFU8B0ZBYgRLRKiegwmuGI",
    "name": "Jack's American Pub",
    "street_address": "1323 East Brady Street",
    "city": "Milwaukee",
    "state": "WI",
    "zip_code": "53202",
    "latitude": 43.0527304,
    "longitude": -87.8946667,
    "website": "https://www.jacksamericanpub.com/",
    "category": "Bar & Restaurant",
    "types": "bar, restaurant, food, point_of_interest, establishment"
  },
  {
    "place_id": "ChIJ2egohAQZBYgR8fH3ANTi7w8",
    "name": "County Clare Irish Inn & Pub",
    "street_address": "1234 North Astor Street",
    "city": "Milwaukee",
    "state": "WI",
    "zip_code": "53202",
    "latitude": 43.04663739999999,
    "longitude": -87.8993613,
    "website": "https://countyclare-inn.com/",
    "category": "Bar & Restaurant",
    "types": "meal_takeaway, bar, lodging, restaurant, food, point_of_interest, establishment"
  },
  {
    "place_id": "ChIJ3VkbA3UZBYgRC3Z4Ai_xQew",
    "name": "Major Goolsby's",
    "street_address": "340 West Kilbourn Avenue",
    "city": "Milwaukee",
    "state": "WI",
    "zip_code": "53203",
    "latitude": 43.04174099999999,
    "longitude": -87.91558289999999,
    "website": "https://www.majorgoolsbys.com/",
    "category": "Bar & Restaurant",
    "types": "bar, restaurant, food, point_of_interest, establishment"
  },
  {
    "place_id": "ChIJ22n6kgEZBYgR_5blNG1C12Q",
    "name": "Vier North",
    "street_address": "1832 East North Avenue",
    "city": "Milwaukee",
    "state": "WI",
    "zip_code": "53202",
    "latitude": 43.060283,
    "longitude": -87.8870285,
    "website": "http://viernorth.com/",
    "category": "Bar & Restaurant",
    "types": "bar, restaurant, point_of_interest, food, establishment"
  },
  {
    "place_id": "ChIJ1_yO5h0ZBYgRdvEW5k04B8o",
    "name": "The Garage",
    "street_address": "1709 North Arlington Place",
    "city": "Milwaukee",
    "state": "WI",
    "zip_code": "53202",
    "latitude": 43.0532032,
    "longitude": -87.8951179,
    "website": "https://thegaragemke.com/",
    "category": "Bar & Restaurant",
    "types": "bar, restaurant, point_of_interest, food, establishment"
  },
  {
    "place_id": "ChIJ0_EpxyAaBYgRv0hEm9Yqd0g",
    "name": "Oscar's Pub & Grill",
    "street_address": "1712 West Pierce Street",
    "city": "Milwaukee",
    "state": "WI",
    "zip_code": "53204",
    "latitude": 43.0244089,
    "longitude": -87.9348207,
    "website": "http://www.oscarsonpierce.com/",
    "category": "Bar & Restaurant",
    "types": "bar, restaurant, food, point_of_interest, establishment"
  },
  {
    "place_id": "ChIJc41nBXUbBYgRgrPGg2-IcN0",
    "name": "Bar on Burleigh",
    "street_address": "4532 West Burleigh Street",
    "city": "Milwaukee",
    "state": "WI",
    "zip_code": "53210",
    "latitude": 43.0753943,
    "longitude": -87.9708668,
    "website": null,
    "category": "Bar & Restaurant",
    "types": "bar, restaurant, food, point_of_interest, establishment"
  },
  {
    "place_id": "ChIJOw46IGcZBYgRVUixdRMg5-E",
    "name": "Up-Down MKE",
    "street_address": "615 East Brady Street",
    "city": "Milwaukee",
    "state": "WI",
    "zip_code": "53202",
    "latitude": 43.05275109999999,
    "longitude": -87.9040954,
    "website": "https://www.updownarcadebar.com/milwaukee/",
    "category": "Bar & Restaurant",
    "types": "bar, restaurant, food, point_of_interest, establishment"
  },
  {
    "place_id": "ChIJ2ebXwGYbBYgR2TpVGaBT41I",
    "name": "The Crooked Crow",
    "street_address": "1309 South 60th Street",
    "city": "West Allis",
    "state": "WI",
    "zip_code": "53214",
    "latitude": 43.0181187,
    "longitude": -87.9877209,
    "website": "http://thecrookedcrowmke.com/",
    "category": "Bar & Restaurant",
    "types": "bar, restaurant, food, point_of_interest, establishment"
  },
  {
    "place_id": "ChIJ-0qXZBUbBYgRcNyO0XazJl4",
    "name": "LA pub &Grill",
    "street_address": "5832 West Lincoln Avenue",
    "city": "West Allis",
    "state": "WI",
    "zip_code": "53219",
    "latitude": 43.0030846,
    "longitude": -87.98611,
    "website": null,
    "category": "Bar & Restaurant",
    "types": "bar, restaurant, food, point_of_interest, establishment"
  },
  {
    "place_id": "ChIJ67qzyY4bBYgRyF-trArD2a0",
    "name": "The Neighborhood Draft",
    "street_address": "5921 West Vliet Street",
    "city": "Milwaukee",
    "state": "WI",
    "zip_code": "53208",
    "latitude": 43.0497637,
    "longitude": -87.9871811,
    "website": "http://www.neighborhooddraft.com/",
    "category": "Bar & Restaurant",
    "types": "restaurant, bar, food, point_of_interest, establishment"
  },
  {
    "place_id": "ChIJ1drnNwYbBYgRrubt6pZJp54",
    "name": "O'Brien's Irish-American Pub",
    "street_address": "4928 West Vliet Street",
    "city": "Milwaukee",
    "state": "WI",
    "zip_code": "53208",
    "latitude": 43.0490853,
    "longitude": -87.9756867,
    "website": "http://www.obriens-irishpub.com/",
    "category": "Bar & Restaurant",
    "types": "bar, restaurant, point_of_interest, food, establishment"
  },
  {
    "place_id": "ChIJq9Yt13QbBYgRsHth6x7UnCo",
    "name": "McBob's Pub & Grill",
    "street_address": "4919 West North Avenue",
    "city": "Milwaukee",
    "state": "WI",
    "zip_code": "53208",
    "latitude": 43.06055989999999,
    "longitude": -87.9753848,
    "website": "https://mcbobs.com/",
    "category": "Bar & Restaurant",
    "types": "bar, restaurant, food, point_of_interest, establishment"
  },
  {
    "place_id": "ChIJ4YOkaPwaBYgRbHmzL5AGXcI",
    "name": "Kelly's Bleachers",
    "street_address": "5218 West Bluemound Road",
    "city": "Milwaukee",
    "state": "WI",
    "zip_code": "53208",
    "latitude": 43.0368874,
    "longitude": -87.9795299,
    "website": "http://www.kellysbleachers1.com/",
    "category": "Bar & Restaurant",
    "types": "bar, restaurant, food, point_of_interest, establishment"
  },
  {
    "place_id": "ChIJ0fNV8eMaBYgRKCmqcxwJE3w",
    "name": "McGinn's",
    "street_address": "5901 West Bluemound Road",
    "city": "Milwaukee",
    "state": "WI",
    "zip_code": "53213",
    "latitude": 43.036262,
    "longitude": -87.98622999999999,
    "website": "https://www.mcginnsmilwaukee.com/",
    "category": "Bar & Restaurant",
    "types": "bar, restaurant, food, point_of_interest, establishment"
  },
  {
    "place_id": "ChIJ1a6ks94WBYgRHlTqTB1ukTQ",
    "name": "MKE Bar & Grill",
    "street_address": "4800 South 6th Street",
    "city": "Milwaukee",
    "state": "WI",
    "zip_code": "53221",
    "latitude": 42.957715,
    "longitude": -87.9185711,
    "website": null,
    "category": "Bar & Restaurant",
    "types": "bar, restaurant, food, point_of_interest, establishment"
  },
  {
    "place_id": "ChIJVSVBJBcXBYgRW3tqu9o1euw",
    "name": "Gingerz Irish Pub & Grill",
    "street_address": "3915 South Howell Avenue",
    "city": "Milwaukee",
    "state": "WI",
    "zip_code": "53207",
    "latitude": 42.9733606,
    "longitude": -87.90983659999999,
    "website": "https://gingerzsportzpub.com/",
    "category": "Bar & Restaurant",
    "types": "bar, restaurant, food, point_of_interest, establishment"
  },
  {
    "place_id": "ChIJATwvd28XBYgRcB4J5GDQg6c",
    "name": "Brickyard Pub & Beer Garden",
    "street_address": "3455 East Layton Avenue",
    "city": "Cudahy",
    "state": "WI",
    "zip_code": "53110",
    "latitude": 42.9588779,
    "longitude": -87.8634333,
    "website": "http://www.brickyardmke.com/",
    "category": "Bar & Restaurant",
    "types": "bar, restaurant, food, point_of_interest, establishment"
  },
  {
    "place_id": "ChIJx_6oVRcXBYgRssaOCVn2qw4",
    "name": "Jerseys Pub & Grill",
    "street_address": "4024 South Howell Avenue",
    "city": "Milwaukee",
    "state": "WI",
    "zip_code": "53207",
    "latitude": 42.9713312,
    "longitude": -87.9092819,
    "website": null,
    "category": "Bar & Restaurant",
    "types": "restaurant, bar, food, point_of_interest, establishment"
  },
  {
    "place_id": "ChIJEz0Ez-gQBYgRC-n2GAZSdks",
    "name": "Grainger's Pub & Grill",
    "street_address": "3400 West Loomis Road",
    "city": "Milwaukee",
    "state": "WI",
    "zip_code": "53221",
    "latitude": 42.9737504,
    "longitude": -87.9577704,
    "website": "http://graingersbar.com/",
    "category": "Bar & Restaurant",
    "types": "bar, restaurant, food, point_of_interest, establishment"
  },
  {
    "place_id": "ChIJi3w_7hgfBYgRmlAtT-fVg-I",
    "name": "Three Lions Pub",
    "street_address": "4515 North Oakland Avenue",
    "city": "Shorewood",
    "state": "WI",
    "zip_code": "53211",
    "latitude": 43.09874229999999,
    "longitude": -87.88758709999999,
    "website": "https://www.threelionspub.com/",
    "category": "Bar & Restaurant",
    "types": "bar, restaurant, food, point_of_interest, establishment"
  },
  {
    "place_id": "ChIJLRHslO4eBYgRD1JSBHXB7M8",
    "name": "Aliota's Pub & Grill",
    "street_address": "261 East Hampton Road",
    "city": "Milwaukee",
    "state": "WI",
    "zip_code": "53217",
    "latitude": 43.1038045,
    "longitude": -87.9078534,
    "website": "https://aliotaspub.com/",
    "category": "Bar & Restaurant",
    "types": "bar, restaurant, point_of_interest, food, establishment"
  },
  {
    "place_id": "ChIJtT83-AwZBYgRoRDT9hWGkJk",
    "name": "Brothers Bar & Grill",
    "street_address": "1213 North Water Street",
    "city": "Milwaukee",
    "state": "WI",
    "zip_code": "53202",
    "latitude": 43.0461724,
    "longitude": -87.9113149,
    "website": "http://brothersbar.com/",
    "category": "Bar & Restaurant",
    "types": "bar, restaurant, food, point_of_interest, establishment"
  },
  {
    "place_id": "ChIJMe5tQbunBIgR_yDeC0gb6wc",
    "name": "Bourbon Street Pub and Grill",
    "street_address": "1536 Indiana Avenue",
    "city": "Sheboygan",
    "state": "WI",
    "zip_code": "53081",
    "latitude": 43.7434088,
    "longitude": -87.7260287,
    "website": "http://bourbonstreetsheboygan.com/",
    "category": "Bar & Restaurant",
    "types": "restaurant, bar, food, point_of_interest, establishment"
  },
  {
    "place_id": "ChIJnRfp2LenBIgRVJDlxG1eslk",
    "name": "Nine-O-Two on the Avenue",
    "street_address": "902 Indiana Avenue",
    "city": "Sheboygan",
    "state": "WI",
    "zip_code": "53081",
    "latitude": 43.7433205,
    "longitude": -87.714776,
    "website": "http://nineotwosheb.com/",
    "category": "Bar & Restaurant",
    "types": "bar, restaurant, food, point_of_interest, establishment"
  },
  {
    "place_id": "ChIJy2Z_v8anBIgRSnSH2Sgfb1M",
    "name": "Ranieri's Four of A Kind",
    "street_address": "811 Indiana Avenue",
    "city": "Sheboygan",
    "state": "WI",
    "zip_code": "53081",
    "latitude": 43.7430631,
    "longitude": -87.7134872,
    "website": "http://www.fourofakind-sheboygan.com/",
    "category": "Bar & Restaurant",
    "types": "bar, restaurant, food, point_of_interest, establishment"
  },
  {
    "place_id": "ChIJYYd1EK6nBIgRsaScRFB6DoQ",
    "name": "Harbor Grill & Bar",
    "street_address": "905 Indiana Avenue",
    "city": "Sheboygan",
    "state": "WI",
    "zip_code": "53081",
    "latitude": 43.7430599,
    "longitude": -87.7149385,
    "website": "http://www.harborgrillbar.com/",
    "category": "Bar & Restaurant",
    "types": "bar, restaurant, food, point_of_interest, establishment"
  },
  {
    "place_id": "ChIJ7_YmrpqnBIgRyzOyU1a8UNo",
    "name": "What's Up Bar & Grill",
    "street_address": "1635 Michigan Avenue",
    "city": "Sheboygan",
    "state": "WI",
    "zip_code": "53081",
    "latitude": 43.7584295,
    "longitude": -87.7277412,
    "website": "http://whats-up-bar-grill.edan.io/",
    "category": "Bar & Restaurant",
    "types": "bar, restaurant, point_of_interest, food, establishment"
  },
  {
    "place_id": "ChIJT4T5aZWnBIgROM00x8u5eAQ",
    "name": "Suscha's Bar",
    "street_address": "1054 Pennsylvania Avenue",
    "city": "Sheboygan",
    "state": "WI",
    "zip_code": "53081",
    "latitude": 43.7499434,
    "longitude": -87.71844740000002,
    "website": "https://www.facebook.com/suschasbar",
    "category": "Bar & Restaurant",
    "types": "bar, restaurant, point_of_interest, food, establishment"
  },
  {
    "place_id": "ChIJ91flUL-nBIgRYDGsFb2VeTw",
    "name": "J & J's Hotspot",
    "street_address": "1823 North 12th Street",
    "city": "Sheboygan",
    "state": "WI",
    "zip_code": "53081",
    "latitude": 43.76460639999999,
    "longitude": -87.71937109999999,
    "website": null,
    "category": "Bar & Restaurant",
    "types": "bar, restaurant, food, point_of_interest, establishment"
  },
  {
    "place_id": "ChIJMbqXm3mnBIgRqstlyyuEJiM",
    "name": "Superior Bar And Grill",
    "street_address": "2607 Superior Avenue",
    "city": "Sheboygan",
    "state": "WI",
    "zip_code": "53081",
    "latitude": 43.7609551,
    "longitude": -87.7411265,
    "website": null,
    "category": "Bar & Restaurant",
    "types": "bar, restaurant, food, point_of_interest, establishment"
  },
  {
    "place_id": "ChIJUTo2P7SnBIgRI_DW8BEIxt4",
    "name": "BUMP'S GRILL TAVERN, HOME OF THE LIARS CLUB",
    "street_address": "1902 South 12th Street",
    "city": "Sheboygan",
    "state": "WI",
    "zip_code": "53081",
    "latitude": 43.7335752,
    "longitude": -87.7205436,
    "website": "https://bumpsgrilltavern.com/",
    "category": "Bar & Restaurant",
    "types": "restaurant, bar, food, point_of_interest, establishment"
  },
  {
    "place_id": "ChIJtwpI9zamBIgRue7nl_ccXj0",
    "name": "House Divided Sports Bar & Grill",
    "street_address": "840 Wilson Avenue",
    "city": "Sheboygan",
    "state": "WI",
    "zip_code": "53081",
    "latitude": 43.72322569999999,
    "longitude": -87.71454609999999,
    "website": "https://housedividedsportsbar.com/",
    "category": "Bar & Restaurant",
    "types": "bar, restaurant, food, point_of_interest, establishment"
  },
  {
    "place_id": "ChIJra-2K7SnBIgROXCAUUXkE7w",
    "name": "On the House",
    "street_address": "1153 High Avenue",
    "city": "Sheboygan",
    "state": "WI",
    "zip_code": "53081",
    "latitude": 43.7345313,
    "longitude": -87.7201326,
    "website": null,
    "category": "Bar & Restaurant",
    "types": "bar, restaurant, food, point_of_interest, establishment"
  },
  {
    "place_id": "ChIJlbkFIsenBIgRy1ItnufpUKc",
    "name": "Big Mike's Sports Bar And Grill",
    "street_address": "911 Indiana Avenue",
    "city": "Sheboygan",
    "state": "WI",
    "zip_code": "53081",
    "latitude": 43.7429852,
    "longitude": -87.71513770000001,
    "website": null,
    "category": "Bar & Restaurant",
    "types": "bar, restaurant, food, point_of_interest, establishment"
  },
  {
    "place_id": "ChIJaUvgScenBIgR43Lsz2rJHHc",
    "name": "Craft30",
    "street_address": "908 Michigan Avenue",
    "city": "Sheboygan",
    "state": "WI",
    "zip_code": "53081",
    "latitude": 43.7586787,
    "longitude": -87.7150103,
    "website": "http://craft30pub.com/",
    "category": "Bar & Restaurant",
    "types": "bar, restaurant, food, point_of_interest, establishment"
  },
  {
    "place_id": "ChIJSRjVjLanBIgRZpWu215IqAc",
    "name": "Sharpie's On Broadway",
    "street_address": "1645 South 12th Street",
    "city": "Sheboygan",
    "state": "WI",
    "zip_code": "53081",
    "latitude": 43.73597910000001,
    "longitude": -87.72005680000001,
    "website": "http://sharpiesonbroadway.com/",
    "category": "Bar & Restaurant",
    "types": "bar, restaurant, food, point_of_interest, establishment"
  },
  {
    "place_id": "ChIJUfkuqKenBIgRfIWQQnXKb7c",
    "name": "Frankie's Pub & Grill",
    "street_address": "2218 Indiana Avenue",
    "city": "Sheboygan",
    "state": "WI",
    "zip_code": "53081",
    "latitude": 43.74214569999999,
    "longitude": -87.7351128,
    "website": "https://www.frankiespubgrill.com/",
    "category": "Bar & Restaurant",
    "types": "restaurant, bar, food, point_of_interest, establishment"
  },
  {
    "place_id": "ChIJEdnyFeqnBIgRfm7PZo8JKm4",
    "name": "Sly's Midtown Saloon and Grill",
    "street_address": "508 North 8th Street",
    "city": "Sheboygan",
    "state": "WI",
    "zip_code": "53081",
    "latitude": 43.75009070000001,
    "longitude": -87.7132207,
    "website": "http://www.slysbarandgrill.com/",
    "category": "Bar & Restaurant",
    "types": "bar, restaurant, food, point_of_interest, establishment"
  },
  {
    "place_id": "ChIJmW9UJndYA4gRNjmAG0cttTQ",
    "name": "The Silver Fern",
    "street_address": "2538 North 15th Street",
    "city": "Sheboygan",
    "state": "WI",
    "zip_code": "53083",
    "latitude": 43.772371,
    "longitude": -87.7247725,
    "website": "https://www.facebook.com/The-Silver-Fern-Pub-275990048783/timeline/?ref=aymt_homepage_panel",
    "category": "Bar & Restaurant",
    "types": "bar, restaurant, food, point_of_interest, establishment"
  },
  {
    "place_id": "ChIJQ4Tpvn4XBYgRFSbs3P7c9Rk",
    "name": "The Vanguard",
    "street_address": "2659 South Kinnickinnic Avenue",
    "city": "Milwaukee",
    "state": "WI",
    "zip_code": "53207",
    "latitude": 42.99648169999999,
    "longitude": -87.8980503,
    "website": "http://vanguardbar.com/",
    "category": "Bar & Restaurant",
    "types": "bar, restaurant, food, point_of_interest, establishment"
  },
  {
    "place_id": "ChIJC5y5gqgZBYgRiVsH67MVAyk",
    "name": "Central Waters Brewing Co. | Brewery District, Milwaukee",
    "street_address": "1037 West Juneau Avenue",
    "city": "Milwaukee",
    "state": "WI",
    "zip_code": "53233",
    "latitude": 43.045649,
    "longitude": -87.9255215,
    "website": "https://centralwaters.com/milwaukee-tap-room/",
    "category": "Bar & Restaurant",
    "types": "bar, restaurant, food, point_of_interest, establishment"
  },
  {
    "place_id": "ChIJs-X6NMkZBYgR6mG88u9AvMM",
    "name": "The Explorium Brewpub Third Ward",
    "street_address": "143 West Saint Paul Avenue",
    "city": "Milwaukee",
    "state": "WI",
    "zip_code": "53203",
    "latitude": 43.0345354,
    "longitude": -87.91227820000002,
    "website": "https://exploriumbrewpub.com/",
    "category": "Bar & Restaurant",
    "types": "bar, restaurant, food, point_of_interest, establishment"
  },
  {
    "place_id": "ChIJix42fYsaBYgRnAVUBwAC8xA",
    "name": "4th Base Restaurant",
    "street_address": "5117 West National Avenue",
    "city": "West Milwaukee",
    "state": "WI",
    "zip_code": "53214",
    "latitude": 43.0191285,
    "longitude": -87.9775234,
    "website": "https://www.the4thbase.com/",
    "category": "Bar & Restaurant",
    "types": "bar, restaurant, food, point_of_interest, establishment"
  },
  {
    "place_id": "ChIJ6cb4aCIfBYgRE6qtQINWZoU",
    "name": "Draft & Vessel Shorewood",
    "street_address": "4417 North Oakland Avenue",
    "city": "Shorewood",
    "state": "WI",
    "zip_code": "53211",
    "latitude": 43.096058,
    "longitude": -87.8876973,
    "website": "http://www.draftandvessel.com/",
    "category": "Bar & Restaurant",
    "types": "liquor_store, bar, store, restaurant, food, point_of_interest, establishment"
  },
  {
    "place_id": "ChIJAQCQ8aMZBYgR3vlNKbLe6d4",
    "name": "Blue Bat Kitchen & Tequilaria",
    "street_address": "249 North Water Street",
    "city": "Milwaukee",
    "state": "WI",
    "zip_code": "53202",
    "latitude": 43.03363169999999,
    "longitude": -87.9092532,
    "website": "http://www.bluebatkitchen.com/",
    "category": "Bar & Restaurant",
    "types": "restaurant, bar, food, point_of_interest, establishment"
  },
  {
    "place_id": "ChIJL9a1iAMZBYgRglytzH_moHE",
    "name": "The Knick",
    "street_address": "1030 East Juneau Avenue",
    "city": "Milwaukee",
    "state": "WI",
    "zip_code": "53202",
    "latitude": 43.04586119999999,
    "longitude": -87.89851879999999,
    "website": "https://www.theknickrestaurant.com/",
    "category": "Bar & Restaurant",
    "types": "bar, restaurant, point_of_interest, food, establishment"
  },
  {
    "place_id": "ChIJFY3bJMwZBYgRmOlba7QEwb8",
    "name": "WurstBar MKE",
    "street_address": "1239 East Brady Street",
    "city": "Milwaukee",
    "state": "WI",
    "zip_code": "53202",
    "latitude": 43.0527471,
    "longitude": -87.8955867,
    "website": "https://www.wurstbarmke.com/",
    "category": "Bar & Restaurant",
    "types": "bar, restaurant, food, point_of_interest, establishment"
  },
  {
    "place_id": "ChIJo18Co70ZBYgRBqVAjUR3KAg",
    "name": "Shaker's Cigar Bar & World Cafe",
    "street_address": "422 South 2nd Street",
    "city": "Milwaukee",
    "state": "WI",
    "zip_code": "53204",
    "latitude": 43.02677749999999,
    "longitude": -87.9123508,
    "website": "http://www.shakerscigarbar.com/",
    "category": "Bar & Restaurant",
    "types": "restaurant, tourist_attraction, meal_takeaway, bar, food, point_of_interest, establishment"
  },
  {
    "place_id": "ChIJZ1THPQgZBYgRqD2v1h1Avfw",
    "name": "SportClub",
    "street_address": "750 North Jefferson Street",
    "city": "Milwaukee",
    "state": "WI",
    "zip_code": "53202",
    "latitude": 43.04038699999999,
    "longitude": -87.9052111,
    "website": "https://sportclubmke.com/",
    "category": "Bar & Restaurant",
    "types": "bar, restaurant, food, point_of_interest, establishment"
  },
  {
    "place_id": "ChIJKQyEqy8bBYgRtd8aASW0-DI",
    "name": "Colonel Hart's",
    "street_address": "7342 West State Street",
    "city": "Wauwatosa",
    "state": "WI",
    "zip_code": "53213",
    "latitude": 43.04882469999999,
    "longitude": -88.0045878,
    "website": "http://www.facebook.com/colonelharts",
    "category": "Bar & Restaurant",
    "types": "bar, restaurant, food, point_of_interest, establishment"
  },
  {
    "place_id": "ChIJuQCut04FBYgRKbBsMgCAGrU",
    "name": "O'Connor's Perfect Pint",
    "street_address": "8423 West Greenfield Avenue",
    "city": "West Allis",
    "state": "WI",
    "zip_code": "53214",
    "latitude": 43.0164404,
    "longitude": -88.01783089999999,
    "website": null,
    "category": "Bar & Restaurant",
    "types": "bar, restaurant, food, point_of_interest, establishment"
  },
  {
    "place_id": "ChIJJbo91NMaBYgRtdToIKrfDp0",
    "name": "Brewski's Sports Club & BBQ",
    "street_address": "304 North 76th Street",
    "city": "Milwaukee",
    "state": "WI",
    "zip_code": "53213",
    "latitude": 43.0341055,
    "longitude": -88.00699159999999,
    "website": "https://order.online/business/brewskis-sports-club-13377946",
    "category": "Bar & Restaurant",
    "types": "bar, restaurant, food, point_of_interest, establishment"
  },
  {
    "place_id": "ChIJiQIKsPwQBYgR-l34G3-dgTE",
    "name": "Fin 'n Feather",
    "street_address": "4060 West Loomis Road",
    "city": "Milwaukee",
    "state": "WI",
    "zip_code": "53221",
    "latitude": 42.964883,
    "longitude": -87.96633659999999,
    "website": "https://www.facebook.com/finn.feather.9/",
    "category": "Bar & Restaurant",
    "types": "bar, restaurant, food, point_of_interest, establishment"
  },
  {
    "place_id": "ChIJsfZru9cbBYgR4w9qZUHzrYE",
    "name": "Bud's Bar and Grill",
    "street_address": "4532 West Burleigh Street",
    "city": "Milwaukee",
    "state": "WI",
    "zip_code": "53210",
    "latitude": 43.0754051,
    "longitude": -87.9708617,
    "website": null,
    "category": "Bar & Restaurant",
    "types": "bar, restaurant, food, point_of_interest, establishment"
  },
  {
    "place_id": "ChIJ1b79MycbBYgRGzsIdfUESM8",
    "name": "Magoo's on the Mound",
    "street_address": "5841 West Bluemound Road",
    "city": "Milwaukee",
    "state": "WI",
    "zip_code": "53213",
    "latitude": 43.03620119999999,
    "longitude": -87.9858283,
    "website": "http://magoos.biz/",
    "category": "Bar & Restaurant",
    "types": "bar, restaurant, food, point_of_interest, establishment"
  },
  {
    "place_id": "ChIJ06CwEqkFBYgRCEB3ZpP52iQ",
    "name": "Jackson's Blue Ribbon Pub of Wauwatosa",
    "street_address": "11302 West Bluemound Road",
    "city": "Wauwatosa",
    "state": "WI",
    "zip_code": "53226",
    "latitude": 43.035995,
    "longitude": -88.054279,
    "website": "https://jacksonsblueribbonpub.com/",
    "category": "Bar & Restaurant",
    "types": "bar, restaurant, food, point_of_interest, establishment"
  },
  {
    "place_id": "ChIJ-ePreC8bBYgRiZ0QFHXaIB8",
    "name": "Leff's Lucky Town",
    "street_address": "7208 West State Street",
    "city": "Wauwatosa",
    "state": "WI",
    "zip_code": "53213",
    "latitude": 43.04819390000001,
    "longitude": -88.00250670000001,
    "website": "http://www.leffs.com/",
    "category": "Bar & Restaurant",
    "types": "bar, restaurant, food, point_of_interest, establishment"
  },
  {
    "place_id": "ChIJpTBYqUwFBYgR3MqH29LR1QE",
    "name": "Paulie's Pub & Eatery",
    "street_address": "8031 West Greenfield Avenue",
    "city": "West Allis",
    "state": "WI",
    "zip_code": "53214",
    "latitude": 43.0163805,
    "longitude": -88.0126891,
    "website": "http://pauliespubandeatery.com/",
    "category": "Bar & Restaurant",
    "types": "restaurant, bar, point_of_interest, food, establishment"
  },
  {
    "place_id": "ChIJi14voJAFBYgRVZfZ4fUqCRg",
    "name": "Brass Monkey Pub",
    "street_address": "11904 West Greenfield Avenue",
    "city": "West Allis",
    "state": "WI",
    "zip_code": "53214",
    "latitude": 43.0167702,
    "longitude": -88.061011,
    "website": "https://brassmonkeypubandgrill.com/",
    "category": "Bar & Restaurant",
    "types": "bar, restaurant, food, point_of_interest, establishment"
  },
  {
    "place_id": "ChIJx0LXHjcFBYgR2GGOKcAcsWM",
    "name": "Ferch's Crafthouse Grille",
    "street_address": "418 North Mayfair Road",
    "city": "Wauwatosa",
    "state": "WI",
    "zip_code": "53226",
    "latitude": 43.0358686,
    "longitude": -88.0463695,
    "website": "http://ferchscrafthouse.com/",
    "category": "Bar & Restaurant",
    "types": "restaurant, bar, food, point_of_interest, establishment"
  },
  {
    "place_id": "ChIJB1R57wYFBYgRomX5ZU3GEXs",
    "name": "Mo's Irish Pub Wauwatosa",
    "street_address": "10842 West Bluemound Road",
    "city": "Wauwatosa",
    "state": "WI",
    "zip_code": "53226",
    "latitude": 43.035643,
    "longitude": -88.04790039999999,
    "website": "https://mosirishpub.com/wauwatosa/",
    "category": "Bar & Restaurant",
    "types": "bar, restaurant, food, point_of_interest, establishment"
  },
  {
    "place_id": "ChIJT2PR9nUeBYgRsxWcFFoAe6g",
    "name": "The Brick Pub and Grill",
    "street_address": "6343 North Green Bay Avenue",
    "city": "Glendale",
    "state": "WI",
    "zip_code": "53209",
    "latitude": 43.1326694,
    "longitude": -87.93272499999999,
    "website": "http://www.thebrickpubandgrill.com/",
    "category": "Bar & Restaurant",
    "types": "bar, restaurant, food, point_of_interest, establishment"
  }
]