[
  {
    "place_id": "ChIJTw4x108zs1IRx-lCiH8BqOA",
    "name": "Luna & The Bear - Kitchen & Libation House",
    "street_address": "18 West 26th Street",
    "city": "Minneapolis",
    "state": "MN",
    "zip_code": "55404",
    "latitude": 44.9556554,
    "longitude": -93.2785174,
    "website": "http://www.lunaandthebearmn.com/",
    "category": "Bar & Restaurant",
    "types": "bar, restaurant, food, point_of_interest, establishment"
  },
  {
    "place_id": "ChIJwQMAd8DLj4ARxETHpYQPprs",
    "name": "Brit's Pub",
    "street_address": "1110 Nicollet Mall",
    "city": "Minneapolis",
    "state": "MN",
    "zip_code": "55403",
    "latitude": 44.9727991,
    "longitude": -93.2760876,
    "website": "https://britspub.com/",
    "category": "Bar & Restaurant",
    "types": "bar, restaurant, food, point_of_interest, establishment"
  },
  {
    "place_id": "ChIJzQqnzIQzs1IRRumr4wyrfdo",
    "name": "Tom's Watch Bar - Minneapolis",
    "street_address": "609 Hennepin Avenue",
    "city": "Minneapolis",
    "state": "MN",
    "zip_code": "55403",
    "latitude": 44.9784843,
    "longitude": -93.2737437,
    "website": "https://tomswatchbar.com/minneapolis/",
    "category": "Bar & Restaurant",
    "types": "restaurant, bar, point_of_interest, food, establishment"
  },
  {
    "place_id": "ChIJqTaK4JQys1IROxfon1zGOJ0",
    "name": "Crooked Pint Ale House",
    "street_address": "501 Washington Avenue South",
    "city": "Minneapolis",
    "state": "MN",
    "zip_code": "55415",
    "latitude": 44.9783604,
    "longitude": -93.26117459999999,
    "website": "https://www.crookedpint.com/minneapolis/",
    "category": "Bar & Restaurant",
    "types": "bar, restaurant, food, point_of_interest, establishment"
  },
  {
    "place_id": "ChIJZ9TfCZQys1IR78YqPC1M7NU",
    "name": "The Local - Minneapolis",
    "street_address": "931 Nicollet Mall",
    "city": "Minneapolis",
    "state": "MN",
    "zip_code": "55402",
    "latitude": 44.9740718,
    "longitude": -93.2744302,
    "website": "https://thelocalminneapolis.com/",
    "category": "Bar & Restaurant",
    "types": "bar, restaurant, food, point_of_interest, establishment"
  },
  {
    "place_id": "ChIJ5edqYJYys1IR4Qs1AHmx7rU",
    "name": "The News Room",
    "street_address": "990 Nicollet Mall",
    "city": "Minneapolis",
    "state": "MN",
    "zip_code": "55403",
    "latitude": 44.9741923,
    "longitude": -93.2747754,
    "website": "http://www.thenewsroommpls.com/home.aspx",
    "category": "Bar & Restaurant",
    "types": "bar, restaurant, food, point_of_interest, establishment"
  },
  {
    "place_id": "ChIJ2QlXdJQys1IRf93_1A45oxA",
    "name": "Mackenzie Pub",
    "street_address": "918 Hennepin Avenue",
    "city": "Minneapolis",
    "state": "MN",
    "zip_code": "55403",
    "latitude": 44.9763263,
    "longitude": -93.2776548,
    "website": "http://www.mackenziepub.com/",
    "category": "Bar & Restaurant",
    "types": "bar, restaurant, food, point_of_interest, establishment"
  },
  {
    "place_id": "ChIJjUqJ2uIzs1IR2_fjv64pauE",
    "name": "The Prodigal Public House",
    "street_address": "25 East 26th Street",
    "city": "Minneapolis",
    "state": "MN",
    "zip_code": "55404",
    "latitude": 44.9553935,
    "longitude": -93.2767506,
    "website": "https://www.prodigalpub.com/",
    "category": "Bar & Restaurant",
    "types": "bar, restaurant, food, point_of_interest, establishment"
  },
  {
    "place_id": "ChIJKReefAYts1IR4wPZE8Fotzc",
    "name": "Blue Door Pub University",
    "street_address": "1514 Como Avenue Southeast",
    "city": "Minneapolis",
    "state": "MN",
    "zip_code": "55414",
    "latitude": 44.987642,
    "longitude": -93.22971179999999,
    "website": "http://www.thebdp.com/",
    "category": "Bar & Restaurant",
    "types": "bar, restaurant, food, point_of_interest, establishment"
  },
  {
    "place_id": "ChIJm3s_t5wts1IRNqQmy70ORmM",
    "name": "Spring Street Tavern",
    "street_address": "355 Monroe Street Northeast",
    "city": "Minneapolis",
    "state": "MN",
    "zip_code": "55413",
    "latitude": 44.9948452,
    "longitude": -93.2519344,
    "website": "https://www.springstreettavern.com/",
    "category": "Bar & Restaurant",
    "types": "bar, restaurant, food, point_of_interest, establishment"
  },
  {
    "place_id": "ChIJeWq3s2Yts1IRiPxDLTFTDyc",
    "name": "Pog Mahone's Pub & Grill",
    "street_address": "903 Washington Avenue South",
    "city": "Minneapolis",
    "state": "MN",
    "zip_code": "55415",
    "latitude": 44.97622639999999,
    "longitude": -93.2559172,
    "website": "http://www.pogmahonesmn.com/",
    "category": "Bar & Restaurant",
    "types": "bar, restaurant, food, point_of_interest, establishment"
  },
  {
    "place_id": "ChIJdUFpxPUts1IR516taNFpA7A",
    "name": "Stanley's Northeast Bar Room",
    "street_address": "2500 University Avenue Northeast",
    "city": "Minneapolis",
    "state": "MN",
    "zip_code": "55418",
    "latitude": 45.0133333,
    "longitude": -93.263275,
    "website": "https://www.stanleysbarroom.com/",
    "category": "Restaurant",
    "types": "restaurant, food, point_of_interest, establishment"
  },
  {
    "place_id": "ChIJqyZT1Gkts1IRJ1ZIyb3QoBM",
    "name": "The Corner Bar",
    "street_address": "1501 Washington Avenue South",
    "city": "Minneapolis",
    "state": "MN",
    "zip_code": "55454",
    "latitude": 44.9728458,
    "longitude": -93.24770009999999,
    "website": "http://thecorner.bar/",
    "category": "Bar & Restaurant",
    "types": "bar, restaurant, food, point_of_interest, establishment"
  },
  {
    "place_id": "ChIJ3xI-XoUys1IR7YAsKufr344",
    "name": "Jackson's Hole Bar & Grill",
    "street_address": "106 North 3rd Street",
    "city": "Minneapolis",
    "state": "MN",
    "zip_code": "55401",
    "latitude": 44.98242339999999,
    "longitude": -93.27149589999999,
    "website": "http://www.jacksonsholempls.com/",
    "category": "Bar & Restaurant",
    "types": "bar, restaurant, food, point_of_interest, establishment"
  },
  {
    "place_id": "ChIJdf_VWIQts1IRHCoViUkBiGc",
    "name": "Off the Rails",
    "street_address": "620 South 4th Street",
    "city": "Minneapolis",
    "state": "MN",
    "zip_code": "55415",
    "latitude": 44.9763109,
    "longitude": -93.260923,
    "website": "http://www.offtherailsmn.com/",
    "category": "Bar & Restaurant",
    "types": "bar, restaurant, food, point_of_interest, establishment"
  },
  {
    "place_id": "ChIJE1VOymcts1IR2cbeLk0ixzU",
    "name": "Maxwell's American Pub",
    "street_address": "1201 Washington Avenue South",
    "city": "Minneapolis",
    "state": "MN",
    "zip_code": "55415",
    "latitude": 44.9745669,
    "longitude": -93.251814,
    "website": "http://www.maxwellsbar.net/",
    "category": "Bar & Restaurant",
    "types": "bar, restaurant, food, point_of_interest, establishment"
  },
  {
    "place_id": "ChIJMwfmRh4zs1IRRN7LNhSfJ2I",
    "name": "TAP IN Kitchen & Cocktails",
    "street_address": "2618 Lowry Avenue North",
    "city": "Minneapolis",
    "state": "MN",
    "zip_code": "55411",
    "latitude": 45.0135308,
    "longitude": -93.3142247,
    "website": "http://tapinmn.com/",
    "category": "Restaurant",
    "types": "restaurant, food, point_of_interest, establishment"
  },
  {
    "place_id": "ChIJsZyJ9JAys1IR-vDKzbkzOxk",
    "name": "Lyon's Pub",
    "street_address": "16 South 6th Street",
    "city": "Minneapolis",
    "state": "MN",
    "zip_code": "55402",
    "latitude": 44.97862,
    "longitude": -93.272803,
    "website": "http://lyonspub.com/",
    "category": "Bar & Restaurant",
    "types": "bar, restaurant, food, point_of_interest, establishment"
  },
  {
    "place_id": "ChIJCY0h_3wts1IR4YBcRarENmM",
    "name": "Como Tap",
    "street_address": "2124 Como Avenue Southeast",
    "city": "Minneapolis",
    "state": "MN",
    "zip_code": "55414",
    "latitude": 44.98771989999999,
    "longitude": -93.2218206,
    "website": "http://comotap.com/",
    "category": "Bar & Restaurant",
    "types": "restaurant, bar, food, point_of_interest, establishment"
  },
  {
    "place_id": "ChIJqYmRqewn9ocRxCZompgPsCs",
    "name": "Pat's Tap",
    "street_address": "3510 Nicollet Avenue",
    "city": "Minneapolis",
    "state": "MN",
    "zip_code": "55408",
    "latitude": 44.93923959999999,
    "longitude": -93.2781693,
    "website": "http://patstap.com/",
    "category": "Bar & Restaurant",
    "types": "bar, restaurant, food, point_of_interest, establishment"
  },
  {
    "place_id": "ChIJWcUku0co9ocRYBcO_QRpXio",
    "name": "Cardinal Restaurant and Bar",
    "street_address": "2920 East 38th Street",
    "city": "Minneapolis",
    "state": "MN",
    "zip_code": "55406",
    "latitude": 44.9342243,
    "longitude": -93.2299658,
    "website": "http://cardinaltavern.com/",
    "category": "Bar & Restaurant",
    "types": "bar, restaurant, food, point_of_interest, establishment"
  },
  {
    "place_id": "ChIJXYwlbpEys1IRsIvOH7UV0qM",
    "name": "The Depot Tavern",
    "street_address": "17 North 7th Street",
    "city": "Minneapolis",
    "state": "MN",
    "zip_code": "55403",
    "latitude": 44.9783469,
    "longitude": -93.275638,
    "website": "http://thedepottavern.com/",
    "category": "Bar & Restaurant",
    "types": "bar, restaurant, food, point_of_interest, establishment"
  },
  {
    "place_id": "ChIJFYana5cys1IRrB-CQEt0Pwk",
    "name": "8th Street Grill",
    "street_address": "800 South Marquette Avenue",
    "city": "Minneapolis",
    "state": "MN",
    "zip_code": "55402",
    "latitude": 44.9752879,
    "longitude": -93.2719745,
    "website": "http://www.8thstreetgrillmn.com/",
    "category": "Bar & Restaurant",
    "types": "bar, restaurant, food, point_of_interest, establishment"
  },
  {
    "place_id": "ChIJrbl2S9czs1IRlDsSr5x6E-g",
    "name": "Bar Rufus",
    "street_address": "527 South Marquette Avenue",
    "city": "Minneapolis",
    "state": "MN",
    "zip_code": "55402",
    "latitude": 44.9773586,
    "longitude": -93.2696442,
    "website": "https://www.marriott.com/en-us/hotels/msptr-rand-tower-minneapolis-a-tribute-portfolio-hotel/dining/bar-rufus/",
    "category": "Bar & Restaurant",
    "types": "restaurant, cafe, bar, store, food, point_of_interest, establishment"
  },
  {
    "place_id": "ChIJpVLNg4Yn9ocRnhnZ19b02jc",
    "name": "Morrissey's Irish Pub",
    "street_address": "913 West Lake Street",
    "city": "Minneapolis",
    "state": "MN",
    "zip_code": "55408",
    "latitude": 44.9482507,
    "longitude": -93.29134649999999,
    "website": "http://morrisseysuptown.com/",
    "category": "Bar & Restaurant",
    "types": "bar, restaurant, food, point_of_interest, establishment"
  },
  {
    "place_id": "ChIJvZgyRUIts1IR8Sf9NXUQO9k",
    "name": "Acadia",
    "street_address": "329 Cedar Avenue",
    "city": "Minneapolis",
    "state": "MN",
    "zip_code": "55454",
    "latitude": 44.97023679999999,
    "longitude": -93.2469862,
    "website": "http://www.acadiacafe.com/",
    "category": "Bar & Restaurant",
    "types": "cafe, bar, restaurant, food, point_of_interest, establishment"
  },
  {
    "place_id": "ChIJC-nvkxEts1IRCwUca3ydW5E",
    "name": "Blarney Pub & Grill",
    "street_address": "412 14th Avenue Southeast",
    "city": "Minneapolis",
    "state": "MN",
    "zip_code": "55414",
    "latitude": 44.9808755,
    "longitude": -93.23539579999999,
    "website": "http://www.blarneymn.com/",
    "category": "Bar & Restaurant",
    "types": "bar, restaurant, food, point_of_interest, establishment"
  },
  {
    "place_id": "ChIJyS8tyJwts1IRyACO75IKa5Q",
    "name": "NE Moose Bar & Grill",
    "street_address": "356 Monroe Street Northeast",
    "city": "Minneapolis",
    "state": "MN",
    "zip_code": "55413",
    "latitude": 44.9948258,
    "longitude": -93.2529192,
    "website": "http://www.moosene.com/",
    "category": "Bar & Restaurant",
    "types": "bar, restaurant, food, point_of_interest, establishment"
  },
  {
    "place_id": "ChIJt2yxbIkys1IRAuDBAqj1x7g",
    "name": "The Loop - Minneapolis",
    "street_address": "606 North Washington Avenue",
    "city": "Minneapolis",
    "state": "MN",
    "zip_code": "55401",
    "latitude": 44.9872972,
    "longitude": -93.2761201,
    "website": "http://theloopmpls.com/",
    "category": "Bar & Restaurant",
    "types": "restaurant, bar, food, point_of_interest, establishment"
  },
  {
    "place_id": "ChIJWXJFzWkts1IRc_B_voNR6xY",
    "name": "Town Hall Brewery",
    "street_address": "1430 Washington Avenue South",
    "city": "Minneapolis",
    "state": "MN",
    "zip_code": "55454",
    "latitude": 44.9733333,
    "longitude": -93.2477778,
    "website": "http://townhallbrewery.com/",
    "category": "Bar & Restaurant",
    "types": "bar, restaurant, food, point_of_interest, establishment"
  },
  {
    "place_id": "ChIJObThls0ys1IRoITXyZDymBM",
    "name": "The Bulldog Uptown",
    "street_address": "2549 Lyndale Avenue South",
    "city": "Minneapolis",
    "state": "MN",
    "zip_code": "55405",
    "latitude": 44.9559091,
    "longitude": -93.28772459999999,
    "website": "http://thebulldoguptown.com/",
    "category": "Bar & Restaurant",
    "types": "bar, restaurant, food, point_of_interest, establishment"
  },
  {
    "place_id": "ChIJmQn-mRgts1IRqleEZitu_oA",
    "name": "Stub and Herbs",
    "street_address": "227 Southeast Oak Street",
    "city": "Minneapolis",
    "state": "MN",
    "zip_code": "55414",
    "latitude": 44.9738725,
    "longitude": -93.2269183,
    "website": "http://www.stubandherbsbar.com/",
    "category": "Bar & Restaurant",
    "types": "bar, restaurant, food, point_of_interest, establishment"
  },
  {
    "place_id": "ChIJXZaAUDAss1IRU9dNljVGe5Y",
    "name": "Village Pub",
    "street_address": "2720 County Road 88",
    "city": "Saint Anthony",
    "state": "MN",
    "zip_code": "55418",
    "latitude": 45.0171431,
    "longitude": -93.21814959999999,
    "website": "http://www.stanthonyvillagepub.com/",
    "category": "Bar & Restaurant",
    "types": "bar, restaurant, food, point_of_interest, establishment"
  },
  {
    "place_id": "ChIJVaCzlnAys1IRWN037-id608",
    "name": "Dusty's Bar",
    "street_address": "1319 Marshall Street Northeast",
    "city": "Minneapolis",
    "state": "MN",
    "zip_code": "55413",
    "latitude": 45.0007702,
    "longitude": -93.2701598,
    "website": "https://dustysbaranddagos.com/",
    "category": "Bar & Restaurant",
    "types": "bar, restaurant, food, point_of_interest, establishment"
  },
  {
    "place_id": "ChIJ8-8sa48ys1IR8Izmr5fvspM",
    "name": "The Office Pub & Grill",
    "street_address": "307 North Washington Avenue",
    "city": "Minneapolis",
    "state": "MN",
    "zip_code": "55401",
    "latitude": 44.984575,
    "longitude": -93.2730639,
    "website": "http://theofficepubandgrill.com/",
    "category": "Bar & Restaurant",
    "types": "bar, restaurant, food, point_of_interest, establishment"
  },
  {
    "place_id": "ChIJIZcZqXkts1IR5SzkzYlXKVA",
    "name": "Whitey's Old Town Saloon",
    "street_address": "400 East Hennepin Avenue",
    "city": "Minneapolis",
    "state": "MN",
    "zip_code": "55414",
    "latitude": 44.988338,
    "longitude": -93.25455040000001,
    "website": "http://oldtownne.com/",
    "category": "Bar & Restaurant",
    "types": "bar, restaurant, food, point_of_interest, establishment"
  },
  {
    "place_id": "ChIJwwe_spEys1IRGuzKUMZFCqo",
    "name": "Gluek's Restaurant & Bar",
    "street_address": "16 North 6th Street",
    "city": "Minneapolis",
    "state": "MN",
    "zip_code": "55403",
    "latitude": 44.9793575,
    "longitude": -93.2741417,
    "website": "http://www.glueks.com/",
    "category": "Bar & Restaurant",
    "types": "bar, restaurant, food, point_of_interest, establishment"
  },
  {
    "place_id": "ChIJk7B37xUo9ocRZePdz94McMA",
    "name": "Chatterbox Pub",
    "street_address": "2229 East 35th Street",
    "city": "Minneapolis",
    "state": "MN",
    "zip_code": "55407",
    "latitude": 44.9393827,
    "longitude": -93.2391533,
    "website": "http://www.chatterboxpub.net/",
    "category": "Bar & Restaurant",
    "types": "bar, restaurant, food, point_of_interest, establishment"
  },
  {
    "place_id": "ChIJ1X4M8kszs1IRh_nI5DR7axc",
    "name": "The Rooftop Bar",
    "street_address": "515 North Washington Avenue",
    "city": "Minneapolis",
    "state": "MN",
    "zip_code": "55401",
    "latitude": 44.9862076,
    "longitude": -93.2755368,
    "website": "http://www.rooftopbarmpls.com/",
    "category": "Restaurant",
    "types": "restaurant, food, point_of_interest, establishment"
  },
  {
    "place_id": "ChIJ7fYSZcUys1IR1PRcjN-kMw0",
    "name": "Mortimer's Bar and Restaurant",
    "street_address": "2001 Lyndale Avenue South",
    "city": "Minneapolis",
    "state": "MN",
    "zip_code": "55405",
    "latitude": 44.9625515,
    "longitude": -93.2877002,
    "website": "https://www.mortimersbar.com/",
    "category": "Bar & Restaurant",
    "types": "bar, restaurant, food, point_of_interest, establishment"
  },
  {
    "place_id": "ChIJoWDEf5Eys1IRmnrK8hwqYog",
    "name": "O'Donovan's Irish Pub",
    "street_address": "700 North 1st Avenue",
    "city": "Minneapolis",
    "state": "MN",
    "zip_code": "55403",
    "latitude": 44.97865160000001,
    "longitude": -93.2765568,
    "website": "http://www.odonovans.com/",
    "category": "Bar & Restaurant",
    "types": "bar, restaurant, food, point_of_interest, establishment"
  },
  {
    "place_id": "ChIJKzOP65Qys1IRIwASstOhIRs",
    "name": "The Bulldog Downtown",
    "street_address": "1111 Hennepin Avenue",
    "city": "Minneapolis",
    "state": "MN",
    "zip_code": "55403",
    "latitude": 44.9748882,
    "longitude": -93.279443,
    "website": "http://thebulldogdowntown.com/",
    "category": "Bar & Restaurant",
    "types": "meal_takeaway, bar, restaurant, food, point_of_interest, establishment"
  },
  {
    "place_id": "ChIJG6IzdlY1s1IRBOMjUwJVcPw",
    "name": "The Local - West End",
    "street_address": "1607 Park Place Boulevard",
    "city": "St. Louis Park",
    "state": "MN",
    "zip_code": "55416",
    "latitude": 44.96744990000001,
    "longitude": -93.3489824,
    "website": "https://thelocalwestend.com/",
    "category": "Bar & Restaurant",
    "types": "bar, restaurant, food, point_of_interest, establishment"
  },
  {
    "place_id": "ChIJj5S9EaM0s1IRiJDGK-o1LhA",
    "name": "Yard House",
    "street_address": "1665 Park Place Boulevard",
    "city": "St. Louis Park",
    "state": "MN",
    "zip_code": "55416",
    "latitude": 44.96653000000001,
    "longitude": -93.34895999999999,
    "website": "https://www.yardhouse.com/locations/mn/saint-louis-park/st-louis-park-the-shops-at-west-end/8354?cmpid=br:yh_ag:ie_ch:loc_ca:YHGMB_sn:gmb_gt:saint-louis-park-mn-8354_pl:locurl_rd:1051",
    "category": "Bar & Restaurant",
    "types": "meal_takeaway, bar, restaurant, food, point_of_interest, establishment"
  },
  {
    "place_id": "ChIJy3VuDNgts1IRRHLfCsYGDHs",
    "name": "The Briar",
    "street_address": "1231 Washington Street Northeast",
    "city": "Minneapolis",
    "state": "MN",
    "zip_code": "55413",
    "latitude": 45.0007491,
    "longitude": -93.2573541,
    "website": "https://www.briarbar.com/",
    "category": "Bar & Restaurant",
    "types": "cafe, bar, store, restaurant, food, point_of_interest, establishment"
  },
  {
    "place_id": "ChIJ1cGsvn4ts1IR3puvn6kWZbw",
    "name": "Celio",
    "street_address": "130 East Hennepin Avenue",
    "city": "Minneapolis",
    "state": "MN",
    "zip_code": "55414",
    "latitude": 44.9872069,
    "longitude": -93.2580867,
    "website": "https://www.celio-ne.com/",
    "category": "Bar & Restaurant",
    "types": "restaurant, night_club, bar, food, point_of_interest, establishment"
  },
  {
    "place_id": "ChIJzxizBYUys1IRDx_NN0FVbNE",
    "name": "Red Cow North Loop",
    "street_address": "208 North 1st Avenue",
    "city": "Minneapolis",
    "state": "MN",
    "zip_code": "55401",
    "latitude": 44.9836293,
    "longitude": -93.2696891,
    "website": "https://redcowmn.com/minneapolis-north-loop/",
    "category": "Bar & Restaurant",
    "types": "restaurant, bar, meal_takeaway, food, point_of_interest, establishment"
  },
  {
    "place_id": "ChIJO0vUunsts1IRl9Dz-4LhB_k",
    "name": "Aster Cafe",
    "street_address": "125 Southeast Main Street",
    "city": "Minneapolis",
    "state": "MN",
    "zip_code": "55414",
    "latitude": 44.98452559999999,
    "longitude": -93.2550522,
    "website": "http://astercafe.com/?y_source=1_NjE4OTYwOC03MTUtbG9jYXRpb24ud2Vic2l0ZQ%3D%3D",
    "category": "Bar & Restaurant",
    "types": "restaurant, cafe, bar, food, point_of_interest, establishment"
  },
  {
    "place_id": "ChIJUzMeMpYys1IRENVDzFNLZG4",
    "name": "Ten 01 Social",
    "street_address": "1001 South Marquette Avenue",
    "city": "Minneapolis",
    "state": "MN",
    "zip_code": "55403",
    "latitude": 44.972659,
    "longitude": -93.27300699999999,
    "website": "https://www.hilton.com/en/hotels/mspmhhh-hilton-minneapolis/dining/?y_source=1_MTAxMTI0Njg5Ni03MTUtbG9jYXRpb24ud2Vic2l0ZQ%3D%3D",
    "category": "Bar & Restaurant",
    "types": "bar, restaurant, food, point_of_interest, establishment"
  },
  {
    "place_id": "ChIJxUUt0Z0ys1IRmeWcLRkgY74",
    "name": "Bar Zia",
    "street_address": "420 South 4th Street",
    "city": "Minneapolis",
    "state": "MN",
    "zip_code": "55415",
    "latitude": 44.977284,
    "longitude": -93.26335,
    "website": "http://www.thebarzia.com/",
    "category": "Bar & Restaurant",
    "types": "bar, restaurant, food, point_of_interest, establishment"
  },
  {
    "place_id": "ChIJKYKtXkUss1IRCVE74CtAsfo",
    "name": "Twin Cities 400 Tavern",
    "street_address": "1330 Industrial Boulevard Northeast",
    "city": "Minneapolis",
    "state": "MN",
    "zip_code": "55413",
    "latitude": 45.0025711,
    "longitude": -93.21233989999999,
    "website": "https://www.tc400tavern.com/",
    "category": "Bar & Restaurant",
    "types": "restaurant, bar, food, point_of_interest, establishment"
  },
  {
    "place_id": "ChIJq_g1PqQzs1IRu3_R9_63M30",
    "name": "Bricksworth Beer Co.",
    "street_address": "305 North 5th Avenue",
    "city": "Minneapolis",
    "state": "MN",
    "zip_code": "55401",
    "latitude": 44.9847512,
    "longitude": -93.2756488,
    "website": "https://www.bricksworthbeer.co/north-loop-home",
    "category": "Bar & Restaurant",
    "types": "restaurant, bar, food, point_of_interest, establishment"
  },
  {
    "place_id": "ChIJWQwWOYoys1IRpXazSG4jUI8",
    "name": "The Freehouse",
    "street_address": "701 North Washington Avenue",
    "city": "Minneapolis",
    "state": "MN",
    "zip_code": "55401",
    "latitude": 44.9877448,
    "longitude": -93.27742669999999,
    "website": "https://www.freehousempls.com/",
    "category": "Restaurant",
    "types": "restaurant, food, point_of_interest, establishment"
  },
  {
    "place_id": "ChIJaZGkSaI0s1IR4KXuICXDEBw",
    "name": "The Loop West End",
    "street_address": "5331 West 16th Street",
    "city": "Minneapolis",
    "state": "MN",
    "zip_code": "55416",
    "latitude": 44.9677932,
    "longitude": -93.3472604,
    "website": "http://theloopwestend.com/",
    "category": "Bar & Restaurant",
    "types": "bar, restaurant, food, point_of_interest, establishment"
  },
  {
    "place_id": "ChIJX4MXMokys1IRzjQlfPDt8jE",
    "name": "Cuzzy's Grill & Bar",
    "street_address": "507 North Washington Avenue",
    "city": "Minneapolis",
    "state": "MN",
    "zip_code": "55401",
    "latitude": 44.98620469999999,
    "longitude": -93.2752031,
    "website": "http://www.cuzzys.com/",
    "category": "Bar & Restaurant",
    "types": "bar, restaurant, food, point_of_interest, establishment"
  },
  {
    "place_id": "ChIJpcQ6D5cys1IRGIkZfb0UOUg",
    "name": "Hell's Kitchen Inc.",
    "street_address": "80 South 9th Street",
    "city": "Minneapolis",
    "state": "MN",
    "zip_code": "55402",
    "latitude": 44.9747391,
    "longitude": -93.273005,
    "website": "http://www.hellskitcheninc.com/",
    "category": "Bar & Restaurant",
    "types": "bar, restaurant, food, point_of_interest, establishment"
  },
  {
    "place_id": "ChIJsROxNKAn9ocRov8w-M6cMec",
    "name": "Tap Society",
    "street_address": "4555 Grand Avenue South",
    "city": "Minneapolis",
    "state": "MN",
    "zip_code": "55419",
    "latitude": 44.9197686,
    "longitude": -93.28419009999999,
    "website": "https://www.tapsociety.com/",
    "category": "Bar & Restaurant",
    "types": "bar, restaurant, food, point_of_interest, establishment"
  },
  {
    "place_id": "ChIJuYJNUCsm9ocRZf1o2r9DYvY",
    "name": "Town Hall Tap",
    "street_address": "4810 Chicago Avenue",
    "city": "Minneapolis",
    "state": "MN",
    "zip_code": "55417",
    "latitude": 44.915762,
    "longitude": -93.262925,
    "website": "http://townhalltap.com/",
    "category": "Bar & Restaurant",
    "types": "bar, restaurant, food, point_of_interest, establishment"
  },
  {
    "place_id": "ChIJ7eK487Ess1IR-RYXvxZfD0s",
    "name": "The Dubliner Pub",
    "street_address": "2162 University Avenue West",
    "city": "Saint Paul",
    "state": "MN",
    "zip_code": "55114",
    "latitude": 44.96051969999999,
    "longitude": -93.18964,
    "website": "http://thedublinerpub.com/",
    "category": "Bar & Restaurant",
    "types": "meal_takeaway, bar, restaurant, food, point_of_interest, establishment"
  },
  {
    "place_id": "ChIJ60lRMx8r9ocRfBov7Qt4GBw",
    "name": "Pauly's Pub & Grill",
    "street_address": "1668 Selby Avenue",
    "city": "Saint Paul",
    "state": "MN",
    "zip_code": "55104",
    "latitude": 44.94638080000001,
    "longitude": -93.1710823,
    "website": "https://www.paulyspubandgrill.com/",
    "category": "Bar & Restaurant",
    "types": "bar, restaurant, food, point_of_interest, establishment"
  },
  {
    "place_id": "ChIJXapw0Qwys1IRTSt-A9SR_WE",
    "name": "The Sample Room",
    "street_address": "2124 Marshall Street Northeast",
    "city": "Minneapolis",
    "state": "MN",
    "zip_code": "55418",
    "latitude": 45.0095414,
    "longitude": -93.27198890000001,
    "website": "http://the-sample-room.com/",
    "category": "Bar & Restaurant",
    "types": "bar, restaurant, food, point_of_interest, establishment"
  },
  {
    "place_id": "ChIJN55LK1Qo9ocRwkSM-Snn4co",
    "name": "Bull's Horn Food and Drink",
    "street_address": "4563 South 34th Avenue",
    "city": "Minneapolis",
    "state": "MN",
    "zip_code": "55406",
    "latitude": 44.9198093,
    "longitude": -93.222725,
    "website": "https://www.bullshornfoodanddrink.com/",
    "category": "Bar & Restaurant",
    "types": "bar, restaurant, food, point_of_interest, establishment"
  },
  {
    "place_id": "ChIJbUxnWE0o9ocRP2qXL7Qh1Ro",
    "name": "Blue Door Pub Longfellow",
    "street_address": "3448 42nd Avenue South",
    "city": "Minneapolis",
    "state": "MN",
    "zip_code": "55406",
    "latitude": 44.939803,
    "longitude": -93.21302999999999,
    "website": "http://www.thebdp.com/",
    "category": "Bar & Restaurant",
    "types": "bar, restaurant, food, point_of_interest, establishment"
  },
  {
    "place_id": "ChIJ1QcgOkco9ocR2aQTns3afhI",
    "name": "Northbound Smokehouse & Brewpub",
    "street_address": "2716 East 38th Street",
    "city": "Minneapolis",
    "state": "MN",
    "zip_code": "55406",
    "latitude": 44.934252,
    "longitude": -93.2324385,
    "website": "http://northboundbrewpub.com/",
    "category": "Bar & Restaurant",
    "types": "bar, restaurant, food, point_of_interest, establishment"
  },
  {
    "place_id": "ChIJQ3omGLQp9ocR2P4G8F9gP0Y",
    "name": "Gus Gus",
    "street_address": "128 Cleveland Avenue North",
    "city": "Saint Paul",
    "state": "MN",
    "zip_code": "55104",
    "latitude": 44.9453618,
    "longitude": -93.18710659999999,
    "website": "https://www.gusgusmn.com/",
    "category": "Bar & Restaurant",
    "types": "restaurant, bar, food, point_of_interest, establishment"
  },
  {
    "place_id": "ChIJeYtpNkgq9ocRm-fvoiveNzk",
    "name": "The Nook",
    "street_address": "492 Hamline Avenue South",
    "city": "Saint Paul",
    "state": "MN",
    "zip_code": "55116",
    "latitude": 44.9265789,
    "longitude": -93.15667069999999,
    "website": "http://crnook.com/",
    "category": "Bar & Restaurant",
    "types": "bar, restaurant, food, point_of_interest, establishment"
  },
  {
    "place_id": "ChIJ11xNM5Ays1IRSgjZdQ_kGe0",
    "name": "The Loon Cafe",
    "street_address": "500 North 1st Avenue",
    "city": "Minneapolis",
    "state": "MN",
    "zip_code": "55403",
    "latitude": 44.98041049999999,
    "longitude": -93.2739687,
    "website": "http://looncafe.com/",
    "category": "Bar & Restaurant",
    "types": "cafe, bar, restaurant, food, point_of_interest, establishment"
  },
  {
    "place_id": "ChIJVwlEh3kys1IRInyma7g99oM",
    "name": "The 1029 Bar",
    "street_address": "1029 Marshall Street Northeast",
    "city": "Minneapolis",
    "state": "MN",
    "zip_code": "55413",
    "latitude": 44.99811349999999,
    "longitude": -93.26831039999999,
    "website": "http://the1029bar.com/",
    "category": "Bar & Restaurant",
    "types": "bar, restaurant, food, point_of_interest, establishment"
  },
  {
    "place_id": "ChIJvx6b1PMss1IRiSIGkNGlrjw",
    "name": "Station 280",
    "street_address": "2554 Como Avenue",
    "city": "Saint Paul",
    "state": "MN",
    "zip_code": "55108",
    "latitude": 44.98781959999999,
    "longitude": -93.2065901,
    "website": "http://www.station280.com/",
    "category": "Bar & Restaurant",
    "types": "bar, restaurant, food, point_of_interest, establishment"
  },
  {
    "place_id": "ChIJNZbnMTrVslIRPy-Uvwkbfk4",
    "name": "Brunson's Pub",
    "street_address": "956 Payne Avenue",
    "city": "Saint Paul",
    "state": "MN",
    "zip_code": "55130",
    "latitude": 44.97007049999999,
    "longitude": -93.0733997,
    "website": "http://www.brunsonspub.com/",
    "category": "Bar & Restaurant",
    "types": "bar, restaurant, point_of_interest, food, establishment"
  },
  {
    "place_id": "ChIJYauBQWUr9ocRlyebDFJkOlg",
    "name": "St Paul Tap",
    "street_address": "825 Jefferson Avenue",
    "city": "Saint Paul",
    "state": "MN",
    "zip_code": "55102",
    "latitude": 44.9310285,
    "longitude": -93.13456599999999,
    "website": "https://www.stpaultapmn.com/",
    "category": "Bar & Restaurant",
    "types": "bar, restaurant, food, point_of_interest, establishment"
  },
  {
    "place_id": "ChIJcTzuFjzVslIRMNNYC6Kae5M",
    "name": "Chances Tavern",
    "street_address": "1080 Payne Avenue",
    "city": "Saint Paul",
    "state": "MN",
    "zip_code": "55130",
    "latitude": 44.9737248,
    "longitude": -93.073268,
    "website": "http://chancestavern.com/",
    "category": "Bar & Restaurant",
    "types": "bar, restaurant, food, point_of_interest, establishment"
  },
  {
    "place_id": "ChIJu48mEo0q9ocR5nn7wWjlLo8",
    "name": "Emmett's Public House",
    "street_address": "701 Grand Avenue",
    "city": "Saint Paul",
    "state": "MN",
    "zip_code": "55105",
    "latitude": 44.94025990000001,
    "longitude": -93.1297625,
    "website": "https://emmettspublichouse.com/",
    "category": "Bar & Restaurant",
    "types": "bar, restaurant, food, point_of_interest, establishment"
  },
  {
    "place_id": "ChIJuYg0gGwr9ocRtTuYVfakIuQ",
    "name": "Sweetwater Grille and Bar",
    "street_address": "161 Saint Anthony Avenue",
    "city": "Saint Paul",
    "state": "MN",
    "zip_code": "55103",
    "latitude": 44.95184879999999,
    "longitude": -93.1069454,
    "website": null,
    "category": "Bar & Restaurant",
    "types": "bar, restaurant, food, point_of_interest, establishment"
  },
  {
    "place_id": "ChIJi2vQqscr9ocRB80uHUV1dRE",
    "name": "A-Side Public House",
    "street_address": "754 Randolph Avenue",
    "city": "Saint Paul",
    "state": "MN",
    "zip_code": "55102",
    "latitude": 44.9266465,
    "longitude": -93.13178219999999,
    "website": "http://asidepublichouse.com/",
    "category": "Restaurant",
    "types": "restaurant, cafe, food, point_of_interest, store, establishment"
  },
  {
    "place_id": "ChIJnWfANU8r9ocR5CZCL5AC5sg",
    "name": "Wild Bill's Sports Saloon - DT St. Paul",
    "street_address": "175 7th Street West",
    "city": "Saint Paul",
    "state": "MN",
    "zip_code": "55102",
    "latitude": 44.9445563,
    "longitude": -93.1032895,
    "website": "https://www.wildbillssportssaloon-stpaul.com/",
    "category": "Bar & Restaurant",
    "types": "restaurant, bar, food, point_of_interest, establishment"
  },
  {
    "place_id": "ChIJbw0Hb4Ar9ocRyGlvsxjxkdk",
    "name": "Red Rabbit St. Paul",
    "street_address": "788 Grand Avenue",
    "city": "Saint Paul",
    "state": "MN",
    "zip_code": "55105",
    "latitude": 44.9397543,
    "longitude": -93.1332486,
    "website": "https://redrabbitmn.com/st-paul/",
    "category": "Bar & Restaurant",
    "types": "restaurant, meal_takeaway, bar, food, point_of_interest, establishment"
  },
  {
    "place_id": "ChIJ8dOfN9XU94cR6HP369cZHbc",
    "name": "Gallaghers Bar",
    "street_address": "888 Ohio Street",
    "city": "West Saint Paul",
    "state": "MN",
    "zip_code": "55118",
    "latitude": 44.9193351,
    "longitude": -93.0973307,
    "website": null,
    "category": "Bar & Restaurant",
    "types": "bar, restaurant, food, point_of_interest, establishment"
  },
  {
    "place_id": "ChIJIxVMz7Yq9ocRFi117cawzUk",
    "name": "Patrick McGovern's Pub",
    "street_address": "225 7th Street West",
    "city": "Saint Paul",
    "state": "MN",
    "zip_code": "55102",
    "latitude": 44.9433899,
    "longitude": -93.1045319,
    "website": "http://www.patmcgoverns.com/",
    "category": "Bar & Restaurant",
    "types": "restaurant, bar, food, point_of_interest, establishment"
  },
  {
    "place_id": "ChIJ15bGgnfVslIRi5YS6GzxOC0",
    "name": "Crooked Pint Ale House",
    "street_address": "1734 Adolphus Street",
    "city": "Maplewood",
    "state": "MN",
    "zip_code": "55117",
    "latitude": 44.9933668,
    "longitude": -93.090879,
    "website": "https://www.crookedpint.com/maplewood",
    "category": "Bar & Restaurant",
    "types": "bar, restaurant, food, point_of_interest, establishment"
  },
  {
    "place_id": "ChIJqVLG3m0r9ocRgV9e2Xra820",
    "name": "Jameson's Tavern",
    "street_address": "886 Smith Avenue South",
    "city": "West Saint Paul",
    "state": "MN",
    "zip_code": "55118",
    "latitude": 44.9193124,
    "longitude": -93.1016545,
    "website": "http://www.jamosbar.com/",
    "category": "Bar & Restaurant",
    "types": "restaurant, bar, food, point_of_interest, establishment"
  },
  {
    "place_id": "ChIJvQtj0_oq9ocRoj9tsRsXr2g",
    "name": "Shamrocks",
    "street_address": "995 7th Street West",
    "city": "Saint Paul",
    "state": "MN",
    "zip_code": "55102",
    "latitude": 44.9272305,
    "longitude": -93.1278066,
    "website": "https://www.crshamrocks.com/",
    "category": "Bar & Restaurant",
    "types": "bar, restaurant, food, point_of_interest, establishment"
  },
  {
    "place_id": "ChIJZ1McG5cq9ocRHtPs4YmRGa0",
    "name": "The Gnome Craft Pub",
    "street_address": "498 Selby Avenue",
    "city": "Saint Paul",
    "state": "MN",
    "zip_code": "55102",
    "latitude": 44.9463854,
    "longitude": -93.1210151,
    "website": "https://www.thegnomepub.com/?y_source=1_MTY1MTk5ODctNzE1LWxvY2F0aW9uLndlYnNpdGU%3D",
    "category": "Bar & Restaurant",
    "types": "restaurant, bar, food, point_of_interest, establishment"
  },
  {
    "place_id": "ChIJ4e_1Y1DV94cRmBah7UXSOoA",
    "name": "Gopher Bar",
    "street_address": "241 7th Street East",
    "city": "Saint Paul",
    "state": "MN",
    "zip_code": "55101",
    "latitude": 44.95116890000001,
    "longitude": -93.0885586,
    "website": "http://www.facebook.com/gopherbar",
    "category": "Bar & Restaurant",
    "types": "bar, restaurant, food, point_of_interest, establishment"
  },
  {
    "place_id": "ChIJGTDKk5HV94cR37xKrd9h1c0",
    "name": "Obb's Sports Bar & Grill",
    "street_address": "1347 Burns Avenue",
    "city": "Saint Paul",
    "state": "MN",
    "zip_code": "55106",
    "latitude": 44.9488746,
    "longitude": -93.04313259999999,
    "website": "http://obbsbar.com/",
    "category": "Bar & Restaurant",
    "types": "bar, restaurant, food, point_of_interest, establishment"
  },
  {
    "place_id": "ChIJaUgGfKsss1IRvW2iwIRvB3A",
    "name": "Tracks Bar & Grill",
    "street_address": "1091 Rice Street",
    "city": "Saint Paul",
    "state": "MN",
    "zip_code": "55117",
    "latitude": 44.9740923,
    "longitude": -93.106231,
    "website": null,
    "category": "Bar & Restaurant",
    "types": "bar, restaurant, food, point_of_interest, establishment"
  },
  {
    "place_id": "ChIJr-XB2AArs1IRi87FL3sgxDg",
    "name": "Ted's Bar",
    "street_address": "1084 Larpenteur Avenue West",
    "city": "Saint Paul",
    "state": "MN",
    "zip_code": "55113",
    "latitude": 44.99179360000001,
    "longitude": -93.1457624,
    "website": null,
    "category": "Bar & Restaurant",
    "types": "bar, restaurant, food, point_of_interest, establishment"
  },
  {
    "place_id": "ChIJH10JuCYrs1IRKzgSQ10YK0I",
    "name": "Half Time Rec",
    "street_address": "1013 Front Avenue",
    "city": "Saint Paul",
    "state": "MN",
    "zip_code": "55103",
    "latitude": 44.9704048,
    "longitude": -93.1429706,
    "website": "http://halftimerec.net/",
    "category": "Bar & Restaurant",
    "types": "bar, restaurant, food, point_of_interest, establishment"
  },
  {
    "place_id": "ChIJQbviBPIrs1IRZAgZRf8b1ww",
    "name": "Lucky's 13 Pub Roseville",
    "street_address": "2480 Fairview Avenue North",
    "city": "Roseville",
    "state": "MN",
    "zip_code": "55113",
    "latitude": 45.0158332,
    "longitude": -93.173643,
    "website": "http://luckys13pub.com/",
    "category": "Restaurant",
    "types": "restaurant, food, point_of_interest, establishment"
  },
  {
    "place_id": "ChIJ0bW8m60vs1IROXMLOjcRhFg",
    "name": "Steele & Hops",
    "street_address": "2800 39th Avenue Northeast",
    "city": "Saint Anthony",
    "state": "MN",
    "zip_code": "55421",
    "latitude": 45.0396651,
    "longitude": -93.2196104,
    "website": "https://steeleandhopsmn.com/",
    "category": "Restaurant",
    "types": "restaurant, food, point_of_interest, establishment"
  },
  {
    "place_id": "ChIJFYlMQXYrs1IRQrlzClOcYfU",
    "name": "STOUT'S PUB & GRILL",
    "street_address": "1611 Larpenteur Avenue West",
    "city": "Falcon Heights",
    "state": "MN",
    "zip_code": "55113",
    "latitude": 44.99222049999999,
    "longitude": -93.168254,
    "website": "http://www.stoutspub.com/",
    "category": "Bar & Restaurant",
    "types": "bar, restaurant, food, point_of_interest, establishment"
  },
  {
    "place_id": "ChIJubFAmKsrs1IRvWpHj9njmdM",
    "name": "Tipsy Steer Roseville",
    "street_address": "2704 Snelling Avenue",
    "city": "Roseville",
    "state": "MN",
    "zip_code": "55113",
    "latitude": 45.02210340000001,
    "longitude": -93.16505959999999,
    "website": "https://tipsysteer.com/roseville/",
    "category": "Restaurant",
    "types": "restaurant, food, point_of_interest, establishment"
  },
  {
    "place_id": "ChIJFxOEOXkqs1IRP8uQ1IvQbt8",
    "name": "McCarron's Pub and Grill",
    "street_address": "1986 Rice Street",
    "city": "Maplewood",
    "state": "MN",
    "zip_code": "55113",
    "latitude": 45.0005602,
    "longitude": -93.1055607,
    "website": "https://www.mccarronspub.net/",
    "category": "Bar & Restaurant",
    "types": "bar, restaurant, food, point_of_interest, establishment"
  },
  {
    "place_id": "ChIJmxY74Z8ps1IRN-I0Q8QGDz4",
    "name": "The Tavern Grill Arden Hills",
    "street_address": "3561 Lexington Avenue North",
    "city": "Arden Hills",
    "state": "MN",
    "zip_code": "55126",
    "latitude": 45.04903059999999,
    "longitude": -93.1477058,
    "website": "https://www.thetaverngrill.com/location/tavern-grill-arden-hills/",
    "category": "Bar & Restaurant",
    "types": "bar, restaurant, food, point_of_interest, establishment"
  },
  {
    "place_id": "ChIJLdUbjqUus1IR1f1pCUfpHgk",
    "name": "Big Louie's Bar And Grill",
    "street_address": "790 County Road D West",
    "city": "New Brighton",
    "state": "MN",
    "zip_code": "55112",
    "latitude": 45.0362485,
    "longitude": -93.1974369,
    "website": "http://www.biglouiesbarandgrill.com/",
    "category": "Bar & Restaurant",
    "types": "bar, restaurant, food, point_of_interest, establishment"
  },
  {
    "place_id": "ChIJIQZgQJUrs1IRx2VkMP3nia0",
    "name": "Cozy's Pub",
    "street_address": "1431 Lexington Parkway North",
    "city": "Saint Paul",
    "state": "MN",
    "zip_code": "55103",
    "latitude": 44.9842618,
    "longitude": -93.1461248,
    "website": null,
    "category": "Restaurant",
    "types": "restaurant, food, point_of_interest, establishment"
  },
  {
    "place_id": "ChIJD224j7gzs1IRjjNrJwJYHyI",
    "name": "Burger Dive at POTLUCK",
    "street_address": "1595 Minnesota 36",
    "city": "Roseville",
    "state": "MN",
    "zip_code": "55113",
    "latitude": 45.0128434,
    "longitude": -93.1704907,
    "website": "https://www.burgerdivemn.com/",
    "category": "Bar & Restaurant",
    "types": "bar, restaurant, food, point_of_interest, establishment"
  },
  {
    "place_id": "ChIJSWnlMUMqs1IReNqc2Cijig0",
    "name": "B-Dale Club",
    "street_address": "2100 Dale Street North",
    "city": "Roseville",
    "state": "MN",
    "zip_code": "55113",
    "latitude": 45.0043317,
    "longitude": -93.12582820000002,
    "website": "http://www.b-dale.com/index.html",
    "category": "Bar & Restaurant",
    "types": "bar, restaurant, food, point_of_interest, establishment"
  },
  {
    "place_id": "ChIJey5FXQoqs1IR0Yjq7RDkFjs",
    "name": "Hoggsbreath",
    "street_address": "2504 Rice Street",
    "city": "Saint Paul",
    "state": "MN",
    "zip_code": "55113",
    "latitude": 45.0166744,
    "longitude": -93.1055514,
    "website": "http://www.hoggsbreath.com/",
    "category": "Bar & Restaurant",
    "types": "night_club, bar, restaurant, food, point_of_interest, establishment"
  },
  {
    "place_id": "ChIJ7VGv2OArs1IR9W-UiQTLCgY",
    "name": "Pizza Luc\u00e9 Roseville",
    "street_address": "2851 Snelling Avenue North",
    "city": "Roseville",
    "state": "MN",
    "zip_code": "55113",
    "latitude": 45.02705100000001,
    "longitude": -93.167677,
    "website": "https://www.pizzaluce.com/locations/roseville",
    "category": "Bar & Restaurant",
    "types": "meal_delivery, meal_takeaway, bar, restaurant, food, point_of_interest, establishment"
  },
  {
    "place_id": "ChIJoyRzXfIrs1IRAAhlIo2l8FY",
    "name": "Buffalo Wild Wings",
    "street_address": "1777 County Road B2 West",
    "city": "Roseville",
    "state": "MN",
    "zip_code": "55113",
    "latitude": 45.0153884,
    "longitude": -93.1755218,
    "website": "https://www.buffalowildwings.com/locations/us/mn/roseville/1777-w-county-rd--b2/sports-bar-832?utm_source=google%20my%20business&utm_medium=organic&utm_campaign=website%20link",
    "category": "Bar & Restaurant",
    "types": "meal_takeaway, bar, restaurant, food, point_of_interest, establishment"
  },
  {
    "place_id": "ChIJ1wHNRYsrs1IR5_485u1y7Dc",
    "name": "Applebee's Grill + Bar",
    "street_address": "1893 Minnesota 36",
    "city": "Roseville",
    "state": "MN",
    "zip_code": "55113",
    "latitude": 45.0111094,
    "longitude": -93.179968,
    "website": "https://restaurants.applebees.com/en-us/mn/roseville/1893-w-highway-36-82025?utm_source=google&utm_medium=organic&utm_campaign=google_my_business&utm_term=82025&utm_content=website",
    "category": "Bar & Restaurant",
    "types": "restaurant, bar, food, point_of_interest, establishment"
  },
  {
    "place_id": "ChIJ-dQ3xJgqs1IR4FllbyurDik",
    "name": "Tin Cup Plus",
    "street_address": "1220 Rice Street",
    "city": "Saint Paul",
    "state": "MN",
    "zip_code": "55117",
    "latitude": 44.9779759,
    "longitude": -93.1057115,
    "website": null,
    "category": "Bar & Restaurant",
    "types": "restaurant, bar, food, point_of_interest, establishment"
  },
  {
    "place_id": "ChIJk6kWfCMrs1IRiTBWP-B6VRA",
    "name": "Gabe's Bar & Kitchen",
    "street_address": "991 Lexington Parkway North",
    "city": "Saint Paul",
    "state": "MN",
    "zip_code": "55103",
    "latitude": 44.9710531,
    "longitude": -93.14724819999999,
    "website": "http://www.gabesmn.com/",
    "category": "Restaurant",
    "types": "restaurant, food, point_of_interest, establishment"
  },
  {
    "place_id": "ChIJJYzvBP4ss1IR8ni1tkzxriE",
    "name": "Manning\u2019s Restaurant & Bar",
    "street_address": "2200 Como Avenue Southeast",
    "city": "Minneapolis",
    "state": "MN",
    "zip_code": "55414",
    "latitude": 44.9877495,
    "longitude": -93.221344,
    "website": "http://www.manningscafe.com/",
    "category": "Bar & Restaurant",
    "types": "cafe, bar, restaurant, food, point_of_interest, establishment"
  },
  {
    "place_id": "ChIJT_ArCvMrs1IR_4kyQjTnbR0",
    "name": "Chili's Grill & Bar",
    "street_address": "1840 County Road B2 West",
    "city": "Roseville",
    "state": "MN",
    "zip_code": "55113",
    "latitude": 45.013845,
    "longitude": -93.17742799999999,
    "website": "https://www.chilis.com/locations/us/minnesota/roseville/roseville?utm_source=google&utm_medium=local&utm_campaign=Chilis",
    "category": "Bar & Restaurant",
    "types": "restaurant, bar, food, point_of_interest, establishment"
  },
  {
    "place_id": "ChIJnWgNadIrs1IRl73v8_nzX84",
    "name": "VFW",
    "street_address": "1145 Woodhill Drive",
    "city": "Roseville",
    "state": "MN",
    "zip_code": "55113",
    "latitude": 45.023045,
    "longitude": -93.148457,
    "website": "https://vfwroseville.org/index.html",
    "category": "Bar & Restaurant",
    "types": "bar, restaurant, food, point_of_interest, establishment"
  },
  {
    "place_id": "ChIJk4cfSYEqs1IRVHyu5yaAGIQ",
    "name": "The Cajun House",
    "street_address": "2600 University Avenue Southeast",
    "city": "Minneapolis",
    "state": "MN",
    "zip_code": "55414",
    "latitude": 44.97257779999999,
    "longitude": -93.21968079999999,
    "website": "https://thecajunhouse.net/",
    "category": "Restaurant",
    "types": "meal_takeaway, restaurant, food, point_of_interest, establishment"
  },
  {
    "place_id": "ChIJocouAjTXslIReG8zn5EUKb8",
    "name": "Oliver's",
    "street_address": "159 Grass Lake Place",
    "city": "Shoreview",
    "state": "MN",
    "zip_code": "55126",
    "latitude": 45.0473684,
    "longitude": -93.1071648,
    "website": "http://www.olivers-shoreview.com/",
    "category": "Restaurant",
    "types": "restaurant, food, point_of_interest, establishment"
  }
]