[
  {
    "place_id": "ChIJM5Blv_FmZIgRQwbFmO_3iR0",
    "name": "The Pub - Nashville",
    "street_address": "400 11th Avenue South",
    "city": "Nashville",
    "state": "TN",
    "zip_code": "37203",
    "latitude": 36.1527883,
    "longitude": -86.7835238,
    "website": "https://experiencethepub.com/nashville/",
    "category": "Bar & Restaurant",
    "types": "bar, restaurant, food, point_of_interest, establishment"
  },
  {
    "place_id": "ChIJ_YknbZRmZIgRqN7iuq5Qpmk",
    "name": "The Row Kitchen & Pub",
    "street_address": "110 Lyle Avenue",
    "city": "Nashville",
    "state": "TN",
    "zip_code": "37203",
    "latitude": 36.1513505,
    "longitude": -86.7977346,
    "website": "https://www.therownashville.com/",
    "category": "Restaurant",
    "types": "restaurant, food, point_of_interest, establishment"
  },
  {
    "place_id": "ChIJhR495kZnZIgR6-yEsLrSMUM",
    "name": "Jonathan's Grille",
    "street_address": "717 3rd Avenue North",
    "city": "Nashville",
    "state": "TN",
    "zip_code": "37201",
    "latitude": 36.1709319,
    "longitude": -86.78218389999999,
    "website": "http://jonathansgrille.com/",
    "category": "Bar & Restaurant",
    "types": "bar, restaurant, food, point_of_interest, establishment"
  },
  {
    "place_id": "ChIJ42ZFUKJpZIgRFhu7FrN9UJ8",
    "name": "The Lost Paddy Irish Pub and Restaurant",
    "street_address": "715 Spence Lane",
    "city": "Nashville",
    "state": "TN",
    "zip_code": "37217",
    "latitude": 36.1365371,
    "longitude": -86.72386879999999,
    "website": "http://www.thelostpaddy.com/",
    "category": "Bar & Restaurant",
    "types": "restaurant, bar, food, point_of_interest, establishment"
  },
  {
    "place_id": "ChIJlTJxx1lmZIgRFusOEmOOHTw",
    "name": "Fleet Street Pub",
    "street_address": "207 Printers Alley",
    "city": "Nashville",
    "state": "TN",
    "zip_code": "37201",
    "latitude": 36.1643694,
    "longitude": -86.778515,
    "website": "http://www.fleetstreetpub.com/",
    "category": "Bar & Restaurant",
    "types": "bar, restaurant, food, point_of_interest, establishment"
  },
  {
    "place_id": "ChIJu3t9SFlmZIgRwC8VAVQPHjo",
    "name": "Robert's Western World",
    "street_address": "416 Broadway",
    "city": "Nashville",
    "state": "TN",
    "zip_code": "37203",
    "latitude": 36.1609872,
    "longitude": -86.77804619999999,
    "website": "https://robertswesternworld.com/",
    "category": "Bar & Restaurant",
    "types": "bar, restaurant, food, point_of_interest, establishment"
  },
  {
    "place_id": "ChIJhdXu3FtmZIgR3NE0dkDYkr0",
    "name": "Ole Red",
    "street_address": "300 Broadway",
    "city": "Nashville",
    "state": "TN",
    "zip_code": "37201",
    "latitude": 36.1617138,
    "longitude": -86.77618819999999,
    "website": "http://www.olered.com/nashville",
    "category": "Bar & Restaurant",
    "types": "bar, store, restaurant, point_of_interest, food, establishment"
  },
  {
    "place_id": "ChIJsXW45y5kZIgR9qE07a0itJU",
    "name": "12 South Taproom and Grill",
    "street_address": "2318 12th Avenue South",
    "city": "Nashville",
    "state": "TN",
    "zip_code": "37204",
    "latitude": 36.1264109,
    "longitude": -86.7889404,
    "website": "http://www.12southtaproom.com/",
    "category": "Bar & Restaurant",
    "types": "bar, restaurant, food, point_of_interest, establishment"
  },
  {
    "place_id": "ChIJz2YxuOJmZIgRRU90TlvySlw",
    "name": "Germantown Pub",
    "street_address": "708 Monroe Street",
    "city": "Nashville",
    "state": "TN",
    "zip_code": "37208",
    "latitude": 36.175707,
    "longitude": -86.792555,
    "website": "http://thegermantownpub.com/",
    "category": "Bar & Restaurant",
    "types": "restaurant, bar, food, point_of_interest, establishment"
  },
  {
    "place_id": "ChIJ1Xem9ZNmZIgRfjmj5T3TQvQ",
    "name": "Broadway Brewhouse & Mojo Grill",
    "street_address": "1900 Broadway",
    "city": "Nashville",
    "state": "TN",
    "zip_code": "37203",
    "latitude": 36.1510986,
    "longitude": -86.79687539999999,
    "website": null,
    "category": "Bar & Restaurant",
    "types": "bar, restaurant, food, point_of_interest, establishment"
  },
  {
    "place_id": "ChIJ87kfpJZmZIgR953SWxrpkGU",
    "name": "The Stillery Midtown",
    "street_address": "1921 Broadway",
    "city": "Nashville",
    "state": "TN",
    "zip_code": "37203",
    "latitude": 36.1495343,
    "longitude": -86.79781609999999,
    "website": "https://thestillery.com/",
    "category": "Bar & Restaurant",
    "types": "restaurant, bar, food, point_of_interest, establishment"
  },
  {
    "place_id": "ChIJuRV2VABnZIgRsJ_F3LXYKKA",
    "name": "Music Row Bar & Grill",
    "street_address": "1000 17th Avenue South",
    "city": "Nashville",
    "state": "TN",
    "zip_code": "37212",
    "latitude": 36.1465992,
    "longitude": -86.793498,
    "website": "http://www.musicrowbargrill.com/",
    "category": "Restaurant",
    "types": "restaurant, food, point_of_interest, establishment"
  },
  {
    "place_id": "ChIJV-yS_B5nZIgRWQqc-izacF4",
    "name": "Broadway BrewPub & Grub",
    "street_address": "1900 Broadway",
    "city": "Nashville",
    "state": "TN",
    "zip_code": "37203",
    "latitude": 36.1510986,
    "longitude": -86.79687539999999,
    "website": "http://broadwaybrewpub.com/",
    "category": "Bar & Restaurant",
    "types": "bar, restaurant, food, point_of_interest, establishment"
  },
  {
    "place_id": "ChIJp8-T-MJnZIgRQncDQkYGlYI",
    "name": "Sonny's Patio Pub and Refuge",
    "street_address": "1322 6th Avenue North",
    "city": "Nashville",
    "state": "TN",
    "zip_code": "37208",
    "latitude": 36.177799,
    "longitude": -86.7910566,
    "website": "http://www.sonnysnashville.com/",
    "category": "Restaurant",
    "types": "restaurant, food, point_of_interest, establishment"
  },
  {
    "place_id": "ChIJDZFj5YpmZIgRYc19M9dZr-k",
    "name": "Bar Louie - Nashville",
    "street_address": "314 11th Avenue South",
    "city": "Nashville",
    "state": "TN",
    "zip_code": "37203",
    "latitude": 36.1530758,
    "longitude": -86.7834839,
    "website": "https://www.barlouie.com/locations/us/tn/nashville/the-gulch?utm_source=google&utm_medium=gmb&utm_campaign=listings",
    "category": "Bar & Restaurant",
    "types": "bar, night_club, restaurant, food, point_of_interest, establishment"
  },
  {
    "place_id": "ChIJJ_4AWFlmZIgReQqVGByBFNk",
    "name": "Honky Tonk Central",
    "street_address": "329 Broadway",
    "city": "Nashville",
    "state": "TN",
    "zip_code": "37201",
    "latitude": 36.1608463,
    "longitude": -86.77683809999999,
    "website": "http://www.honkytonkcentral.com/",
    "category": "Bar & Restaurant",
    "types": "bar, restaurant, food, point_of_interest, establishment"
  },
  {
    "place_id": "ChIJJ38D4XJnZIgRW3qeXNBbRZI",
    "name": "Friends in Low Places Bar & Honky-Tonk",
    "street_address": "411 Broadway",
    "city": "Nashville",
    "state": "TN",
    "zip_code": "37203",
    "latitude": 36.1606953,
    "longitude": -86.7775951,
    "website": "https://friendsbarnashville.com/",
    "category": "Bar & Restaurant",
    "types": "bar, restaurant, food, point_of_interest, establishment"
  },
  {
    "place_id": "ChIJicAHErBmZIgRuVvdONKjiWQ",
    "name": "The Local Nashville",
    "street_address": "110 28th Avenue North",
    "city": "Nashville",
    "state": "TN",
    "zip_code": "37203",
    "latitude": 36.1458981,
    "longitude": -86.8125998,
    "website": "https://www.localnash.com/",
    "category": "Bar & Restaurant",
    "types": "bar, restaurant, food, point_of_interest, establishment"
  },
  {
    "place_id": "ChIJybElG41mZIgRMd7rHStRw0M",
    "name": "Tin Roof",
    "street_address": "1516 Demonbreun Street",
    "city": "Nashville",
    "state": "TN",
    "zip_code": "37203",
    "latitude": 36.153189,
    "longitude": -86.789934,
    "website": "http://theoriginaltinroof.com/",
    "category": "Bar & Restaurant",
    "types": "bar, restaurant, food, point_of_interest, establishment"
  },
  {
    "place_id": "ChIJ-cimS8RnZIgRZa0jcW2SRqs",
    "name": "The Goat Sobro",
    "street_address": "211 Elm Street",
    "city": "Nashville",
    "state": "TN",
    "zip_code": "37210",
    "latitude": 36.153725,
    "longitude": -86.77069540000001,
    "website": "https://www.lcgoat.com/locations/sobro/",
    "category": "Bar & Restaurant",
    "types": "restaurant, bar, food, point_of_interest, establishment"
  },
  {
    "place_id": "ChIJryDB4Q1nZIgR7ToLmwlalqY",
    "name": "Assembly Food Hall",
    "street_address": "5055 Broadway",
    "city": "Nashville",
    "state": "TN",
    "zip_code": "37203",
    "latitude": 36.160861,
    "longitude": -86.7790533,
    "website": "https://www.assemblyfoodhall.com/",
    "category": "Bar & Restaurant",
    "types": "restaurant, bar, food, point_of_interest, establishment"
  },
  {
    "place_id": "ChIJmefx5j1nZIgR5RzqV-zqqEA",
    "name": "The Twelve Thirty Club",
    "street_address": "550 Broadway",
    "city": "Nashville",
    "state": "TN",
    "zip_code": "37203",
    "latitude": 36.16043089999999,
    "longitude": -86.7790234,
    "website": "https://thetwelvethirtyclub.com/#section-four?utm_source=google&utm_medium=organic&utm_campaign=maps",
    "category": "Bar & Restaurant",
    "types": "bar, restaurant, food, point_of_interest, establishment"
  },
  {
    "place_id": "ChIJldiV5FtmZIgRhumXv2U2cmE",
    "name": "Broadway Brewhouse Downtown",
    "street_address": "317 Broadway",
    "city": "Nashville",
    "state": "TN",
    "zip_code": "37201",
    "latitude": 36.1610689,
    "longitude": -86.7765668,
    "website": "https://www.broadwaybrewhousedowntown.com/",
    "category": "Bar & Restaurant",
    "types": "bar, restaurant, food, point_of_interest, establishment"
  },
  {
    "place_id": "ChIJXVXaX1lmZIgRiEXXhnNlqIY",
    "name": "Tin Roof",
    "street_address": "316 Broadway",
    "city": "Nashville",
    "state": "TN",
    "zip_code": "37201",
    "latitude": 36.1615096,
    "longitude": -86.7769355,
    "website": "https://tinroofbroadway.com/",
    "category": "Bar & Restaurant",
    "types": "bar, restaurant, food, point_of_interest, establishment"
  },
  {
    "place_id": "ChIJ6VZhyFtmZIgR3wc_pOZYUq4",
    "name": "The Stillery",
    "street_address": "113 2nd Avenue North",
    "city": "Nashville",
    "state": "TN",
    "zip_code": "37201",
    "latitude": 36.162251,
    "longitude": -86.77570999999999,
    "website": "http://www.thestillery.com/",
    "category": "Bar & Restaurant",
    "types": "restaurant, bar, food, point_of_interest, establishment"
  },
  {
    "place_id": "ChIJg0VCx9JnZIgRB3ShA6l9QSM",
    "name": "Beyond The Edge",
    "street_address": "112 South 11th Street",
    "city": "Nashville",
    "state": "TN",
    "zip_code": "37206",
    "latitude": 36.1765477,
    "longitude": -86.75041,
    "website": "https://www.beyondtheedge.net/",
    "category": "Bar & Restaurant",
    "types": "bar, restaurant, food, point_of_interest, establishment"
  },
  {
    "place_id": "ChIJ438I9fdnZIgRLpPH9kkzWp8",
    "name": "Lainey Wilson's Bell Bottoms Up",
    "street_address": "120 3rd Avenue South",
    "city": "Nashville",
    "state": "TN",
    "zip_code": "37201",
    "latitude": 36.1608514,
    "longitude": -86.77532640000001,
    "website": "http://www.bellbottomsupbar.com/",
    "category": "Bar & Restaurant",
    "types": "bar, restaurant, food, point_of_interest, establishment"
  },
  {
    "place_id": "ChIJVVZBkV5mZIgRqEFRMSiYb7o",
    "name": "Pete & Terry's Tavern",
    "street_address": "501 Broadway",
    "city": "Nashville",
    "state": "TN",
    "zip_code": "37203",
    "latitude": 36.1584047,
    "longitude": -86.77792869999999,
    "website": "https://www.nhl.com/predators/arena/pete-terrys-tavern",
    "category": "Bar & Restaurant",
    "types": "bar, restaurant, food, point_of_interest, establishment"
  },
  {
    "place_id": "ChIJl9zlDrVnZIgRBzEJUDtZD28",
    "name": "Mother's Ruin",
    "street_address": "1239 6th Avenue North",
    "city": "Nashville",
    "state": "TN",
    "zip_code": "37208",
    "latitude": 36.1760784,
    "longitude": -86.7903733,
    "website": "http://www.mothersruinnashville.com/",
    "category": "Bar & Restaurant",
    "types": "bar, restaurant, point_of_interest, food, establishment"
  },
  {
    "place_id": "ChIJ51RSW1lmZIgRynWJzdHDpnY",
    "name": "Dierks Bentley's Whiskey Row - Nashville",
    "street_address": "400 Broadway",
    "city": "Nashville",
    "state": "TN",
    "zip_code": "37203",
    "latitude": 36.1611102,
    "longitude": -86.7773938,
    "website": "http://dierkswhiskeyrow.com/nashville-tn/",
    "category": "Bar & Restaurant",
    "types": "night_club, bar, restaurant, food, point_of_interest, establishment"
  },
  {
    "place_id": "ChIJ7-vj79FlZIgR6ucNMsh4L10",
    "name": "M.L.Rose Craft Beer & Burgers - Melrose",
    "street_address": "2535 8th Avenue South",
    "city": "Nashville",
    "state": "TN",
    "zip_code": "37204",
    "latitude": 36.1227936,
    "longitude": -86.7761653,
    "website": "http://www.mlrose.com/",
    "category": "Bar & Restaurant",
    "types": "restaurant, bar, food, point_of_interest, establishment"
  },
  {
    "place_id": "ChIJg6nSeAloZIgRiq2rdxmp3-o",
    "name": "Mickey's Tavern",
    "street_address": "2907 Gallatin Pike",
    "city": "Nashville",
    "state": "TN",
    "zip_code": "37216",
    "latitude": 36.2029207,
    "longitude": -86.739131,
    "website": "http://mickeystavernnashville.com/",
    "category": "Bar & Restaurant",
    "types": "bar, night_club, restaurant, food, point_of_interest, establishment"
  },
  {
    "place_id": "ChIJw1Vv0VlmZIgR8OJceqJNu8Q",
    "name": "The Countrypolitan Bar & Kitchen",
    "street_address": "315 Union Street",
    "city": "Nashville",
    "state": "TN",
    "zip_code": "37201",
    "latitude": 36.1651312,
    "longitude": -86.7788343,
    "website": "https://www.countrypolitanhotel.com/dine-drink",
    "category": "Bar & Restaurant",
    "types": "restaurant, bar, food, point_of_interest, establishment"
  },
  {
    "place_id": "ChIJHyOnDVBnZIgR8assW3yCyg0",
    "name": "Sedona Taphouse",
    "street_address": "1120 3rd Avenue North",
    "city": "Nashville",
    "state": "TN",
    "zip_code": "37208",
    "latitude": 36.1762419,
    "longitude": -86.7852102,
    "website": "https://sedonataphouse.com/locations/nashville-tn/",
    "category": "Bar & Restaurant",
    "types": "bar, restaurant, food, point_of_interest, establishment"
  },
  {
    "place_id": "ChIJpTnM0vFmZIgRC17r6Dcx8to",
    "name": "M.L.Rose Craft Beer & Burgers - Capitol View",
    "street_address": "431 11th Avenue North",
    "city": "Nashville",
    "state": "TN",
    "zip_code": "37203",
    "latitude": 36.1631711,
    "longitude": -86.7914383,
    "website": "https://mlrose.com/",
    "category": "Bar & Restaurant",
    "types": "restaurant, bar, food, point_of_interest, establishment"
  },
  {
    "place_id": "ChIJu1p9U5FmZIgR0CJsC_ybVZ0",
    "name": "Riley Green's Duck Blind",
    "street_address": "1913 Division Street",
    "city": "Nashville",
    "state": "TN",
    "zip_code": "37203",
    "latitude": 36.14959440000001,
    "longitude": -86.7968487,
    "website": "http://www.losersmidtown.com/",
    "category": "Bar & Restaurant",
    "types": "bar, restaurant, food, point_of_interest, establishment"
  },
  {
    "place_id": "ChIJqUYWVJFmZIgRp9Z6OEj9qeE",
    "name": "Losers Bar & Grill",
    "street_address": "1911 Division Street",
    "city": "Nashville",
    "state": "TN",
    "zip_code": "37203",
    "latitude": 36.1497217,
    "longitude": -86.79672959999999,
    "website": "http://www.losersmidtown.com/",
    "category": "Bar & Restaurant",
    "types": "bar, restaurant, food, point_of_interest, establishment"
  },
  {
    "place_id": "ChIJUzEIh1lnZIgRrn-cJ6s-Xs8",
    "name": "Jasper's",
    "street_address": "1918 West End Avenue",
    "city": "Nashville",
    "state": "TN",
    "zip_code": "37203",
    "latitude": 36.1518751,
    "longitude": -86.7990435,
    "website": "https://jaspers.restaurant/",
    "category": "Bar & Restaurant",
    "types": "bar, restaurant, food, point_of_interest, establishment"
  },
  {
    "place_id": "ChIJV1K-fQBnZIgRGmP1MXNAgv8",
    "name": "Morgan Wallen's This Bar & Tennessee Kitchen",
    "street_address": "107 4th Avenue North",
    "city": "Nashville",
    "state": "TN",
    "zip_code": "37219",
    "latitude": 36.1613163,
    "longitude": -86.7776313,
    "website": "https://mwthisbar.com/",
    "category": "Bar & Restaurant",
    "types": "bar, restaurant, food, point_of_interest, establishment"
  },
  {
    "place_id": "ChIJM43Q5ltmZIgRLh4H1APwfhc",
    "name": "Margaritaville Restaurant - Nashville",
    "street_address": "322 Broadway",
    "city": "Nashville",
    "state": "TN",
    "zip_code": "37201",
    "latitude": 36.16138,
    "longitude": -86.777197,
    "website": "https://www.margaritavillenashville.com/",
    "category": "Bar & Restaurant",
    "types": "bar, restaurant, food, point_of_interest, establishment"
  },
  {
    "place_id": "ChIJX62Kw2xhZIgRIy-ZpgcJ-Yk",
    "name": "Nations Bar and Grill",
    "street_address": "705 51st Avenue North",
    "city": "Nashville",
    "state": "TN",
    "zip_code": "37209",
    "latitude": 36.1556617,
    "longitude": -86.8490558,
    "website": "http://www.nationsbarandgrill.com/",
    "category": "Bar & Restaurant",
    "types": "bar, restaurant, food, point_of_interest, establishment"
  },
  {
    "place_id": "ChIJhwyJuGxhZIgRAG-VkXDSSdc",
    "name": "51 North Taproom",
    "street_address": "704 51st Avenue North",
    "city": "Nashville",
    "state": "TN",
    "zip_code": "37209",
    "latitude": 36.1557876,
    "longitude": -86.8483818,
    "website": "https://www.51northtaproom.com/",
    "category": "Bar & Restaurant",
    "types": "bar, restaurant, food, point_of_interest, establishment"
  },
  {
    "place_id": "ChIJcYXn62thZIgRFMn7pJ_0cBo",
    "name": "Betty's Grill",
    "street_address": "407 49th Avenue North",
    "city": "Nashville",
    "state": "TN",
    "zip_code": "37209",
    "latitude": 36.1525009,
    "longitude": -86.846098,
    "website": null,
    "category": "Bar & Restaurant",
    "types": "bar, restaurant, food, point_of_interest, establishment"
  },
  {
    "place_id": "ChIJuYHJgXdkZIgR7WY4v15WeUw",
    "name": "The Corner Pub",
    "street_address": "4109 Hillsboro Pike",
    "city": "Nashville",
    "state": "TN",
    "zip_code": "37215",
    "latitude": 36.1019156,
    "longitude": -86.8181309,
    "website": "http://originalcornerpub.com/",
    "category": "Bar & Restaurant",
    "types": "restaurant, bar, food, point_of_interest, establishment"
  },
  {
    "place_id": "ChIJpdVYp1tmZIgRb216bK39wmE",
    "name": "Acme Feed & Seed",
    "street_address": "101 Broadway",
    "city": "Nashville",
    "state": "TN",
    "zip_code": "37201",
    "latitude": 36.1620155,
    "longitude": -86.7744129,
    "website": "https://www.acmefeedandseed.com/",
    "category": "Bar & Restaurant",
    "types": "bar, restaurant, point_of_interest, food, establishment"
  },
  {
    "place_id": "ChIJm1TevUFhZIgRmOy4jyLnxTY",
    "name": "M.L.Rose Craft Beer & Burgers - Sylvan Park",
    "street_address": "4408 Charlotte Avenue",
    "city": "Nashville",
    "state": "TN",
    "zip_code": "37209",
    "latitude": 36.1525076,
    "longitude": -86.8405873,
    "website": "https://mlrose.com/",
    "category": "Bar & Restaurant",
    "types": "restaurant, bar, food, point_of_interest, establishment"
  },
  {
    "place_id": "ChIJiWNGRihlZIgRuGTuuwn_yO8",
    "name": "Sports & Social Green Hills",
    "street_address": "2126 Abbott Martin Road",
    "city": "Nashville",
    "state": "TN",
    "zip_code": "37215",
    "latitude": 36.1076925,
    "longitude": -86.81431549999999,
    "website": "https://sportsandsocial.com/greenhills/",
    "category": "Bar & Restaurant",
    "types": "bar, restaurant, food, point_of_interest, establishment"
  },
  {
    "place_id": "ChIJ1xckBl1mZIgRojazqOFvSW0",
    "name": "Martin's Bar-B-Que Joint",
    "street_address": "410 4th Avenue South",
    "city": "Nashville",
    "state": "TN",
    "zip_code": "37201",
    "latitude": 36.1567715,
    "longitude": -86.77403799999999,
    "website": "https://www.martinsbbqjoint.com/downtown-nashville?utm_source=gmb&utm_medium=Yext",
    "category": "Restaurant",
    "types": "restaurant, food, point_of_interest, establishment"
  },
  {
    "place_id": "ChIJeX7tvz1nZIgRLpi2DZbNh9Y",
    "name": "Ethels Tabernacle Bar",
    "street_address": "2407 Dickerson Pike",
    "city": "Nashville",
    "state": "TN",
    "zip_code": "37207",
    "latitude": 36.2094607,
    "longitude": -86.7660226,
    "website": null,
    "category": "Bar & Restaurant",
    "types": "bar, restaurant, food, point_of_interest, establishment"
  },
  {
    "place_id": "ChIJf0kSAc9pZIgRuzxmUB_-bDs",
    "name": "Aquarium Restaurant",
    "street_address": "516 Opry Mills Drive",
    "city": "Nashville",
    "state": "TN",
    "zip_code": "37214",
    "latitude": 36.2055058,
    "longitude": -86.69387689999999,
    "website": "http://www.aquariumrestaurants.com/",
    "category": "Bar & Restaurant",
    "types": "amusement_park, aquarium, bar, restaurant, food, point_of_interest, establishment"
  },
  {
    "place_id": "ChIJd6ByY81nZIgRs0IooMswwxA",
    "name": "Noble's East Nashville",
    "street_address": "974 Main Street",
    "city": "Nashville",
    "state": "TN",
    "zip_code": "37206",
    "latitude": 36.1776966,
    "longitude": -86.75195629999999,
    "website": "http://noblesbeerhall.com/",
    "category": "Bar & Restaurant",
    "types": "bar, restaurant, food, point_of_interest, establishment"
  },
  {
    "place_id": "ChIJ02zg2TZnZIgRLhJwFQWLs3o",
    "name": "Almost Friday Sporting Club",
    "street_address": "415 4th Avenue South",
    "city": "Nashville",
    "state": "TN",
    "zip_code": "37201",
    "latitude": 36.156147,
    "longitude": -86.77445399999999,
    "website": "https://www.almostfridaynash.com/",
    "category": "Bar & Restaurant",
    "types": "bar, restaurant, food, point_of_interest, establishment"
  },
  {
    "place_id": "ChIJp8syzgtnZIgRomQASt-JKM8",
    "name": "The Goat Germantown",
    "street_address": "1220 2nd Avenue North",
    "city": "Nashville",
    "state": "TN",
    "zip_code": "37208",
    "latitude": 36.1778793,
    "longitude": -86.7845001,
    "website": "https://www.lcgoat.com/locations/germantown/",
    "category": "Bar & Restaurant",
    "types": "restaurant, bar, point_of_interest, food, establishment"
  },
  {
    "place_id": "ChIJn--YD2NnZIgRDwrVEeJKiPA",
    "name": "Whiskey River Saloon",
    "street_address": "111 Broadway",
    "city": "Nashville",
    "state": "TN",
    "zip_code": "37201",
    "latitude": 36.161694,
    "longitude": -86.774748,
    "website": "https://www.whiskeyriversaloon.com/",
    "category": "Bar & Restaurant",
    "types": "bar, night_club, restaurant, point_of_interest, food, establishment"
  },
  {
    "place_id": "ChIJiUWz5C5kZIgRib51AlBkAg4",
    "name": "Embers Ski Lodge",
    "street_address": "2410 12th Avenue South",
    "city": "Nashville",
    "state": "TN",
    "zip_code": "37204",
    "latitude": 36.1260534,
    "longitude": -86.78902029999999,
    "website": null,
    "category": "Bar & Restaurant",
    "types": "bar, restaurant, food, point_of_interest, establishment"
  },
  {
    "place_id": "ChIJ4xO2WnhvZIgRYN7MQMnh-YA",
    "name": "Carl's Corner",
    "street_address": "3765 Nolensville Pike",
    "city": "Nashville",
    "state": "TN",
    "zip_code": "37211",
    "latitude": 36.0914455,
    "longitude": -86.73597079999999,
    "website": null,
    "category": "Bar & Restaurant",
    "types": "bar, restaurant, point_of_interest, food, establishment"
  },
  {
    "place_id": "ChIJpVxZ46hlZIgRWB308it1mN4",
    "name": "Common Ground - Berry Hill",
    "street_address": "734 Thompson Lane",
    "city": "Nashville",
    "state": "TN",
    "zip_code": "37204",
    "latitude": 36.11271829999999,
    "longitude": -86.7675165,
    "website": "http://cgnashville.getbento.com/",
    "category": "Bar & Restaurant",
    "types": "restaurant, bar, food, point_of_interest, establishment"
  },
  {
    "place_id": "ChIJE3Ayz7pmZIgRb_LgtGYfHJ4",
    "name": "J. Alexander's Restaurant",
    "street_address": "2609 West End Avenue",
    "city": "Nashville",
    "state": "TN",
    "zip_code": "37203",
    "latitude": 36.1456349,
    "longitude": -86.81054809999999,
    "website": "https://jalexanders.com/",
    "category": "Bar & Restaurant",
    "types": "bar, restaurant, food, point_of_interest, establishment"
  },
  {
    "place_id": "ChIJTcRoB49hZIgRDJVcpms_pds",
    "name": "Copa Cabana Bar and Grill",
    "street_address": "6410 Charlotte Pike",
    "city": "Nashville",
    "state": "TN",
    "zip_code": "37209",
    "latitude": 36.1436389,
    "longitude": -86.874461,
    "website": null,
    "category": "Bar & Restaurant",
    "types": "bar, restaurant, food, point_of_interest, establishment"
  },
  {
    "place_id": "ChIJDYxB-1liZIgRdyxDs7nwq1E",
    "name": "Sam's Place Belle Meade",
    "street_address": "6051 Tennessee 100",
    "city": "Nashville",
    "state": "TN",
    "zip_code": "37205",
    "latitude": 36.09698359999999,
    "longitude": -86.87258820000001,
    "website": "https://samsplace.net/",
    "category": "Bar & Restaurant",
    "types": "restaurant, bar, food, point_of_interest, establishment"
  },
  {
    "place_id": "ChIJW5CdiK5mZIgRtqVwp4lY7ZU",
    "name": "Maggiano's Little Italy",
    "street_address": "3106 West End Avenue",
    "city": "Nashville",
    "state": "TN",
    "zip_code": "37203",
    "latitude": 36.1424955,
    "longitude": -86.81685829999999,
    "website": "https://www.maggianos.com/locations/tennessee/nashville/3106-w.-end-avenue?utm_source=google&utm_medium=organic&utm_campaign=Maggianos",
    "category": "Bar & Restaurant",
    "types": "meal_takeaway, bar, restaurant, food, point_of_interest, establishment"
  },
  {
    "place_id": "ChIJOStHbPuJZIgRbQsuGPhAF3E",
    "name": "Brewhouse West",
    "street_address": "7108 Charlotte Pike",
    "city": "Nashville",
    "state": "TN",
    "zip_code": "37209",
    "latitude": 36.1275,
    "longitude": -86.9083333,
    "website": "https://www.brewhousenashville.com/",
    "category": "Bar & Restaurant",
    "types": "restaurant, bar, food, point_of_interest, establishment"
  },
  {
    "place_id": "ChIJP8B35XZkZIgRJ5eTgCTOoNg",
    "name": "Crow's Nest Restaurant",
    "street_address": "2221 Bandywood Drive",
    "city": "Nashville",
    "state": "TN",
    "zip_code": "37215",
    "latitude": 36.1046673,
    "longitude": -86.81872899999999,
    "website": "http://www.crowsnestnashville.com/",
    "category": "Bar & Restaurant",
    "types": "bar, restaurant, food, point_of_interest, establishment"
  },
  {
    "place_id": "ChIJaVQpnJ9mZIgRdCHYUTLN7f0",
    "name": "Double Dogs",
    "street_address": "1807 21st Avenue South",
    "city": "Nashville",
    "state": "TN",
    "zip_code": "37212",
    "latitude": 36.1361265,
    "longitude": -86.8011052,
    "website": "https://doubledogs.biz/hillsboro-village/",
    "category": "Bar & Restaurant",
    "types": "bar, restaurant, food, point_of_interest, establishment"
  },
  {
    "place_id": "ChIJA6hab0tlZIgRVwKFuOXOUlw",
    "name": "Bottle Cap",
    "street_address": "2403 12th Avenue South",
    "city": "Nashville",
    "state": "TN",
    "zip_code": "37204",
    "latitude": 36.1260433,
    "longitude": -86.7895587,
    "website": "http://bottlecapnashville.com/",
    "category": "Bar & Restaurant",
    "types": "restaurant, bar, food, point_of_interest, establishment"
  },
  {
    "place_id": "ChIJSTdIgQ9nZIgRu_7UR3XXj10",
    "name": "Buds and Brews",
    "street_address": "1244 3rd Avenue North",
    "city": "Nashville",
    "state": "TN",
    "zip_code": "37208",
    "latitude": 36.1777856,
    "longitude": -86.7862999,
    "website": "https://www.budsandbrewsusa.com/",
    "category": "Restaurant",
    "types": "restaurant, food, point_of_interest, establishment"
  },
  {
    "place_id": "ChIJY2eHXsNhZIgRwfixbPqcrZE",
    "name": "Streetcar Taps & Garden",
    "street_address": "4916 Charlotte Pike",
    "city": "Nashville",
    "state": "TN",
    "zip_code": "37209",
    "latitude": 36.15224449999999,
    "longitude": -86.8468075,
    "website": "http://streetcartaps.com/",
    "category": "Restaurant",
    "types": "restaurant, food, point_of_interest, establishment"
  },
  {
    "place_id": "ChIJYbUjCpRmZIgRVHDn3uhkeW0",
    "name": "Tavern",
    "street_address": "1904 Broadway",
    "city": "Nashville",
    "state": "TN",
    "zip_code": "37203",
    "latitude": 36.15089219999999,
    "longitude": -86.7970536,
    "website": "https://www.tavernnashville.com/",
    "category": "Restaurant",
    "types": "restaurant, food, point_of_interest, establishment"
  },
  {
    "place_id": "ChIJ9yc0eI1mZIgRhKSpj6FWYQc",
    "name": "TailGate Brewery Music Row",
    "street_address": "1538 Demonbreun Street",
    "city": "Nashville",
    "state": "TN",
    "zip_code": "37203",
    "latitude": 36.152642,
    "longitude": -86.79129259999999,
    "website": "http://www.tailgatebeer.com/",
    "category": "Bar & Restaurant",
    "types": "bar, meal_takeaway, restaurant, food, point_of_interest, establishment"
  },
  {
    "place_id": "ChIJhWjuIQNnZIgRocBw6U05C7c",
    "name": "Commons Club",
    "street_address": "1 Music Square West",
    "city": "Nashville",
    "state": "TN",
    "zip_code": "37203",
    "latitude": 36.15173879999999,
    "longitude": -86.79313719999999,
    "website": "https://virginhotels.com/nashville/dine-and-drink/the-commons-club/",
    "category": "Bar & Restaurant",
    "types": "restaurant, bar, food, point_of_interest, establishment"
  },
  {
    "place_id": "ChIJ6b7W9v5mZIgRS_7vLqZNAAs",
    "name": "Von Elrod's Beer Hall & Kitchen",
    "street_address": "1004 4th Avenue North",
    "city": "Nashville",
    "state": "TN",
    "zip_code": "37219",
    "latitude": 36.1737551,
    "longitude": -86.78502600000002,
    "website": "https://vonelrods.com/",
    "category": "Bar & Restaurant",
    "types": "restaurant, bar, food, point_of_interest, establishment"
  },
  {
    "place_id": "ChIJCUi_F_5mZIgRgy_FSSjY18o",
    "name": "Jack Brown's Beer & Burger Joint Germantown",
    "street_address": "1123 3rd Avenue North",
    "city": "Nashville",
    "state": "TN",
    "zip_code": "37208",
    "latitude": 36.1759528,
    "longitude": -86.78560829999999,
    "website": "https://www.jackbrownsjoint.com/locations/germantown-nashville",
    "category": "Bar & Restaurant",
    "types": "bar, restaurant, food, point_of_interest, establishment"
  },
  {
    "place_id": "ChIJ2ZKp94pmZIgRKp7pHlCbhB4",
    "name": "Burger Republic",
    "street_address": "420 11th Avenue South",
    "city": "Nashville",
    "state": "TN",
    "zip_code": "37203",
    "latitude": 36.1523898,
    "longitude": -86.78360219999999,
    "website": "http://burgerrepublic.com/",
    "category": "Bar & Restaurant",
    "types": "bar, restaurant, food, point_of_interest, establishment"
  },
  {
    "place_id": "ChIJp-gQTotmZIgRz9RAL0guga4",
    "name": "Del Frisco's Grille",
    "street_address": "1201 Demonbreun Street",
    "city": "Nashville",
    "state": "TN",
    "zip_code": "37203",
    "latitude": 36.154392,
    "longitude": -86.7863151,
    "website": "https://www.delfriscosgrille.com/location/del-friscos-grille-nashville-tn/",
    "category": "Bar & Restaurant",
    "types": "bar, restaurant, food, point_of_interest, establishment"
  },
  {
    "place_id": "ChIJf694Z8lnZIgRCKdCgH37h20",
    "name": "Fogg Street Lawn Club",
    "street_address": "648 Fogg Street",
    "city": "Nashville",
    "state": "TN",
    "zip_code": "37203",
    "latitude": 36.1511678,
    "longitude": -86.7773376,
    "website": "https://www.foggstreet.com/",
    "category": "Bar & Restaurant",
    "types": "bar, restaurant, food, point_of_interest, establishment"
  },
  {
    "place_id": "ChIJdUbbRNpnZIgRaaOoIbf0a4Y",
    "name": "Fourth & U",
    "street_address": "315 4th Avenue North",
    "city": "Nashville",
    "state": "TN",
    "zip_code": "37219",
    "latitude": 36.1652977,
    "longitude": -86.7803611,
    "website": null,
    "category": "Bar & Restaurant",
    "types": "restaurant, bar, food, point_of_interest, establishment"
  },
  {
    "place_id": "ChIJUWPckSRpZIgRAHOw8SK_EQw",
    "name": "The Nashville Tap House",
    "street_address": "600 Marriott Drive",
    "city": "Nashville",
    "state": "TN",
    "zip_code": "37214",
    "latitude": 36.14616609999999,
    "longitude": -86.69296700000001,
    "website": "http://www.thenashvilletaphouse.com/",
    "category": "Bar & Restaurant",
    "types": "bar, restaurant, point_of_interest, food, establishment"
  },
  {
    "place_id": "ChIJlY6Uil5pZIgRF2aDe5dcDjk",
    "name": "Darfons Restaurant + Bar",
    "street_address": "2810 Elm Hill Pike",
    "city": "Nashville",
    "state": "TN",
    "zip_code": "37214",
    "latitude": 36.1487998,
    "longitude": -86.6649322,
    "website": "http://www.darfonsrestaurant.com/",
    "category": "Bar & Restaurant",
    "types": "bar, restaurant, point_of_interest, food, establishment"
  },
  {
    "place_id": "ChIJ2X4ijn5pZIgR_e5kjdnFzcg",
    "name": "McNamara's Irish Pub & Restaurant",
    "street_address": "2740 Old Lebanon Pike",
    "city": "Nashville",
    "state": "TN",
    "zip_code": "37214",
    "latitude": 36.16879529999999,
    "longitude": -86.66447529999999,
    "website": "http://www.mcnamarasirishpub.com/",
    "category": "Bar & Restaurant",
    "types": "bar, restaurant, food, point_of_interest, establishment"
  },
  {
    "place_id": "ChIJ8_C0qEJpZIgRoPl32ZKHYjc",
    "name": "Green Room Lounge & Whiskey Bar",
    "street_address": "1 Terminal Drive",
    "city": "Nashville",
    "state": "TN",
    "zip_code": "37214",
    "latitude": 36.13077149999999,
    "longitude": -86.6692083,
    "website": "https://flynashville.com/bna_shop/the-green-room",
    "category": "Restaurant",
    "types": "restaurant, food, point_of_interest, establishment"
  },
  {
    "place_id": "ChIJl0l6kmJqZIgRzazQFa4sPIA",
    "name": "Roadside Bar & Grill",
    "street_address": "4617 Old Hickory Boulevard",
    "city": "Nashville",
    "state": "TN",
    "zip_code": "37138",
    "latitude": 36.2026348,
    "longitude": -86.621811,
    "website": "http://www.roadsidebarandgrilltn.com/",
    "category": "Bar & Restaurant",
    "types": "park, bar, restaurant, food, point_of_interest, establishment"
  },
  {
    "place_id": "ChIJARd_0cdpZIgR5IZGY-YF_Pw",
    "name": "Party Fowl Donelson",
    "street_address": "2620 Lebanon Pike",
    "city": "Nashville",
    "state": "TN",
    "zip_code": "37214",
    "latitude": 36.16970659999999,
    "longitude": -86.6711837,
    "website": "https://partyfowl.com/",
    "category": "Bar & Restaurant",
    "types": "bar, restaurant, food, point_of_interest, establishment"
  },
  {
    "place_id": "ChIJCQhaXrlrZIgRmlVefBeR7T8",
    "name": "Lucky's Bar & Grill",
    "street_address": "579 Stewarts Ferry Pike",
    "city": "Nashville",
    "state": "TN",
    "zip_code": "37214",
    "latitude": 36.15849949999999,
    "longitude": -86.63453849999999,
    "website": "https://www.facebook.com/Luckys-Bar-Grill-115592308470915/",
    "category": "Bar & Restaurant",
    "types": "bar, restaurant, food, point_of_interest, establishment"
  },
  {
    "place_id": "ChIJO2o9Xs5pZIgR-RE8pwJUuLw",
    "name": "Rainforest Cafe",
    "street_address": "353 Opry Mills Drive",
    "city": "Nashville",
    "state": "TN",
    "zip_code": "37214",
    "latitude": 36.2001944,
    "longitude": -86.69168479999999,
    "website": "https://www.rainforestcafe.com/location/rainforest-cafe-opry-mills-tn/",
    "category": "Restaurant",
    "types": "restaurant, point_of_interest, food, establishment"
  },
  {
    "place_id": "ChIJwZ_tPvRpZIgRy5dx_29ZtFs",
    "name": "Three Casks",
    "street_address": "1 Terminal Drive",
    "city": "Nashville",
    "state": "TN",
    "zip_code": "37214",
    "latitude": 36.1282394,
    "longitude": -86.6695252,
    "website": "https://aeroservicegrp.com/menu/three-casks-menu/",
    "category": "Bar & Restaurant",
    "types": "bar, restaurant, food, point_of_interest, establishment"
  },
  {
    "place_id": "ChIJJYVN0H5pZIgRvfJCdfcUg20",
    "name": "Homegrown Taproom & Kitchen",
    "street_address": "2720 Old Lebanon Pike",
    "city": "Nashville",
    "state": "TN",
    "zip_code": "37214",
    "latitude": 36.1702052,
    "longitude": -86.6657128,
    "website": "https://homegrownnashville.com/",
    "category": "Bar & Restaurant",
    "types": "bar, restaurant, food, point_of_interest, establishment"
  },
  {
    "place_id": "ChIJfWH7u2BpZIgRlIgjMXDUqrM",
    "name": "TEN Bar and Grille",
    "street_address": "10 Century Boulevard",
    "city": "Nashville",
    "state": "TN",
    "zip_code": "37214",
    "latitude": 36.1448524,
    "longitude": -86.6875531,
    "website": "https://www.hilton.com/en/hotels/bnanaes-embassy-suites-nashville-airport/dining/",
    "category": "Restaurant",
    "types": "restaurant, food, point_of_interest, establishment"
  },
  {
    "place_id": "ChIJA96rC4ZrZIgR-SeNWxKSOQs",
    "name": "Shipwreck Cove",
    "street_address": "3361 Bell Road",
    "city": "Nashville",
    "state": "TN",
    "zip_code": "37214",
    "latitude": 36.13435279999999,
    "longitude": -86.6220658,
    "website": "http://shipwreckcovetn.com/",
    "category": "Bar & Restaurant",
    "types": "bar, restaurant, food, point_of_interest, establishment"
  },
  {
    "place_id": "ChIJdw1zonVvZIgRH1T9-mDDtUo",
    "name": "Fugitives Public House",
    "street_address": "1 Terminal Drive",
    "city": "Nashville",
    "state": "TN",
    "zip_code": "37214",
    "latitude": 36.1301105,
    "longitude": -86.6697062,
    "website": "https://flynashville.com/bna_shop/fugitives-public-house",
    "category": "Restaurant",
    "types": "restaurant, food, point_of_interest, establishment"
  },
  {
    "place_id": "ChIJuUX2sgJAZIgR9xjxadASqy0",
    "name": "JB's Pour House",
    "street_address": "4770 Lebanon Pike",
    "city": "Nashville",
    "state": "TN",
    "zip_code": "37076",
    "latitude": 36.2156135,
    "longitude": -86.590518,
    "website": "http://jbspourhouse.com/",
    "category": "Bar & Restaurant",
    "types": "bar, restaurant, food, point_of_interest, establishment"
  },
  {
    "place_id": "ChIJebzc9O5qZIgR1ipjnTrZnY0",
    "name": "The Rusty Nail Bar",
    "street_address": "4054 Andrew Jackson Way",
    "city": "Nashville",
    "state": "TN",
    "zip_code": "37076",
    "latitude": 36.1861601,
    "longitude": -86.6085343,
    "website": null,
    "category": "Bar & Restaurant",
    "types": "bar, night_club, restaurant, point_of_interest, food, establishment"
  },
  {
    "place_id": "ChIJf_wdiP5BZIgRPS_pbvqwss0",
    "name": "Dominic's Bar & Grill",
    "street_address": "4719 Andrew Jackson Parkway",
    "city": "Nashville",
    "state": "TN",
    "zip_code": "37076",
    "latitude": 36.216426,
    "longitude": -86.59720999999999,
    "website": null,
    "category": "Bar & Restaurant",
    "types": "bar, restaurant, food, point_of_interest, establishment"
  },
  {
    "place_id": "ChIJfSU_Z8RrZIgR1WNhQESfksA",
    "name": "Craftsman on the Hill",
    "street_address": "3424 Lebanon Pike",
    "city": "Nashville",
    "state": "TN",
    "zip_code": "37076",
    "latitude": 36.1902505,
    "longitude": -86.62842309999999,
    "website": "http://craftsmanonthehill.com/",
    "category": "Bar & Restaurant",
    "types": "bar, restaurant, food, store, point_of_interest, establishment"
  },
  {
    "place_id": "ChIJk4VPCPFqZIgR12rKsScn7-M",
    "name": "Buffalo Wild Wings",
    "street_address": "5215 Old Hickory Boulevard",
    "city": "Nashville",
    "state": "TN",
    "zip_code": "37076",
    "latitude": 36.18891980000001,
    "longitude": -86.6153982,
    "website": "https://www.buffalowildwings.com/locations/us/tn/hermitage/5215-old-hickory-blvd/sports-bar-212?utm_source=google%20my%20business&utm_medium=organic&utm_campaign=website%20link",
    "category": "Bar & Restaurant",
    "types": "meal_takeaway, bar, restaurant, food, point_of_interest, establishment"
  },
  {
    "place_id": "ChIJz_a4v8JpZIgRHNO9v-i1I3U",
    "name": "Edley's Bar-B-Que",
    "street_address": "2719 Lebanon Pike",
    "city": "Nashville",
    "state": "TN",
    "zip_code": "37214",
    "latitude": 36.16821849999999,
    "longitude": -86.6663528,
    "website": "https://www.edleysbbq.com/donelson",
    "category": "Restaurant",
    "types": "restaurant, point_of_interest, food, establishment"
  }
]