[
  {
    "place_id": "ChIJLYCZ9KxZwokRzPV1ej20A78",
    "name": "District Tap House",
    "street_address": "246 West 38th Street",
    "city": "New York",
    "state": "NY",
    "zip_code": "10018",
    "latitude": 40.75403929999999,
    "longitude": -73.99050129999999,
    "website": "http://www.districttaphouse.com/",
    "category": "Bar & Restaurant",
    "types": "bar, restaurant, food, point_of_interest, establishment"
  },
  {
    "place_id": "ChIJWVh7F1VYwokRG50ZNb_73zk",
    "name": "O'Donoghue\u2019s Times Square",
    "street_address": "156 West 44th Street",
    "city": "New York",
    "state": "NY",
    "zip_code": "10036",
    "latitude": 40.7569427,
    "longitude": -73.9852828,
    "website": "http://www.odpubnyc.com/",
    "category": "Bar & Restaurant",
    "types": "bar, restaurant, point_of_interest, food, establishment"
  },
  {
    "place_id": "ChIJJ91wx65ZwokRnjW2e69Imic",
    "name": "Stout NYC",
    "street_address": "133 West 33rd Street",
    "city": "New York",
    "state": "NY",
    "zip_code": "10001",
    "latitude": 40.74996599999999,
    "longitude": -73.98986599999999,
    "website": "https://www.stoutnyc.com/",
    "category": "Bar & Restaurant",
    "types": "bar, restaurant, food, point_of_interest, establishment"
  },
  {
    "place_id": "ChIJ5Z-4NaxZwokRF98-wGsCVDM",
    "name": "Juniper Bar",
    "street_address": "237 West 35th Street",
    "city": "New York",
    "state": "NY",
    "zip_code": "10001",
    "latitude": 40.752344,
    "longitude": -73.9914045,
    "website": "http://www.juniperbarnyc.com/",
    "category": "Bar & Restaurant",
    "types": "restaurant, bar, food, point_of_interest, establishment"
  },
  {
    "place_id": "ChIJme4A6d5bwokR7QwUdTNRp5E",
    "name": "Brickyard Craft Kitchen & Bar",
    "street_address": "23 Park Place",
    "city": "New York",
    "state": "NY",
    "zip_code": "10007",
    "latitude": 40.7133249,
    "longitude": -74.008664,
    "website": "http://brickyardbarnyc.com/",
    "category": "Bar & Restaurant",
    "types": "bar, restaurant, food, point_of_interest, establishment"
  },
  {
    "place_id": "ChIJIRiJaRRawokR2KyQ984qa-o",
    "name": "The Dead Rabbit",
    "street_address": "30 Water Street",
    "city": "New York",
    "state": "NY",
    "zip_code": "10004",
    "latitude": 40.70326850000001,
    "longitude": -74.0110218,
    "website": "https://thedeadrabbit.com/?utm_source=google_business_profile&utm_medium=gbp_view_website&utm_campaign=google_business_profile",
    "category": "Bar & Restaurant",
    "types": "bar, restaurant, food, point_of_interest, establishment"
  },
  {
    "place_id": "ChIJ6bXru69ZwokRQQ77x79D89M",
    "name": "Mustang Harry's",
    "street_address": "352 7th Avenue",
    "city": "New York",
    "state": "NY",
    "zip_code": "10001",
    "latitude": 40.7483311,
    "longitude": -73.9929116,
    "website": "https://www.mustangharrys.com/",
    "category": "Bar & Restaurant",
    "types": "restaurant, food, bar, point_of_interest, establishment"
  },
  {
    "place_id": "ChIJ8587uK5ZwokRhBVe6xxdXrw",
    "name": "F\u00e9ile",
    "street_address": "131 West 33rd Street",
    "city": "New York",
    "state": "NY",
    "zip_code": "10001",
    "latitude": 40.7499629,
    "longitude": -73.9896857,
    "website": "https://www.feilenyc.com/",
    "category": "Bar & Restaurant",
    "types": "restaurant, bar, food, point_of_interest, establishment"
  },
  {
    "place_id": "ChIJI9Gs4RdawokRYK7bZE8reok",
    "name": "Stout NYC",
    "street_address": "90 John Street",
    "city": "New York",
    "state": "NY",
    "zip_code": "10038",
    "latitude": 40.70791819999999,
    "longitude": -74.0065152,
    "website": "https://www.stoutnyc.com/",
    "category": "Bar & Restaurant",
    "types": "bar, restaurant, food, point_of_interest, establishment"
  },
  {
    "place_id": "ChIJw-9BIqJZwokRJHawGH7Y_kc",
    "name": "Old Town Bar",
    "street_address": "45 East 18th Street",
    "city": "New York",
    "state": "NY",
    "zip_code": "10003",
    "latitude": 40.7376111,
    "longitude": -73.9891583,
    "website": "http://www.oldtownbarnyc.com/",
    "category": "Bar & Restaurant",
    "types": "bar, restaurant, food, point_of_interest, establishment"
  },
  {
    "place_id": "ChIJY2mhaaVZwokREl-Qs_zLY_Y",
    "name": "Crompton Ale House",
    "street_address": "159 West 26th Street",
    "city": "New York",
    "state": "NY",
    "zip_code": "10001",
    "latitude": 40.74580919999999,
    "longitude": -73.99330189999999,
    "website": "http://cromptonalehouse.com/",
    "category": "Bar & Restaurant",
    "types": "bar, restaurant, food, point_of_interest, establishment"
  },
  {
    "place_id": "ChIJAS6GeVVYwokRPfg8xt4nH-I",
    "name": "Connolly's",
    "street_address": "121 West 45th Street",
    "city": "New York",
    "state": "NY",
    "zip_code": "10036",
    "latitude": 40.7573681,
    "longitude": -73.9835798,
    "website": "https://www.connollyspubandrestaurant.com/",
    "category": "Bar & Restaurant",
    "types": "bar, restaurant, food, point_of_interest, establishment"
  },
  {
    "place_id": "ChIJUS62G_9YwokRri3SXgQK37c",
    "name": "Pig 'N' Whistle Public House",
    "street_address": "58 West 48th Street",
    "city": "New York",
    "state": "NY",
    "zip_code": "10036",
    "latitude": 40.7580769,
    "longitude": -73.98059529999999,
    "website": "https://www.pignwhistle48st.com/",
    "category": "Bar & Restaurant",
    "types": "bar, restaurant, point_of_interest, food, establishment"
  },
  {
    "place_id": "ChIJ7UjG_dxZwokRiDVQ7eadq1Y",
    "name": "The Long Acre Tavern",
    "street_address": "146 West 47th Street",
    "city": "New York",
    "state": "NY",
    "zip_code": "10036",
    "latitude": 40.7586546,
    "longitude": -73.9836163,
    "website": "http://longacrenyc.com/",
    "category": "Bar & Restaurant",
    "types": "bar, restaurant, food, point_of_interest, establishment"
  },
  {
    "place_id": "ChIJGfAs0ZRZwokR584EB4uBkyU",
    "name": "White Horse Tavern",
    "street_address": "567 Hudson Street",
    "city": "New York",
    "state": "NY",
    "zip_code": "10014",
    "latitude": 40.7356977,
    "longitude": -74.006192,
    "website": "https://www.whitehorsetavern1880.com/",
    "category": "Bar & Restaurant",
    "types": "bar, restaurant, food, point_of_interest, establishment"
  },
  {
    "place_id": "ChIJF812Hf9YwokR1DhQHSRZXSY",
    "name": "Sean's Bar & Kitchen",
    "street_address": "42 West 48th Street",
    "city": "New York",
    "state": "NY",
    "zip_code": "10036",
    "latitude": 40.7579118,
    "longitude": -73.9801252,
    "website": "https://www.seansbarandkitchen.com/",
    "category": "Bar & Restaurant",
    "types": "bar, restaurant, point_of_interest, food, establishment"
  },
  {
    "place_id": "ChIJWZVoalVYwokRnPIXV2adxKA",
    "name": "The Long Room",
    "street_address": "120 West 44th Street",
    "city": "New York",
    "state": "NY",
    "zip_code": "10036",
    "latitude": 40.7564107,
    "longitude": -73.9843398,
    "website": "https://www.thelongroomnyc.com/",
    "category": "Bar & Restaurant",
    "types": "night_club, bar, restaurant, food, point_of_interest, establishment"
  },
  {
    "place_id": "ChIJhTEM89hbwokRSNmsfqZ8wVE",
    "name": "Corner Bar",
    "street_address": "10 Allen Street",
    "city": "New York",
    "state": "NY",
    "zip_code": "10002",
    "latitude": 40.7147557,
    "longitude": -73.9922363,
    "website": "http://cornerbarnyc.com/",
    "category": "Bar & Restaurant",
    "types": "restaurant, bar, food, point_of_interest, establishment"
  },
  {
    "place_id": "ChIJ__Ry6ZFZwokRge73vP_ViGI",
    "name": "The Malt House Greenwich Village",
    "street_address": "206 Thompson Street",
    "city": "New York",
    "state": "NY",
    "zip_code": "10012",
    "latitude": 40.7286201,
    "longitude": -73.9993527,
    "website": "http://themalthousenyc.com/",
    "category": "Bar & Restaurant",
    "types": "bar, restaurant, food, point_of_interest, establishment"
  },
  {
    "place_id": "ChIJq74bs1dYwokRDgoAUJ6CyOI",
    "name": "McHale's Bar & Grill",
    "street_address": "251 West 51st Street",
    "city": "New York",
    "state": "NY",
    "zip_code": "10019",
    "latitude": 40.7628137,
    "longitude": -73.9850819,
    "website": "http://www.mchalespub.com/",
    "category": "Bar & Restaurant",
    "types": "bar, restaurant, point_of_interest, food, establishment"
  },
  {
    "place_id": "ChIJmQ8E2lNYwokR8RY8Hn26bN0",
    "name": "Mercury Bar West",
    "street_address": "659 9th Avenue",
    "city": "New York",
    "state": "NY",
    "zip_code": "10036",
    "latitude": 40.7608792,
    "longitude": -73.9911618,
    "website": "http://www.mercurybarnyc.com/",
    "category": "Bar & Restaurant",
    "types": "bar, restaurant, food, point_of_interest, establishment"
  },
  {
    "place_id": "ChIJ277esglZwokRaR3P6oIBXqY",
    "name": "Goldie\u2019s Tavern",
    "street_address": "135 West 30th Street",
    "city": "New York",
    "state": "NY",
    "zip_code": "10001",
    "latitude": 40.7481039,
    "longitude": -73.9911941,
    "website": "http://www.goldiestavern.com/",
    "category": "Bar & Restaurant",
    "types": "bar, restaurant, point_of_interest, food, establishment"
  },
  {
    "place_id": "ChIJueUCrBBawokRiw9LMJFm0_o",
    "name": "O'Hara's Restaurant and Pub",
    "street_address": "120 Cedar Street",
    "city": "New York",
    "state": "NY",
    "zip_code": "10006",
    "latitude": 40.7095008,
    "longitude": -74.0126642,
    "website": "https://oharasrestaurantandpub.site/",
    "category": "Bar & Restaurant",
    "types": "bar, restaurant, food, point_of_interest, establishment"
  },
  {
    "place_id": "ChIJkzk9I6VZwokRJpievwzdRu0",
    "name": "Smithfield Hall NYC",
    "street_address": "138 West 25th Street",
    "city": "New York",
    "state": "NY",
    "zip_code": "10001",
    "latitude": 40.7447306,
    "longitude": -73.99354439999999,
    "website": "http://www.smithfieldnyc.com/",
    "category": "Bar & Restaurant",
    "types": "night_club, bar, restaurant, food, point_of_interest, establishment"
  },
  {
    "place_id": "ChIJ76gDrpxYwokRYpcajBXjfZY",
    "name": "The Tailor Public House",
    "street_address": "505 8th Avenue",
    "city": "New York",
    "state": "NY",
    "zip_code": "10018",
    "latitude": 40.7532092,
    "longitude": -73.99290780000001,
    "website": "https://thetailornyc.com/",
    "category": "Bar & Restaurant",
    "types": "bar, restaurant, food, point_of_interest, establishment"
  },
  {
    "place_id": "ChIJ3Qb-DiRZwokRkEghX9l8a_Y",
    "name": "The Joyce Public House",
    "street_address": "315 West 39th Street",
    "city": "New York",
    "state": "NY",
    "zip_code": "10018",
    "latitude": 40.7559406,
    "longitude": -73.99207059999999,
    "website": "https://www.thejoycepublichouse.com/",
    "category": "Bar & Restaurant",
    "types": "restaurant, food, bar, point_of_interest, establishment"
  },
  {
    "place_id": "ChIJSzZpuklZwokR4afr0ydJy7Q",
    "name": "Malone's Irish Bar & Restaurant",
    "street_address": "692 3rd Avenue",
    "city": "New York",
    "state": "NY",
    "zip_code": "10017",
    "latitude": 40.7518635,
    "longitude": -73.9739876,
    "website": "https://malonesnyc.com/",
    "category": "Bar & Restaurant",
    "types": "bar, restaurant, food, point_of_interest, establishment"
  },
  {
    "place_id": "ChIJ3zjtdppZwokRhZZwPc4gsj0",
    "name": "White Oak Tavern",
    "street_address": "21 Waverly Place",
    "city": "New York",
    "state": "NY",
    "zip_code": "10003",
    "latitude": 40.7303933,
    "longitude": -73.99461339999999,
    "website": "https://www.whiteoakny.com/",
    "category": "Restaurant",
    "types": "restaurant, food, point_of_interest, establishment"
  },
  {
    "place_id": "ChIJ2wjfy-VYwokRFCDXmpP1rH4",
    "name": "Bloom's Tavern",
    "street_address": "208 East 58th Street",
    "city": "New York",
    "state": "NY",
    "zip_code": "10022",
    "latitude": 40.7605255,
    "longitude": -73.9665898,
    "website": "http://www.bloomsnyc.com/",
    "category": "Bar & Restaurant",
    "types": "bar, restaurant, food, point_of_interest, establishment"
  },
  {
    "place_id": "ChIJl6X5KVFYwokR6Vv2w9j6K0c",
    "name": "Gossip",
    "street_address": "733 9th Avenue",
    "city": "New York",
    "state": "NY",
    "zip_code": "10019",
    "latitude": 40.7633552,
    "longitude": -73.989384,
    "website": "http://www.gossipbarnyc.com/",
    "category": "Bar & Restaurant",
    "types": "bar, restaurant, food, point_of_interest, establishment"
  },
  {
    "place_id": "ChIJW5xpb_1YwokR_ioNQo7Ot4c",
    "name": "Connolly's",
    "street_address": "14 East 47th Street",
    "city": "New York",
    "state": "NY",
    "zip_code": "10017",
    "latitude": 40.7561085,
    "longitude": -73.97774489999999,
    "website": "http://www.connollyspubandrestaurant.com/",
    "category": "Bar & Restaurant",
    "types": "bar, restaurant, food, point_of_interest, establishment"
  },
  {
    "place_id": "ChIJaXqVFQRZwokRUltXpIRuMg8",
    "name": "The Black Sheep Sports Bar N.Y.C",
    "street_address": "593 3rd Avenue",
    "city": "New York",
    "state": "NY",
    "zip_code": "10016",
    "latitude": 40.748566,
    "longitude": -73.975636,
    "website": "http://theblacksheepnyc.com/",
    "category": "Bar & Restaurant",
    "types": "bar, restaurant, food, point_of_interest, establishment"
  },
  {
    "place_id": "ChIJb3gra6xZwokRRfr2bL2AfhI",
    "name": "Pig n Whistle",
    "street_address": "202 West 36th Street",
    "city": "New York",
    "state": "NY",
    "zip_code": "10018",
    "latitude": 40.752356,
    "longitude": -73.9901802,
    "website": "http://www.pignwhistleon36th.com/",
    "category": "Bar & Restaurant",
    "types": "restaurant, food, bar, point_of_interest, establishment"
  },
  {
    "place_id": "ChIJW3PAHalZwokRrw41djg_Tik",
    "name": "Jack Demsey's",
    "street_address": "36 West 33rd Street",
    "city": "New York",
    "state": "NY",
    "zip_code": "10001",
    "latitude": 40.74845930000001,
    "longitude": -73.98687129999999,
    "website": "http://www.jackdemseys.com/",
    "category": "Bar & Restaurant",
    "types": "bar, restaurant, point_of_interest, food, establishment"
  },
  {
    "place_id": "ChIJVVXR1B5awokRR-5KS_hE0uE",
    "name": "Monk McGinns",
    "street_address": "57 Murray Street",
    "city": "New York",
    "state": "NY",
    "zip_code": "10007",
    "latitude": 40.7143711,
    "longitude": -74.00969429999999,
    "website": "https://monkmcginnsnyc.com/",
    "category": "Bar & Restaurant",
    "types": "bar, restaurant, food, point_of_interest, establishment"
  },
  {
    "place_id": "ChIJTaNaDAFZwokRcQPOZA4DXhM",
    "name": "Stout NYC",
    "street_address": "60 East 41st Street",
    "city": "New York",
    "state": "NY",
    "zip_code": "10017",
    "latitude": 40.7516115,
    "longitude": -73.9788202,
    "website": "https://www.stoutnyc.com/",
    "category": "Bar & Restaurant",
    "types": "bar, restaurant, food, point_of_interest, establishment"
  },
  {
    "place_id": "ChIJQ9CgChRawokRIpsalX0vrb0",
    "name": "White Horse Tavern - Financial District",
    "street_address": "25 Bridge Street",
    "city": "New York",
    "state": "NY",
    "zip_code": "10004",
    "latitude": 40.703806,
    "longitude": -74.012371,
    "website": "http://www.whitehorsetavernfidi.com/",
    "category": "Bar & Restaurant",
    "types": "restaurant, food, bar, point_of_interest, establishment"
  },
  {
    "place_id": "ChIJ6Q5lB45ZwokRWxpOYs-b3Nc",
    "name": "Blue Haven",
    "street_address": "108 West Houston Street",
    "city": "New York",
    "state": "NY",
    "zip_code": "10012",
    "latitude": 40.72755739999999,
    "longitude": -74.00057939999999,
    "website": "http://westvillage.bluehavennyc.com/.",
    "category": "Bar & Restaurant",
    "types": "bar, restaurant, food, point_of_interest, establishment"
  },
  {
    "place_id": "ChIJrZOHF_pYwokRv56k2hjLbPQ",
    "name": "Judge Roy Bean Public House",
    "street_address": "38 West 56th Street",
    "city": "New York",
    "state": "NY",
    "zip_code": "10019",
    "latitude": 40.76294559999999,
    "longitude": -73.97642069999999,
    "website": "http://www.judgeroybeannyc.com/",
    "category": "Bar & Restaurant",
    "types": "bar, restaurant, point_of_interest, food, establishment"
  },
  {
    "place_id": "ChIJjz4VKJJZwokROQSktDtYo9k",
    "name": "Off the Wagon",
    "street_address": "109 MacDougal Street",
    "city": "New York",
    "state": "NY",
    "zip_code": "10012",
    "latitude": 40.7299239,
    "longitude": -74.0007935,
    "website": "https://www.offthewagonnyc.com/",
    "category": "Bar & Restaurant",
    "types": "bar, restaurant, food, point_of_interest, establishment"
  },
  {
    "place_id": "ChIJuw8gqwZZwokRmRgRyuizggw",
    "name": "The Junction",
    "street_address": "329 Lexington Avenue",
    "city": "New York",
    "state": "NY",
    "zip_code": "10016",
    "latitude": 40.74927099999999,
    "longitude": -73.977374,
    "website": "http://www.thejunctionnyc.com/",
    "category": "Bar & Restaurant",
    "types": "bar, restaurant, food, point_of_interest, establishment"
  },
  {
    "place_id": "ChIJIS8qblVYwokRFcTD6U66DlU",
    "name": "The Perfect Pint",
    "street_address": "123 West 45th Street",
    "city": "New York",
    "state": "NY",
    "zip_code": "10036",
    "latitude": 40.7574092,
    "longitude": -73.9837409,
    "website": "http://www.theperfectpintnyc.com/",
    "category": "Bar & Restaurant",
    "types": "bar, restaurant, food, point_of_interest, establishment"
  },
  {
    "place_id": "ChIJMUiKI6xZwokRDEokmGYpJK8",
    "name": "John Sullivan's",
    "street_address": "210 West 35th Street",
    "city": "New York",
    "state": "NY",
    "zip_code": "10001",
    "latitude": 40.7516532,
    "longitude": -73.9907024,
    "website": "http://www.johnsullivansnyc.com/",
    "category": "Bar & Restaurant",
    "types": "bar, restaurant, food, point_of_interest, establishment"
  },
  {
    "place_id": "ChIJbYO6inVZwokRdJFKZFGP_l8",
    "name": "O'Hanlon's",
    "street_address": "349 East 14th Street",
    "city": "New York",
    "state": "NY",
    "zip_code": "10003",
    "latitude": 40.7316636,
    "longitude": -73.9829316,
    "website": "https://instagram.com/ohanlonsbarnyc?utm_source=qr&igshid=MzNlNGNkZWQ4Mg==",
    "category": "Bar & Restaurant",
    "types": "bar, restaurant, food, point_of_interest, establishment"
  },
  {
    "place_id": "ChIJL0D4jJNZwokRWQTfTBLjlvw",
    "name": "The Spaniard",
    "street_address": "190 W 4th Street",
    "city": "New York",
    "state": "NY",
    "zip_code": "10014",
    "latitude": 40.7327497,
    "longitude": -74.0021829,
    "website": "https://www.thespaniardnyc.com/",
    "category": "Bar & Restaurant",
    "types": "bar, restaurant, point_of_interest, food, establishment"
  },
  {
    "place_id": "ChIJuSb7kZNZwokRyFL7gpKQbfA",
    "name": "Barrow Street Ale House",
    "street_address": "15 Barrow Street",
    "city": "New York",
    "state": "NY",
    "zip_code": "10014",
    "latitude": 40.7326444,
    "longitude": -74.0025296,
    "website": "https://barrowstreetalehouse.com/",
    "category": "Bar & Restaurant",
    "types": "night_club, bar, restaurant, food, point_of_interest, establishment"
  },
  {
    "place_id": "ChIJfWVsl1ZYwokR9qnmtWV2pEg",
    "name": "Sir Henry\u2019s",
    "street_address": "795 8th Avenue",
    "city": "New York",
    "state": "NY",
    "zip_code": "10019",
    "latitude": 40.7613102,
    "longitude": -73.9871615,
    "website": "https://sirhenrysnyc.com/",
    "category": "Bar & Restaurant",
    "types": "bar, restaurant, food, point_of_interest, establishment"
  },
  {
    "place_id": "ChIJKa9481BYwokRgYY2RmM3kbo",
    "name": "The Waylon",
    "street_address": "736 10th Avenue",
    "city": "New York",
    "state": "NY",
    "zip_code": "10019",
    "latitude": 40.7647761,
    "longitude": -73.99143389999999,
    "website": "http://thewaylon.com/",
    "category": "Bar & Restaurant",
    "types": "bar, restaurant, point_of_interest, food, establishment"
  },
  {
    "place_id": "ChIJD81nnvdYwokRbq9qfuo-L-0",
    "name": "P.J. Carney\u2019s Pub",
    "street_address": "906 7th Avenue",
    "city": "New York",
    "state": "NY",
    "zip_code": "10019",
    "latitude": 40.76591699999999,
    "longitude": -73.980065,
    "website": "https://pjcarneyspub.shop/",
    "category": "Bar & Restaurant",
    "types": "restaurant, food, bar, point_of_interest, establishment"
  },
  {
    "place_id": "ChIJe1Sr3QtZwokRTTe4Qb-w9lw",
    "name": "M J Smith's Food & Spirits",
    "street_address": "9 East 45th Street",
    "city": "New York",
    "state": "NY",
    "zip_code": "10017",
    "latitude": 40.75518390000001,
    "longitude": -73.9783971,
    "website": "https://www.mjsmithsnyc.com/",
    "category": "Bar & Restaurant",
    "types": "bar, restaurant, point_of_interest, food, establishment"
  },
  {
    "place_id": "ChIJT2yDkblbwokRF8WHI6PUQ3M",
    "name": "Brooklyn Public House",
    "street_address": "247 DeKalb Avenue",
    "city": "New York",
    "state": "NY",
    "zip_code": "11205",
    "latitude": 40.6895906,
    "longitude": -73.96936459999999,
    "website": "http://www.brooklynpublic.com/",
    "category": "Bar & Restaurant",
    "types": "restaurant, bar, food, point_of_interest, establishment"
  },
  {
    "place_id": "ChIJTa68OwpZwokRKUQhhVhnf58",
    "name": "O'Casey's Times Square",
    "street_address": "252 West 46th Street",
    "city": "New York",
    "state": "NY",
    "zip_code": "10036",
    "latitude": 40.7593302,
    "longitude": -73.9872875,
    "website": "https://ocaseystimesquare.com/",
    "category": "Bar & Restaurant",
    "types": "restaurant, bar, food, point_of_interest, establishment"
  },
  {
    "place_id": "ChIJwcai9r1ZwokRdNbFwC4ifZs",
    "name": "The Celtic Rail NYC",
    "street_address": "137 West 33rd Street",
    "city": "New York",
    "state": "NY",
    "zip_code": "10001",
    "latitude": 40.7499707,
    "longitude": -73.99001419999999,
    "website": null,
    "category": "Bar & Restaurant",
    "types": "restaurant, bar, food, point_of_interest, establishment"
  },
  {
    "place_id": "ChIJNynavQJZwokRaZVXO55O1FQ",
    "name": "The Perfect Pint",
    "street_address": "203 East 45th Street",
    "city": "New York",
    "state": "NY",
    "zip_code": "10017",
    "latitude": 40.7526651,
    "longitude": -73.97265519999999,
    "website": "http://www.theperfectpintnyc.com/",
    "category": "Bar & Restaurant",
    "types": "bar, restaurant, point_of_interest, food, establishment"
  },
  {
    "place_id": "ChIJSUP-YaBZwokRkZCq3_0Zc_8",
    "name": "Gramercy Ale House",
    "street_address": "272 3rd Avenue",
    "city": "New York",
    "state": "NY",
    "zip_code": "10010",
    "latitude": 40.73793779999999,
    "longitude": -73.9840751,
    "website": null,
    "category": "Bar & Restaurant",
    "types": "bar, restaurant, point_of_interest, food, establishment"
  },
  {
    "place_id": "ChIJhwECQE5YwokRGWW9EDDrAfQ",
    "name": "The Landmark Tavern",
    "street_address": "626 11th Avenue",
    "city": "New York",
    "state": "NY",
    "zip_code": "10036",
    "latitude": 40.7631984,
    "longitude": -73.9963363,
    "website": "http://www.thelandmarktavern.com/",
    "category": "Bar & Restaurant",
    "types": "bar, restaurant, point_of_interest, food, establishment"
  },
  {
    "place_id": "ChIJGXpa75hZwokRgyNx41zXeJo",
    "name": "McCarthy's Pub NYC",
    "street_address": "144 West 46th Street",
    "city": "New York",
    "state": "NY",
    "zip_code": "10036",
    "latitude": 40.7579418,
    "longitude": -73.984189,
    "website": "https://www.mccarthysnyc.com/",
    "category": "Bar & Restaurant",
    "types": "bar, restaurant, point_of_interest, food, establishment"
  },
  {
    "place_id": "ChIJsXEP1LFZwokRneSkypl94JQ",
    "name": "Molly Wee",
    "street_address": "402 8th Avenue",
    "city": "New York",
    "state": "NY",
    "zip_code": "10001",
    "latitude": 40.7496725,
    "longitude": -73.9949706,
    "website": "http://themollywee.com/",
    "category": "Bar & Restaurant",
    "types": "restaurant, food, bar, point_of_interest, establishment"
  },
  {
    "place_id": "ChIJrynYIqxZwokREqIhxUvixhc",
    "name": "Blaggards Pub",
    "street_address": "8 West 38th Street",
    "city": "New York",
    "state": "NY",
    "zip_code": "10018",
    "latitude": 40.7511111,
    "longitude": -73.98361109999999,
    "website": "http://blaggardspub.com/",
    "category": "Bar & Restaurant",
    "types": "bar, restaurant, food, point_of_interest, establishment"
  },
  {
    "place_id": "ChIJ4_AAQhdawokRzbYlVLyzKlk",
    "name": "Trinity Place",
    "street_address": "115 Broadway",
    "city": "New York",
    "state": "NY",
    "zip_code": "10006",
    "latitude": 40.708882,
    "longitude": -74.01143259999999,
    "website": "http://www.trinityplacenyc.com/",
    "category": "Bar & Restaurant",
    "types": "restaurant, food, bar, point_of_interest, establishment"
  },
  {
    "place_id": "ChIJ92Q_APhYwokR0Ct3Oz-9CAE",
    "name": "McGee's Pub",
    "street_address": "240 West 55th Street",
    "city": "New York",
    "state": "NY",
    "zip_code": "10019",
    "latitude": 40.76484,
    "longitude": -73.982993,
    "website": "http://mcgeespubny.com/",
    "category": "Bar & Restaurant",
    "types": "bar, restaurant, point_of_interest, food, establishment"
  },
  {
    "place_id": "ChIJzch8PBZawokRlpx4GoWmnXM",
    "name": "The Full Shilling",
    "street_address": "160 Pearl Street",
    "city": "New York",
    "state": "NY",
    "zip_code": "10005",
    "latitude": 40.7058199,
    "longitude": -74.00757829999999,
    "website": "http://www.thefullshilling.com/",
    "category": "Bar & Restaurant",
    "types": "bar, restaurant, food, point_of_interest, establishment"
  },
  {
    "place_id": "ChIJ0RAxza1ZwokRaCu1WooWYVI",
    "name": "Jack Doyle's",
    "street_address": "240 West 35th Street",
    "city": "New York",
    "state": "NY",
    "zip_code": "10001",
    "latitude": 40.75216099999999,
    "longitude": -73.991941,
    "website": "http://www.jackdoylesnyc.com/",
    "category": "Bar & Restaurant",
    "types": "hospital, bar, health, restaurant, point_of_interest, food, establishment"
  },
  {
    "place_id": "ChIJEz93dWhbwokRgFLGNZb5KG4",
    "name": "Tavern On Reade",
    "street_address": "59 Reade Street",
    "city": "New York",
    "state": "NY",
    "zip_code": "10007",
    "latitude": 40.71476930000001,
    "longitude": -74.00662849999999,
    "website": "https://www.tavernonreade.com/",
    "category": "Bar & Restaurant",
    "types": "bar, restaurant, point_of_interest, food, establishment"
  },
  {
    "place_id": "ChIJiUxll6BZwokRgDgDzwAscN0",
    "name": "The Globe Bar",
    "street_address": "158 East 23rd Street",
    "city": "New York",
    "state": "NY",
    "zip_code": "10010",
    "latitude": 40.738842,
    "longitude": -73.983778,
    "website": "http://www.theglobeny.com/",
    "category": "Bar & Restaurant",
    "types": "restaurant, bar, point_of_interest, food, establishment"
  },
  {
    "place_id": "ChIJ8e_e1KtZwokRG1khy16JxDo",
    "name": "The Keg Room",
    "street_address": "53 West 36th Street",
    "city": "New York",
    "state": "NY",
    "zip_code": "10018",
    "latitude": 40.75080490000001,
    "longitude": -73.98599999999999,
    "website": "http://thekegroom.nyc/",
    "category": "Bar & Restaurant",
    "types": "bar, restaurant, point_of_interest, food, establishment"
  },
  {
    "place_id": "ChIJG4nCjnhZwokRu-d4LCNfQ_M",
    "name": "O'Toole's Way",
    "street_address": "518 West 30th Street",
    "city": "New York",
    "state": "NY",
    "zip_code": "10001",
    "latitude": 40.752395,
    "longitude": -74.002349,
    "website": "https://otoolesway.com/",
    "category": "Bar & Restaurant",
    "types": "restaurant, food, bar, point_of_interest, establishment"
  },
  {
    "place_id": "ChIJ4ayAJRhawokRjzLOsdPWMCs",
    "name": "The Irish American Pub",
    "street_address": "17 John Street",
    "city": "New York",
    "state": "NY",
    "zip_code": "10038",
    "latitude": 40.70986449999999,
    "longitude": -74.00874859999999,
    "website": "http://www.irishamericanpubnyc.com/",
    "category": "Bar & Restaurant",
    "types": "bar, restaurant, food, point_of_interest, establishment"
  },
  {
    "place_id": "ChIJ25G0-TFZwokRv0wTrz3oM2U",
    "name": "The Westbury",
    "street_address": "20 West 38th Street",
    "city": "New York",
    "state": "NY",
    "zip_code": "10018",
    "latitude": 40.7512301,
    "longitude": -73.9838982,
    "website": "https://www.thewestburynyc.com/",
    "category": "Bar & Restaurant",
    "types": "bar, restaurant, food, point_of_interest, establishment"
  },
  {
    "place_id": "ChIJZ4UT7o1ZwokRpAOpubL6UC4",
    "name": "Local",
    "street_address": "144 Sullivan Street",
    "city": "New York",
    "state": "NY",
    "zip_code": "10012",
    "latitude": 40.727089,
    "longitude": -74.0020555,
    "website": null,
    "category": "Bar & Restaurant",
    "types": "bar, restaurant, food, point_of_interest, establishment"
  },
  {
    "place_id": "ChIJ9X_jl6dZwokRj-axzQoDTmM",
    "name": "The Churchill Tavern",
    "street_address": "45 East 28th Street",
    "city": "New York",
    "state": "NY",
    "zip_code": "10016",
    "latitude": 40.7436111,
    "longitude": -73.9844444,
    "website": "http://www.thechurchillny.com/",
    "category": "Bar & Restaurant",
    "types": "bar, restaurant, food, point_of_interest, establishment"
  },
  {
    "place_id": "ChIJ8_eKZulZwokRhZYdv98woQE",
    "name": "Gibneys NYC",
    "street_address": "228 West 39th Street",
    "city": "New York",
    "state": "NY",
    "zip_code": "10018",
    "latitude": 40.75439739999999,
    "longitude": -73.9895974,
    "website": "http://www.gibneysnyc.com/",
    "category": "Bar & Restaurant",
    "types": "restaurant, food, bar, point_of_interest, establishment"
  },
  {
    "place_id": "ChIJeTwumh1fwokRHoQvBNtdkuU",
    "name": "Sean Og's Irish Pub",
    "street_address": "60-02 Woodside Avenue",
    "city": "New York",
    "state": "NY",
    "zip_code": "11377",
    "latitude": 40.74486350000001,
    "longitude": -73.9043257,
    "website": null,
    "category": "Bar & Restaurant",
    "types": "bar, restaurant, food, point_of_interest, establishment"
  },
  {
    "place_id": "ChIJo1fD3qxZwokRtJas3NuJcFw",
    "name": "Alfie's Kitchen & Craft Beer Bar",
    "street_address": "800 9th Avenue",
    "city": "New York",
    "state": "NY",
    "zip_code": "10019",
    "latitude": 40.7653757,
    "longitude": -73.98725309999999,
    "website": "http://www.alfiesnyc.com/",
    "category": "Bar & Restaurant",
    "types": "bar, restaurant, food, point_of_interest, establishment"
  },
  {
    "place_id": "ChIJE1SK5LtYwokRH1APiOrZNq0",
    "name": "The Penrose Bar",
    "street_address": "1590 2nd Avenue",
    "city": "New York",
    "state": "NY",
    "zip_code": "10028",
    "latitude": 40.7754985,
    "longitude": -73.9532816,
    "website": "http://www.penrosebar.com/",
    "category": "Bar & Restaurant",
    "types": "bar, restaurant, point_of_interest, food, establishment"
  },
  {
    "place_id": "ChIJZ0kHf79YwokRoyp64RkoMeQ",
    "name": "The Stumble Inn",
    "street_address": "1454 2nd Avenue",
    "city": "New York",
    "state": "NY",
    "zip_code": "10021",
    "latitude": 40.7711833,
    "longitude": -73.9562997,
    "website": "https://www.thestumbleinnnyc.com/",
    "category": "Bar & Restaurant",
    "types": "bar, restaurant, food, point_of_interest, establishment"
  },
  {
    "place_id": "ChIJZ-Drlhb2wokREuV4YeyyZcc",
    "name": "Harlem Tavern",
    "street_address": "2153 Frederick Douglass Boulevard",
    "city": "New York",
    "state": "NY",
    "zip_code": "10026",
    "latitude": 40.8047593,
    "longitude": -73.9554794,
    "website": "http://harlemtavern.com/",
    "category": "Bar & Restaurant",
    "types": "bar, restaurant, food, point_of_interest, establishment"
  },
  {
    "place_id": "ChIJwS85aqVYwokRhmgGaQQc6Ik",
    "name": "The Milton",
    "street_address": "1754 2nd Avenue",
    "city": "New York",
    "state": "NY",
    "zip_code": "10128",
    "latitude": 40.7812533,
    "longitude": -73.9489878,
    "website": "http://themiltonnyc.com/",
    "category": "Bar & Restaurant",
    "types": "bar, restaurant, food, point_of_interest, establishment"
  },
  {
    "place_id": "ChIJSfZFYrpYwokRf0675lrwNsk",
    "name": "East End Bar & Grill",
    "street_address": "1672 3rd Avenue",
    "city": "New York",
    "state": "NY",
    "zip_code": "10128",
    "latitude": 40.7837793,
    "longitude": -73.95065199999999,
    "website": "https://eastendnewyork.com/",
    "category": "Bar & Restaurant",
    "types": "bar, restaurant, food, point_of_interest, establishment"
  },
  {
    "place_id": "ChIJAbAvU8dYwokRwAvBDqWmDMo",
    "name": "Jones Wood Foundry",
    "street_address": "401 East 76th Street",
    "city": "New York",
    "state": "NY",
    "zip_code": "10021",
    "latitude": 40.77033850000001,
    "longitude": -73.95358809999999,
    "website": "http://www.joneswoodfoundry.com/",
    "category": "Bar & Restaurant",
    "types": "restaurant, meal_takeaway, bar, food, point_of_interest, establishment"
  },
  {
    "place_id": "ChIJ0wp4EhRfwokRI07IlIape3s",
    "name": "The Brewery Bar & Kitchen",
    "street_address": "49-18 30th Avenue",
    "city": "New York",
    "state": "NY",
    "zip_code": "11377",
    "latitude": 40.76006499999999,
    "longitude": -73.9073276,
    "website": "http://www.thebrewery.nyc/",
    "category": "Bar & Restaurant",
    "types": "bar, restaurant, point_of_interest, food, establishment"
  },
  {
    "place_id": "ChIJ1XcODlRZwokRK_Qaorw4whc",
    "name": "Side Door",
    "street_address": "151 East 57th Street",
    "city": "New York",
    "state": "NY",
    "zip_code": "10022",
    "latitude": 40.76077009999999,
    "longitude": -73.9683651,
    "website": "http://sidedoornyc.com/",
    "category": "Bar & Restaurant",
    "types": "bar, restaurant, food, point_of_interest, establishment"
  },
  {
    "place_id": "ChIJ72qJ17FZwokRjGjj65r0is0",
    "name": "Blarney Stone",
    "street_address": "410 8th Avenue",
    "city": "New York",
    "state": "NY",
    "zip_code": "10001",
    "latitude": 40.74993800000001,
    "longitude": -73.994912,
    "website": "http://blarneystonemidtownnyc.com/",
    "category": "Bar & Restaurant",
    "types": "bar, restaurant, food, point_of_interest, establishment"
  },
  {
    "place_id": "ChIJd3-uGZ1ZwokR2fCvxWdgWqY",
    "name": "The Grafton",
    "street_address": "126 1st Avenue",
    "city": "New York",
    "state": "NY",
    "zip_code": "10009",
    "latitude": 40.72722589999999,
    "longitude": -73.98527519999999,
    "website": "http://www.thegraftonnyc.com/",
    "category": "Bar & Restaurant",
    "types": "bar, restaurant, food, point_of_interest, establishment"
  },
  {
    "place_id": "ChIJkQhyD4VZwokRkuLC_HdUQsU",
    "name": "Sl\u00e1inte Bar and Lounge",
    "street_address": "304 Bowery",
    "city": "New York",
    "state": "NY",
    "zip_code": "10012",
    "latitude": 40.7247919,
    "longitude": -73.9927436,
    "website": "http://www.slaintebarnyc.com/",
    "category": "Bar & Restaurant",
    "types": "restaurant, bar, food, point_of_interest, establishment"
  },
  {
    "place_id": "ChIJn-PPbBRawokR3o5lQeBaB_w",
    "name": "Fraunces Tavern",
    "street_address": "54 Pearl Street",
    "city": "New York",
    "state": "NY",
    "zip_code": "10004",
    "latitude": 40.7034181,
    "longitude": -74.01136489999999,
    "website": "http://www.frauncestavern.com/",
    "category": "Bar & Restaurant",
    "types": "museum, restaurant, food, bar, point_of_interest, establishment"
  },
  {
    "place_id": "ChIJTUnFcYpZwokRnDeckKVR3Nw",
    "name": "Albert\u2019s Bar",
    "street_address": "140 East 41st Street",
    "city": "New York",
    "state": "NY",
    "zip_code": "10017",
    "latitude": 40.7503629,
    "longitude": -73.97613299999999,
    "website": "https://www.albertsbar.com/",
    "category": "Bar & Restaurant",
    "types": "bar, restaurant, food, point_of_interest, establishment"
  },
  {
    "place_id": "ChIJEdFITlhFwokRXjI1Gakz_UE",
    "name": "Salty Dog",
    "street_address": "7509 3rd Avenue",
    "city": "New York",
    "state": "NY",
    "zip_code": "11209",
    "latitude": 40.6310894,
    "longitude": -74.0276456,
    "website": "http://www.saltydogbayridge.com/",
    "category": "Bar & Restaurant",
    "types": "bar, restaurant, food, point_of_interest, establishment"
  },
  {
    "place_id": "ChIJhQCuY3VbwokRanBob6BoCrI",
    "name": "Franklin Park",
    "street_address": "618 Saint Johns Place",
    "city": "New York",
    "state": "NY",
    "zip_code": "11238",
    "latitude": 40.6722765,
    "longitude": -73.95787109999999,
    "website": "https://www.franklinparkbk.com/",
    "category": "Bar & Restaurant",
    "types": "bar, restaurant, point_of_interest, food, establishment"
  },
  {
    "place_id": "ChIJD4OFH6xbwokRd0rP-xdx-iM",
    "name": "Alchemy",
    "street_address": "56 5th Avenue",
    "city": "New York",
    "state": "NY",
    "zip_code": "11217",
    "latitude": 40.6813302,
    "longitude": -73.9772776,
    "website": "http://alchemybrooklyn.com/",
    "category": "Bar & Restaurant",
    "types": "bar, restaurant, point_of_interest, food, establishment"
  },
  {
    "place_id": "ChIJdfVkBtNbwokRuI-mVI3_ZcU",
    "name": "FancyFree",
    "street_address": "71 Lafayette Avenue",
    "city": "New York",
    "state": "NY",
    "zip_code": "11217",
    "latitude": 40.68728550000001,
    "longitude": -73.97546489999999,
    "website": "https://fancyfreebk.com/",
    "category": "Bar & Restaurant",
    "types": "bar, restaurant, point_of_interest, food, establishment"
  },
  {
    "place_id": "ChIJR6nWeq9QwokRpkeN8zc9CJY",
    "name": "Light Horse Tavern",
    "street_address": "199 Washington Street",
    "city": "Jersey City",
    "state": "NJ",
    "zip_code": "07302",
    "latitude": 40.7140131,
    "longitude": -74.0382095,
    "website": "http://www.lighthorsetavern.com/",
    "category": "Bar & Restaurant",
    "types": "restaurant, bar, food, point_of_interest, establishment"
  },
  {
    "place_id": "ChIJORusnddbwokROPe35bFTv4M",
    "name": "London & Martin Co.",
    "street_address": "6 Stone Street",
    "city": "New York",
    "state": "NY",
    "zip_code": "10004",
    "latitude": 40.7039501,
    "longitude": -74.0124186,
    "website": "http://www.londonmartinco.com/",
    "category": "Bar & Restaurant",
    "types": "bar, restaurant, point_of_interest, food, establishment"
  },
  {
    "place_id": "ChIJAy51juRawokRYmL8A0VMHIE",
    "name": "Black Horse Pub",
    "street_address": "568 5th Avenue",
    "city": "New York",
    "state": "NY",
    "zip_code": "11215",
    "latitude": 40.6651207,
    "longitude": -73.98990169999999,
    "website": "https://www.blackhorsebrooklyn.com/page1/page1.html",
    "category": "Bar & Restaurant",
    "types": "bar, restaurant, point_of_interest, food, establishment"
  },
  {
    "place_id": "ChIJp5C1XlVZwokR-4vkeemYjXI",
    "name": "The Anchored Inn",
    "street_address": "57 Waterbury Street",
    "city": "New York",
    "state": "NY",
    "zip_code": "11206",
    "latitude": 40.7091381,
    "longitude": -73.93731009999999,
    "website": "http://theanchoredinn.com/",
    "category": "Bar & Restaurant",
    "types": "bar, restaurant, food, point_of_interest, establishment"
  },
  {
    "place_id": "ChIJV_vNLhRawokRt36u5nIPaVw",
    "name": "Ulysses'",
    "street_address": "58 Stone Street",
    "city": "New York",
    "state": "NY",
    "zip_code": "10004",
    "latitude": 40.70445409999999,
    "longitude": -74.0100116,
    "website": "https://www.ulyssesnyc.com/",
    "category": "Bar & Restaurant",
    "types": "bar, restaurant, point_of_interest, food, establishment"
  },
  {
    "place_id": "ChIJz2LkMpxbwokR7BeE1b53kLM",
    "name": "99Rogers",
    "street_address": "99 Rogers Avenue",
    "city": "New York",
    "state": "NY",
    "zip_code": "11216",
    "latitude": 40.67428789999999,
    "longitude": -73.9526714,
    "website": "https://www.facebook.com/99rogers/",
    "category": "Bar & Restaurant",
    "types": "bar, restaurant, point_of_interest, food, establishment"
  },
  {
    "place_id": "ChIJsTa8m65bwokRJdKLMPF5yUI",
    "name": "McMahon's Public House",
    "street_address": "39 5th Avenue",
    "city": "New York",
    "state": "NY",
    "zip_code": "11217",
    "latitude": 40.68165879999999,
    "longitude": -73.97650770000001,
    "website": "https://www.mcmahonspublic.com/",
    "category": "Bar & Restaurant",
    "types": "bar, restaurant, point_of_interest, food, establishment"
  },
  {
    "place_id": "ChIJ__u3R6tbwokRYMOym8O83H0",
    "name": "Threes Brewing",
    "street_address": "333 Douglass Street",
    "city": "New York",
    "state": "NY",
    "zip_code": "11217",
    "latitude": 40.6798012,
    "longitude": -73.9821573,
    "website": "https://shop.threesbrewing.com/pages/gowanus",
    "category": "Bar & Restaurant",
    "types": "bar, restaurant, food, point_of_interest, establishment"
  },
  {
    "place_id": "ChIJV1VdJB9awokRsucxnGK_eTE",
    "name": "Mudville",
    "street_address": "126 Chambers Street",
    "city": "New York",
    "state": "NY",
    "zip_code": "10007",
    "latitude": 40.7152085,
    "longitude": -74.00892329999999,
    "website": "http://www.mudvilleny.com/",
    "category": "Bar & Restaurant",
    "types": "bar, restaurant, food, point_of_interest, establishment"
  },
  {
    "place_id": "ChIJj9p6lqpbwokRmO68jseSpsY",
    "name": "The Swan",
    "street_address": "1048 Bedford Avenue",
    "city": "New York",
    "state": "NY",
    "zip_code": "11205",
    "latitude": 40.6890943,
    "longitude": -73.95527779999999,
    "website": "https://www.theswanbk.com/",
    "category": "Bar & Restaurant",
    "types": "restaurant, food, bar, point_of_interest, establishment"
  },
  {
    "place_id": "ChIJ1ZCho5FZwokR_5EsRjuyqic",
    "name": "Amity Hall Downtown",
    "street_address": "80 West 3rd Street",
    "city": "New York",
    "state": "NY",
    "zip_code": "10012",
    "latitude": 40.7297225,
    "longitude": -73.998874,
    "website": "https://downtown.amityhallnyc.com/",
    "category": "Bar & Restaurant",
    "types": "bar, night_club, restaurant, food, point_of_interest, establishment"
  },
  {
    "place_id": "ChIJvz4F1JNZwokRN-_0V6iwxpY",
    "name": "3 Sheets",
    "street_address": "134 West 3rd Street",
    "city": "New York",
    "state": "NY",
    "zip_code": "10012",
    "latitude": 40.7306537,
    "longitude": -74.00101579999999,
    "website": "https://www.3sheetsnyc.com/",
    "category": "Bar & Restaurant",
    "types": "bar, restaurant, food, point_of_interest, establishment"
  },
  {
    "place_id": "ChIJ_4YIpb5ZwokRF6YkeYu6MGE",
    "name": "Shaffer's",
    "street_address": "151 8th Avenue",
    "city": "New York",
    "state": "NY",
    "zip_code": "10011",
    "latitude": 40.74206329999999,
    "longitude": -74.0011048,
    "website": "http://shaffersnyc.com/",
    "category": "Bar & Restaurant",
    "types": "bar, restaurant, food, point_of_interest, establishment"
  },
  {
    "place_id": "ChIJpRQgg6BZwokRmUr1ao7HFZc",
    "name": "Molly's Shebeen Bar + Restaurant",
    "street_address": "287 3rd Avenue",
    "city": "New York",
    "state": "NY",
    "zip_code": "10010",
    "latitude": 40.738271,
    "longitude": -73.98325299999999,
    "website": "http://www.mollysshebeennyc.com/",
    "category": "Bar & Restaurant",
    "types": "bar, restaurant, food, point_of_interest, establishment"
  },
  {
    "place_id": "ChIJk2Yw0albwokRSvAV5FHcoHU",
    "name": "Bar Basic",
    "street_address": "71 7th Avenue",
    "city": "New York",
    "state": "NY",
    "zip_code": "11217",
    "latitude": 40.6752356,
    "longitude": -73.9747362,
    "website": "https://barbasicnyc.square.site/",
    "category": "Bar & Restaurant",
    "types": "bar, restaurant, food, point_of_interest, establishment"
  },
  {
    "place_id": "ChIJsfAZeR5bwokRA7dyZcwGQ9U",
    "name": "The Double Windsor",
    "street_address": "210 Prospect Park West",
    "city": "New York",
    "state": "NY",
    "zip_code": "11215",
    "latitude": 40.6606288,
    "longitude": -73.9805259,
    "website": "http://www.doublewindsorbklyn.com/",
    "category": "Bar & Restaurant",
    "types": "bar, restaurant, point_of_interest, food, establishment"
  },
  {
    "place_id": "ChIJC9lnWEJbwokRFhZpsYWE6vY",
    "name": "Market Bar",
    "street_address": "1207 Nostrand Avenue",
    "city": "New York",
    "state": "NY",
    "zip_code": "11225",
    "latitude": 40.65773910000001,
    "longitude": -73.95005739999999,
    "website": "http://marketbarbk.com/",
    "category": "Bar & Restaurant",
    "types": "bar, restaurant, food, point_of_interest, establishment"
  },
  {
    "place_id": "ChIJzfp-qZNbwokRPNi37sfG25I",
    "name": "Cpt. Dan's Good Time Tavern",
    "street_address": "497 Greene Avenue",
    "city": "New York",
    "state": "NY",
    "zip_code": "11216",
    "latitude": 40.688611,
    "longitude": -73.951059,
    "website": "https://www.captdansgoodtimetavern.com/",
    "category": "Bar & Restaurant",
    "types": "bar, restaurant, food, point_of_interest, establishment"
  },
  {
    "place_id": "ChIJnU0pN-RawokRip1CSum_Dcg",
    "name": "Freddy's Bar",
    "street_address": "627 5th Avenue",
    "city": "New York",
    "state": "NY",
    "zip_code": "11215",
    "latitude": 40.6632339,
    "longitude": -73.9911145,
    "website": "http://freddysbar.com/",
    "category": "Bar & Restaurant",
    "types": "bar, restaurant, food, point_of_interest, establishment"
  },
  {
    "place_id": "ChIJb4gUuLJawokRlKM7Ujnzcwo",
    "name": "Irish Haven",
    "street_address": "5721 4th Avenue",
    "city": "New York",
    "state": "NY",
    "zip_code": "11220",
    "latitude": 40.64194440000001,
    "longitude": -74.0169444,
    "website": null,
    "category": "Bar & Restaurant",
    "types": "bar, restaurant, food, point_of_interest, establishment"
  },
  {
    "place_id": "ChIJj6Zpx-ddwokRm5R41uLVdJI",
    "name": "Neir's Tavern",
    "street_address": "87-48 78th Street",
    "city": "New York",
    "state": "NY",
    "zip_code": "11421",
    "latitude": 40.6898112,
    "longitude": -73.8635147,
    "website": "http://neirstavern.com/",
    "category": "Bar & Restaurant",
    "types": "bar, restaurant, point_of_interest, food, establishment"
  },
  {
    "place_id": "ChIJxZu_0jBewokRrtAenuc5H_g",
    "name": "Diner Bar",
    "street_address": "97-45 Queens Boulevard",
    "city": "New York",
    "state": "NY",
    "zip_code": "11374",
    "latitude": 40.7294444,
    "longitude": -73.8594444,
    "website": "http://www.thedinerbar.com/",
    "category": "Bar & Restaurant",
    "types": "bar, restaurant, point_of_interest, food, establishment"
  },
  {
    "place_id": "ChIJGTPFHttewokR0ZdjQPLGJjU",
    "name": "The Jar Bar",
    "street_address": "45-06 48th Avenue",
    "city": "New York",
    "state": "NY",
    "zip_code": "11377",
    "latitude": 40.7392797,
    "longitude": -73.9201156,
    "website": "http://facebook.com/jarbarnyc",
    "category": "Bar & Restaurant",
    "types": "bar, restaurant, point_of_interest, food, establishment"
  },
  {
    "place_id": "ChIJW1mCgFJewokRYBMDDXGUMhk",
    "name": "Paddy G's Sports Bar",
    "street_address": "86-34A Broadway",
    "city": "New York",
    "state": "NY",
    "zip_code": "11373",
    "latitude": 40.7376363,
    "longitude": -73.877498,
    "website": "http://paddy-gs-sports-bar.keeq.io/",
    "category": "Bar & Restaurant",
    "types": "bar, restaurant, food, point_of_interest, establishment"
  },
  {
    "place_id": "ChIJVY9KJZBewokR05-lLjlDTHk",
    "name": "The Live Oak",
    "street_address": "59-93 Fresh Pond Road",
    "city": "New York",
    "state": "NY",
    "zip_code": "11378",
    "latitude": 40.7171044,
    "longitude": -73.9016968,
    "website": null,
    "category": "Bar & Restaurant",
    "types": "bar, restaurant, food, point_of_interest, establishment"
  },
  {
    "place_id": "ChIJ05LiYfZewokRIRuLbmFmXU4",
    "name": "Connolly's Corner",
    "street_address": "71-15 Grand Avenue",
    "city": "New York",
    "state": "NY",
    "zip_code": "11378",
    "latitude": 40.7282749,
    "longitude": -73.89188399999999,
    "website": "http://www.connollyscorner.com/",
    "category": "Bar & Restaurant",
    "types": "restaurant, food, bar, point_of_interest, establishment"
  },
  {
    "place_id": "ChIJAzykLkFewokR5eol-8o5rE4",
    "name": "Bridie's Grill Room",
    "street_address": "64-54 Dry Harbor Road",
    "city": "New York",
    "state": "NY",
    "zip_code": "11379",
    "latitude": 40.7235801,
    "longitude": -73.8690289,
    "website": "https://bridesgrillroom.com/",
    "category": "Bar & Restaurant",
    "types": "bar, restaurant, point_of_interest, food, establishment"
  },
  {
    "place_id": "ChIJEZ9gxhJewokRIqSuyihVjMw",
    "name": "Yerman's Irish Pub",
    "street_address": "70-26 88th Street",
    "city": "New York",
    "state": "NY",
    "zip_code": "11385",
    "latitude": 40.7100282,
    "longitude": -73.8647404,
    "website": "https://www.facebook.com/yermansirishpub/",
    "category": "Bar & Restaurant",
    "types": "restaurant, bar, food, point_of_interest, establishment"
  },
  {
    "place_id": "ChIJ7VhT3sxewokRpnmXD6ZTiVQ",
    "name": "Bantry Bay Publick House",
    "street_address": "33-01 Greenpoint Avenue",
    "city": "New York",
    "state": "NY",
    "zip_code": "11101",
    "latitude": 40.7356919,
    "longitude": -73.9347422,
    "website": "http://www.bantrybaynyc.com/",
    "category": "Bar & Restaurant",
    "types": "bar, restaurant, point_of_interest, food, establishment"
  },
  {
    "place_id": "ChIJ3fVhj0BcwokRwvVTZEMd1tM",
    "name": "Salud Bar & Grill",
    "street_address": "1413 Bushwick Avenue",
    "city": "New York",
    "state": "NY",
    "zip_code": "11207",
    "latitude": 40.684645,
    "longitude": -73.909046,
    "website": "http://www.saludbargrill.com/",
    "category": "Bar & Restaurant",
    "types": "bar, restaurant, food, point_of_interest, establishment"
  },
  {
    "place_id": "ChIJL7qDqUJZwokRutjiI-Cq0JI",
    "name": "Kent Ale House",
    "street_address": "51 Kent Avenue",
    "city": "New York",
    "state": "NY",
    "zip_code": "11249",
    "latitude": 40.7223506,
    "longitude": -73.95923479999999,
    "website": "http://www.kentalehouse.com/",
    "category": "Bar & Restaurant",
    "types": "bar, restaurant, food, point_of_interest, establishment"
  },
  {
    "place_id": "ChIJFx8CfmdfwokRqkASz4HkLk8",
    "name": "the Flying Fox Tavern",
    "street_address": "6-78 Woodward Avenue",
    "city": "New York",
    "state": "NY",
    "zip_code": "11385",
    "latitude": 40.7050417,
    "longitude": -73.9063064,
    "website": "http://flyingfoxtavern.com/",
    "category": "Bar & Restaurant",
    "types": "night_club, restaurant, bar, food, point_of_interest, establishment"
  },
  {
    "place_id": "ChIJZRRAKCtdwokRch2jAWIKxzw",
    "name": "O Grove Tavern",
    "street_address": "88-09 Jamaica Avenue",
    "city": "New York",
    "state": "NY",
    "zip_code": "11421",
    "latitude": 40.6928764,
    "longitude": -73.85610179999999,
    "website": null,
    "category": "Bar & Restaurant",
    "types": "restaurant, bar, food, point_of_interest, establishment"
  },
  {
    "place_id": "ChIJeXCwerhbwokRtUOhu4zzZzs",
    "name": "Putnam's Pub & Cooker",
    "street_address": "419 Myrtle Avenue",
    "city": "New York",
    "state": "NY",
    "zip_code": "11205",
    "latitude": 40.6932519,
    "longitude": -73.96902899999999,
    "website": "http://www.putnamspub.com/",
    "category": "Bar & Restaurant",
    "types": "restaurant, bar, point_of_interest, food, establishment"
  }
]