[
  {
    "place_id": "ChIJiWTf8dcWsocR94xCYmE-ms0",
    "name": "OKC Tap House",
    "street_address": "100 Oklahoma City Boulevard",
    "city": "Oklahoma City",
    "state": "OK",
    "zip_code": "73109",
    "latitude": 35.4620257,
    "longitude": -97.5157976,
    "website": "https://www.omnihotels.com/hotels/oklahoma-city/dining/okc-tap-house?utm_source=gmblisting&utm_medium=organic",
    "category": "Bar & Restaurant",
    "types": "restaurant, bar, food, point_of_interest, establishment"
  },
  {
    "place_id": "ChIJARt9ACcXsocR3qQRQXdJYV4",
    "name": "Bourbon St. Cafe",
    "street_address": "100 East California Avenue",
    "city": "Oklahoma City",
    "state": "OK",
    "zip_code": "73104",
    "latitude": 35.4652074,
    "longitude": -97.51055869999999,
    "website": "https://www.bourbonstreetcafe.com/",
    "category": "Restaurant",
    "types": "restaurant, point_of_interest, food, establishment"
  },
  {
    "place_id": "ChIJCeyB6LgQsocRq8ntCXY-ekY",
    "name": "The Press",
    "street_address": "1610 North Gatewood Avenue",
    "city": "Oklahoma City",
    "state": "OK",
    "zip_code": "73106",
    "latitude": 35.48537909999999,
    "longitude": -97.5395331,
    "website": "http://www.thepressokc.com/",
    "category": "Restaurant",
    "types": "restaurant, point_of_interest, food, establishment"
  },
  {
    "place_id": "ChIJqcwFIXgXsocRTC9vl_0PRiU",
    "name": "Parlor OKC",
    "street_address": "11 Northeast 6th Street",
    "city": "Oklahoma City",
    "state": "OK",
    "zip_code": "73104",
    "latitude": 35.4740683,
    "longitude": -97.51162649999999,
    "website": "http://www.parlorokc.com/",
    "category": "Bar & Restaurant",
    "types": "restaurant, bar, food, point_of_interest, establishment"
  },
  {
    "place_id": "ChIJ5XP1fDQXsocR5KRNlRG3yA8",
    "name": "McNellie's OKC",
    "street_address": "1100 Classen Drive",
    "city": "Oklahoma City",
    "state": "OK",
    "zip_code": "73103",
    "latitude": 35.4792678,
    "longitude": -97.5212993,
    "website": "http://www.mcnellies.com/locations/oklahoma-city-pub/",
    "category": "Bar & Restaurant",
    "types": "bar, restaurant, food, point_of_interest, establishment"
  },
  {
    "place_id": "ChIJNbZs-iYXsocRvXBe7gUi4U4",
    "name": "Bricktown Brewery",
    "street_address": "1 North Oklahoma Avenue",
    "city": "Oklahoma City",
    "state": "OK",
    "zip_code": "73104",
    "latitude": 35.4667174,
    "longitude": -97.5108405,
    "website": "https://bricktownbrewery.com/location/downtown-okc/?utm_source=gbp&utm_medium=cpc&utm_campaign=bricktown_brewery",
    "category": "Bar & Restaurant",
    "types": "restaurant, bar, food, point_of_interest, establishment"
  },
  {
    "place_id": "ChIJ17fsajQXsocRCKfNs4YW5AE",
    "name": "The Chalkboard OKC",
    "street_address": "1200 North Walker Avenue",
    "city": "Oklahoma City",
    "state": "OK",
    "zip_code": "73103",
    "latitude": 35.48023839999999,
    "longitude": -97.5207899,
    "website": "http://thechalkboardokc.com/",
    "category": "Restaurant",
    "types": "restaurant, food, point_of_interest, establishment"
  },
  {
    "place_id": "ChIJ3zm4W7oRsocR9t0KuU3FGZk",
    "name": "Bungalow 23",
    "street_address": "731 Northwest 23rd Street",
    "city": "Oklahoma City",
    "state": "OK",
    "zip_code": "73103",
    "latitude": 35.4936377,
    "longitude": -97.52554649999999,
    "website": "http://www.bungalow23.com/",
    "category": "Bar & Restaurant",
    "types": "bar, restaurant, point_of_interest, food, establishment"
  },
  {
    "place_id": "ChIJca2V1VsXsocRJjUqeZUWRhk",
    "name": "Social Capital",
    "street_address": "517 South Hudson Avenue",
    "city": "Oklahoma City",
    "state": "OK",
    "zip_code": "73109",
    "latitude": 35.4604755,
    "longitude": -97.5197735,
    "website": "https://www.ctbokc.com/social-capital?utm_source=cumulus&utm_medium=onlinepresence&utm_campaign=gbp",
    "category": "Bar & Restaurant",
    "types": "bar, restaurant, food, point_of_interest, establishment"
  },
  {
    "place_id": "ChIJH-vq8rgQsocR3F326w-5uBA",
    "name": "The Mule",
    "street_address": "1800 Northwest 16th Street",
    "city": "Oklahoma City",
    "state": "OK",
    "zip_code": "73106",
    "latitude": 35.4855951,
    "longitude": -97.54126509999999,
    "website": "http://okc.themuleokc.com/",
    "category": "Bar & Restaurant",
    "types": "meal_takeaway, bar, restaurant, point_of_interest, food, establishment"
  },
  {
    "place_id": "ChIJwcSZY9QQsocR8nsRmXIP3QI",
    "name": "The Jones Assembly",
    "street_address": "901 West Sheridan Avenue",
    "city": "Oklahoma City",
    "state": "OK",
    "zip_code": "73106",
    "latitude": 35.4666469,
    "longitude": -97.5273857,
    "website": "http://www.thejonesassembly.com/",
    "category": "Bar & Restaurant",
    "types": "bar, restaurant, food, point_of_interest, establishment"
  },
  {
    "place_id": "ChIJQdpcy7IQsocRhDwJE3qAkw8",
    "name": "Chick N Beer",
    "street_address": "715 Northwest 23rd Street",
    "city": "Oklahoma City",
    "state": "OK",
    "zip_code": "73103",
    "latitude": 35.4935198,
    "longitude": -97.52476659999999,
    "website": "http://www.chicknbeerokc.com/",
    "category": "Bar & Restaurant",
    "types": "restaurant, bar, food, point_of_interest, establishment"
  },
  {
    "place_id": "ChIJG8Et1SAXsocRpJ3KndNw9y0",
    "name": "JJ's Alley",
    "street_address": "212 East Sheridan Avenue",
    "city": "Oklahoma City",
    "state": "OK",
    "zip_code": "73104",
    "latitude": 35.4662967,
    "longitude": -97.5084505,
    "website": null,
    "category": "Bar & Restaurant",
    "types": "bar, restaurant, food, point_of_interest, establishment"
  },
  {
    "place_id": "ChIJOezKYAMasocRyzP-wIPBAdE",
    "name": "The Lobby Cafe & Bar",
    "street_address": "4322 North Western Avenue",
    "city": "Oklahoma City",
    "state": "OK",
    "zip_code": "73118",
    "latitude": 35.5154313,
    "longitude": -97.5296157,
    "website": "http://willrogerslobbybar.com/",
    "category": "Bar & Restaurant",
    "types": "cafe, bar, restaurant, food, point_of_interest, store, establishment"
  },
  {
    "place_id": "ChIJy9i48TMXsocR1xidch1d7vA",
    "name": "Fassler Hall",
    "street_address": "421 Northwest 10th Street",
    "city": "Oklahoma City",
    "state": "OK",
    "zip_code": "73103",
    "latitude": 35.4786881,
    "longitude": -97.52018489999999,
    "website": "http://fasslerhall.com/oklahoma-city",
    "category": "Bar & Restaurant",
    "types": "bar, restaurant, point_of_interest, food, establishment"
  },
  {
    "place_id": "ChIJJzD53wcXsocRclO0wKwY67o",
    "name": "The Pump Bar",
    "street_address": "2425 North Walker Avenue",
    "city": "Oklahoma City",
    "state": "OK",
    "zip_code": "73103",
    "latitude": 35.49422879999999,
    "longitude": -97.5213235,
    "website": "https://www.pumpbar.net/",
    "category": "Bar & Restaurant",
    "types": "bar, restaurant, food, point_of_interest, establishment"
  },
  {
    "place_id": "ChIJ3RERHSkXsocRzo1RLLw8g0w",
    "name": "FLINT Kitchen & Bar",
    "street_address": "15 North Robinson Avenue",
    "city": "Oklahoma City",
    "state": "OK",
    "zip_code": "73102",
    "latitude": 35.4665992,
    "longitude": -97.51664079999999,
    "website": "http://flintokc.com/",
    "category": "Bar & Restaurant",
    "types": "bar, restaurant, food, point_of_interest, establishment"
  },
  {
    "place_id": "ChIJHY6okxQasocROFjNMa2Mnqc",
    "name": "Belle Isle Restaurant & Pub",
    "street_address": "1900 Northwest Expressway",
    "city": "Oklahoma City",
    "state": "OK",
    "zip_code": "73118",
    "latitude": 35.522258,
    "longitude": -97.545912,
    "website": "http://www.belleislerestaurant.com/",
    "category": "Bar & Restaurant",
    "types": "restaurant, bar, food, point_of_interest, establishment"
  },
  {
    "place_id": "ChIJlYGrVDobsocR2jMXJ5dA9w8",
    "name": "Millennium Lounge",
    "street_address": "4709 North Western Avenue",
    "city": "Oklahoma City",
    "state": "OK",
    "zip_code": "73118",
    "latitude": 35.5190735,
    "longitude": -97.53003389999999,
    "website": "http://www.millenniumlounge.com/",
    "category": "Bar & Restaurant",
    "types": "bar, night_club, restaurant, food, point_of_interest, establishment"
  },
  {
    "place_id": "ChIJzQ6KJRYRsocRQ0zPnyZsXqo",
    "name": "Thirty Four Bar & Bistro",
    "street_address": "3434 West Reno Avenue",
    "city": "Oklahoma City",
    "state": "OK",
    "zip_code": "73107",
    "latitude": 35.4618808,
    "longitude": -97.57877289999999,
    "website": "https://app.upserve.com/s/34-bistro-okc-oklahoma-city",
    "category": "Bar & Restaurant",
    "types": "restaurant, bar, food, point_of_interest, establishment"
  },
  {
    "place_id": "ChIJd2TMK20XsocR4i0GXTBrAck",
    "name": "Cajun Corner - Uptown OKC",
    "street_address": "312 Northwest 23rd Street",
    "city": "Oklahoma City",
    "state": "OK",
    "zip_code": "73103",
    "latitude": 35.4930686,
    "longitude": -97.51810449999999,
    "website": "http://cajuncornerokc.com/",
    "category": "Restaurant",
    "types": "restaurant, food, point_of_interest, establishment"
  },
  {
    "place_id": "ChIJU5OmttcQsocRsqi4Vlsw7Zs",
    "name": "The Loaded Bowl",
    "street_address": "1211 Southwest 2nd Street",
    "city": "Oklahoma City",
    "state": "OK",
    "zip_code": "73108",
    "latitude": 35.463458,
    "longitude": -97.5332304,
    "website": "http://theloadedbowlokc.com/",
    "category": "Restaurant",
    "types": "restaurant, food, point_of_interest, establishment"
  },
  {
    "place_id": "ChIJm-xsXTEXsocRYwBtLcTLZPw",
    "name": "The R&J Lounge and Supper Club",
    "street_address": "320 Northwest 10th Street",
    "city": "Oklahoma City",
    "state": "OK",
    "zip_code": "73103",
    "latitude": 35.477934,
    "longitude": -97.518744,
    "website": "http://www.rjsupperclub.com/",
    "category": "Bar & Restaurant",
    "types": "night_club, bar, restaurant, food, point_of_interest, establishment"
  },
  {
    "place_id": "ChIJeYcbRmcXsocRosJf_tJWs8M",
    "name": "Suite B OKC",
    "street_address": "1 Northeast 7th Street",
    "city": "Oklahoma City",
    "state": "OK",
    "zip_code": "73104",
    "latitude": 35.4752225,
    "longitude": -97.51179119999999,
    "website": "https://suitebokc.com/",
    "category": "Restaurant",
    "types": "restaurant, food, point_of_interest, establishment"
  },
  {
    "place_id": "ChIJRw8j3SMXsocRmpID2EICbxA",
    "name": "Deep Deuce Grill",
    "street_address": "307 Northeast 2nd Street",
    "city": "Oklahoma City",
    "state": "OK",
    "zip_code": "73104",
    "latitude": 35.46983149999999,
    "longitude": -97.50701649999999,
    "website": "http://www.deepdeucebarandgrillokc.com/",
    "category": "Bar & Restaurant",
    "types": "bar, restaurant, food, point_of_interest, establishment"
  },
  {
    "place_id": "ChIJK_dTRkUFsocRptikh9WSXCQ",
    "name": "MOB Grill",
    "street_address": "11 Northeast 6th Street",
    "city": "Oklahoma City",
    "state": "OK",
    "zip_code": "73104",
    "latitude": 35.4740998,
    "longitude": -97.51150179999999,
    "website": "https://www.mobgrill.com/",
    "category": "Bar & Restaurant",
    "types": "restaurant, bar, point_of_interest, food, establishment"
  },
  {
    "place_id": "ChIJy8c0Cu4asocRo7sVGMQeq2M",
    "name": "Henry Hudson's Pub",
    "street_address": "3509 Northwest 58th Street",
    "city": "Oklahoma City",
    "state": "OK",
    "zip_code": "73112",
    "latitude": 35.5301531,
    "longitude": -97.58003339999999,
    "website": "http://www.henryhudsonspub.com/",
    "category": "Bar & Restaurant",
    "types": "bar, restaurant, food, point_of_interest, establishment"
  },
  {
    "place_id": "ChIJUeffRCMasocRfC1zd5BtdjM",
    "name": "Republic Gastropub",
    "street_address": "5830 North Classen Boulevard",
    "city": "Oklahoma City",
    "state": "OK",
    "zip_code": "73118",
    "latitude": 35.5324359,
    "longitude": -97.5341023,
    "website": "http://www.republicgastropub.com/",
    "category": "Bar & Restaurant",
    "types": "bar, restaurant, point_of_interest, food, establishment"
  },
  {
    "place_id": "ChIJseRufNMXsocRTC2nsKphsEw",
    "name": "The Collective Kitchens and Cocktails",
    "street_address": "308 Northwest 10th Street",
    "city": "Oklahoma City",
    "state": "OK",
    "zip_code": "73103",
    "latitude": 35.4778596,
    "longitude": -97.5179979,
    "website": "http://www.thecollectiveokc.com/",
    "category": "Bar & Restaurant",
    "types": "restaurant, bar, food, point_of_interest, establishment"
  },
  {
    "place_id": "ChIJH26DosMRsocRIgbeSIp13n0",
    "name": "Ballers Bar and Grill",
    "street_address": "2037 South Meridian Avenue",
    "city": "Oklahoma City",
    "state": "OK",
    "zip_code": "73108",
    "latitude": 35.4442568,
    "longitude": -97.6017246,
    "website": "https://ballersokc.com/",
    "category": "Bar & Restaurant",
    "types": "restaurant, bar, food, point_of_interest, establishment"
  },
  {
    "place_id": "ChIJ-cB6TcURsocRl5rjotFl3t0",
    "name": "The Mug Scratch Kitchen & Tavern",
    "street_address": "1800 South Meridian Avenue",
    "city": "Oklahoma City",
    "state": "OK",
    "zip_code": "73108",
    "latitude": 35.4462377,
    "longitude": -97.6005648,
    "website": "https://www.themugokc.com/",
    "category": "Bar & Restaurant",
    "types": "bar, restaurant, food, point_of_interest, establishment"
  },
  {
    "place_id": "ChIJKcMYtHYUsocRc9v4XV3XxR4",
    "name": "Henry Hudson's Pub",
    "street_address": "400 West Interstate 240 Service Road",
    "city": "Oklahoma City",
    "state": "OK",
    "zip_code": "73139",
    "latitude": 35.3908383,
    "longitude": -97.5195074,
    "website": "http://henryhudsonspub.com/",
    "category": "Bar & Restaurant",
    "types": "bar, restaurant, food, point_of_interest, establishment"
  },
  {
    "place_id": "ChIJrZxY5CMXsocRMcvTBKTF7IM",
    "name": "Stag Lounge",
    "street_address": "228 Northeast 2nd Street",
    "city": "Oklahoma City",
    "state": "OK",
    "zip_code": "73104",
    "latitude": 35.46947100000001,
    "longitude": -97.5076335,
    "website": "https://stag-lounge.com/",
    "category": "Bar & Restaurant",
    "types": "bar, store, restaurant, food, point_of_interest, establishment"
  },
  {
    "place_id": "ChIJCcLbl-4bsocREFo2FVtUnqI",
    "name": "74 Sports Kitchen & Cocktails",
    "street_address": "7412 North Classen Boulevard",
    "city": "Oklahoma City",
    "state": "OK",
    "zip_code": "73116",
    "latitude": 35.54752779999999,
    "longitude": -97.5262089,
    "website": "https://enjoy74.com/?utm_source=google",
    "category": "Bar & Restaurant",
    "types": "restaurant, bar, food, point_of_interest, establishment"
  },
  {
    "place_id": "ChIJzzXnXzgasocRIu-veB024zQ",
    "name": "Ember Modern American Tavern",
    "street_address": "6300 Waterford Boulevard",
    "city": "Oklahoma City",
    "state": "OK",
    "zip_code": "73118",
    "latitude": 35.5347301,
    "longitude": -97.544992,
    "website": null,
    "category": "Bar & Restaurant",
    "types": "bar, restaurant, food, point_of_interest, establishment"
  },
  {
    "place_id": "ChIJARNvzS4XsocR60UDQYASK5U",
    "name": "The Manhattan",
    "street_address": "210 Park Avenue",
    "city": "Oklahoma City",
    "state": "OK",
    "zip_code": "73102",
    "latitude": 35.46859070000001,
    "longitude": -97.517606,
    "website": "https://www.undertheraven.com/",
    "category": "Bar & Restaurant",
    "types": "bar, restaurant, food, point_of_interest, establishment"
  },
  {
    "place_id": "ChIJVUBIVYccsocR9WhbFHx60dc",
    "name": "Lumpy's Sports Grill",
    "street_address": "12325 North May Avenue",
    "city": "Oklahoma City",
    "state": "OK",
    "zip_code": "73120",
    "latitude": 35.595588,
    "longitude": -97.56843,
    "website": "http://lumpyssportsgrill.com/",
    "category": "Bar & Restaurant",
    "types": "bar, restaurant, point_of_interest, food, establishment"
  },
  {
    "place_id": "ChIJlSzs7gwbsocR_ViddsIXJ7s",
    "name": "Louie's Grill & Bar",
    "street_address": "9401 Lake Hefner Parkway",
    "city": "Oklahoma City",
    "state": "OK",
    "zip_code": "73120",
    "latitude": 35.5657821,
    "longitude": -97.5775183,
    "website": "http://louiesgrillandbar.com/",
    "category": "Bar & Restaurant",
    "types": "bar, restaurant, food, point_of_interest, establishment"
  },
  {
    "place_id": "ChIJQ5-YmYIbsocRvWC9PNILmPo",
    "name": "Hopscotch Kitchen & Bar",
    "street_address": "10909 North May Avenue",
    "city": "Oklahoma City",
    "state": "OK",
    "zip_code": "73120",
    "latitude": 35.58119380000001,
    "longitude": -97.56757770000002,
    "website": "http://www.hopscotchokc.com/",
    "category": "Bar & Restaurant",
    "types": "bar, restaurant, food, point_of_interest, establishment"
  },
  {
    "place_id": "ChIJR_6rplcasocRd1KVscxKBfs",
    "name": "Cousins Bar & Grill",
    "street_address": "6509 North May Avenue",
    "city": "Oklahoma City",
    "state": "OK",
    "zip_code": "73116",
    "latitude": 35.5378778,
    "longitude": -97.5660289,
    "website": "http://www.cousinsbarandgrillokc.com/",
    "category": "Bar & Restaurant",
    "types": "bar, restaurant, point_of_interest, food, establishment"
  },
  {
    "place_id": "ChIJg1IPQS4ZsocRhApsWjYurhE",
    "name": "Range N' Roses Cafe",
    "street_address": "615 West Wilshire Boulevard",
    "city": "Oklahoma City",
    "state": "OK",
    "zip_code": "73114",
    "latitude": 35.5516225,
    "longitude": -97.52380520000001,
    "website": "https://online.skytab.com/s/rangenrosescafe",
    "category": "Restaurant",
    "types": "restaurant, food, point_of_interest, establishment"
  },
  {
    "place_id": "ChIJMZKWXy8asocRvAH4KoRp2JA",
    "name": "The Hutch on Avondale",
    "street_address": "6437 Avondale Drive",
    "city": "Nichols Hills",
    "state": "OK",
    "zip_code": "73116",
    "latitude": 35.5383063,
    "longitude": -97.53166739999999,
    "website": "http://www.hutchokc.com/",
    "category": "Bar & Restaurant",
    "types": "restaurant, bar, food, point_of_interest, establishment"
  },
  {
    "place_id": "ChIJrVhjhJYdsocRFow4Qg80k5A",
    "name": "Solo's Park and Pub",
    "street_address": "13310 Pawnee Drive",
    "city": "Oklahoma City",
    "state": "OK",
    "zip_code": "73114",
    "latitude": 35.60462569999999,
    "longitude": -97.5353775,
    "website": "https://solosparkandpub.com/",
    "category": "Restaurant",
    "types": "restaurant, food, point_of_interest, establishment"
  },
  {
    "place_id": "ChIJI4FSBBAcsocR6FwhgNLPEd4",
    "name": "Sidecar Barley & Wine Bar",
    "street_address": "13230 Pawnee Drive",
    "city": "Oklahoma City",
    "state": "OK",
    "zip_code": "73114",
    "latitude": 35.6042465,
    "longitude": -97.5334383,
    "website": "http://sdcrbar.com/",
    "category": "Bar & Restaurant",
    "types": "bar, restaurant, food, point_of_interest, establishment"
  },
  {
    "place_id": "ChIJ7Vc08Z8bsocR1SeH5CzRnFA",
    "name": "Sean Cummings' Irish Pub",
    "street_address": "7628 North May Avenue",
    "city": "Oklahoma City",
    "state": "OK",
    "zip_code": "73116",
    "latitude": 35.5489169,
    "longitude": -97.5652882,
    "website": "http://www.seancummings-ok.com/",
    "category": "Bar & Restaurant",
    "types": "bar, restaurant, point_of_interest, food, establishment"
  },
  {
    "place_id": "ChIJladSKewEsocRSZkv21Ne5gM",
    "name": "Louie's Grill & Bar",
    "street_address": "7216 Northwest Expressway",
    "city": "Oklahoma City",
    "state": "OK",
    "zip_code": "73132",
    "latitude": 35.5577993,
    "longitude": -97.6405298,
    "website": "http://www.louiesgrillandbar.com/",
    "category": "Bar & Restaurant",
    "types": "bar, restaurant, point_of_interest, food, establishment"
  },
  {
    "place_id": "ChIJTf76X9AEsocRyQCiNKS8f4o",
    "name": "Lumpy's Sports Grill NW Expressway",
    "street_address": "5909 Northwest Expressway",
    "city": "Oklahoma City",
    "state": "OK",
    "zip_code": "73132",
    "latitude": 35.5517238,
    "longitude": -97.6208723,
    "website": "https://www.lumpyssportsgrill.com/",
    "category": "Bar & Restaurant",
    "types": "bar, restaurant, food, point_of_interest, establishment"
  },
  {
    "place_id": "ChIJ_VQPuPMFsocRPjs_flAbqzc",
    "name": "Legacy Grill and Bar by The Lake",
    "street_address": "9146 North Macarthur Boulevard",
    "city": "Oklahoma City",
    "state": "OK",
    "zip_code": "73132",
    "latitude": 35.5636577,
    "longitude": -97.62016229999999,
    "website": null,
    "category": "Bar & Restaurant",
    "types": "restaurant, bar, food, point_of_interest, establishment"
  },
  {
    "place_id": "ChIJuWS60tgfsocR1i7sZknoKtw",
    "name": "Taqueria El Camino",
    "street_address": "9120 North Macarthur Boulevard",
    "city": "Oklahoma City",
    "state": "OK",
    "zip_code": "73132",
    "latitude": 35.5631924,
    "longitude": -97.6202569,
    "website": "http://www.happyplateconcepts.com/taqueriaelcamino",
    "category": "Restaurant",
    "types": "restaurant, food, point_of_interest, establishment"
  },
  {
    "place_id": "ChIJ9ZUcioBrsocRrsEKJiiKK4Y",
    "name": "Industry Gastro Lounge Moore",
    "street_address": "1201 South I- 35 Service Road",
    "city": "Moore",
    "state": "OK",
    "zip_code": "73160",
    "latitude": 35.3269987,
    "longitude": -97.4912129,
    "website": "https://www.industrygastro.com/?utm_source=Google&utm_medium=Organic&utm_campaign=GMB",
    "category": "Bar & Restaurant",
    "types": "restaurant, bar, food, point_of_interest, establishment"
  },
  {
    "place_id": "ChIJX0tJ1gRrsocRU8pQPbt-N-0",
    "name": "Mooney's Pub & Grill",
    "street_address": "6221 North Interstate Drive",
    "city": "Norman",
    "state": "OK",
    "zip_code": "73069",
    "latitude": 35.2940903,
    "longitude": -97.48781199999999,
    "website": "https://www.facebook.com/profile.php?id=100095087795622&mibextid=LQQJ4d",
    "category": "Bar & Restaurant",
    "types": "bar, restaurant, food, point_of_interest, establishment"
  },
  {
    "place_id": "ChIJdyZVkGQTsocRzqLuSqBm2kI",
    "name": "Lumpy's Sports Grill South",
    "street_address": "10601 South Western Avenue",
    "city": "Oklahoma City",
    "state": "OK",
    "zip_code": "73170",
    "latitude": 35.3621154,
    "longitude": -97.53098279999999,
    "website": "http://www.lumpyssportsgrill.com/",
    "category": "Bar & Restaurant",
    "types": "bar, restaurant, food, point_of_interest, establishment"
  },
  {
    "place_id": "ChIJ6Q3iwUVrsocRdT9Xpsye9VA",
    "name": "Okie Tonk Cafe",
    "street_address": "1003 Southwest 19th Street",
    "city": "Moore",
    "state": "OK",
    "zip_code": "73160",
    "latitude": 35.32042819999999,
    "longitude": -97.50892490000001,
    "website": "http://www.okietonk.com/",
    "category": "Bar & Restaurant",
    "types": "restaurant, bar, food, point_of_interest, establishment"
  },
  {
    "place_id": "ChIJVQR8GnNrsocRIIbZVuxSiUA",
    "name": "Toby Keith's I Love This Bar & Grill",
    "street_address": "1199 South I- 35 Service Road",
    "city": "Moore",
    "state": "OK",
    "zip_code": "73160",
    "latitude": 35.32800529999999,
    "longitude": -97.4910162,
    "website": "https://tobykeithsbar.com/locations/moore/",
    "category": "Bar & Restaurant",
    "types": "bar, restaurant, food, point_of_interest, establishment"
  },
  {
    "place_id": "ChIJmYJk7y9rsocRlXD-Xv2ClyE",
    "name": "Louie's Grill & Bar",
    "street_address": "1601 South I- 35 Service Road",
    "city": "Moore",
    "state": "OK",
    "zip_code": "73160",
    "latitude": 35.323576,
    "longitude": -97.49106739999999,
    "website": "http://www.louiesgrillandbar.com/",
    "category": "Bar & Restaurant",
    "types": "bar, restaurant, food, point_of_interest, establishment"
  },
  {
    "place_id": "ChIJZx6TBYMTsocRS5jT4KM6Wv8",
    "name": "Bill's Steakhouse & Saloon South",
    "street_address": "1013 Southwest 89th Street",
    "city": "Oklahoma City",
    "state": "OK",
    "zip_code": "73139",
    "latitude": 35.3775005,
    "longitude": -97.53324479999999,
    "website": "http://billssteakhouseandsaloon.com/",
    "category": "Bar & Restaurant",
    "types": "bar, restaurant, food, point_of_interest, establishment"
  },
  {
    "place_id": "ChIJ1de3Rd4TsocRhxJXDWe4fN0",
    "name": "Bee Healthy Cafe (South Western)",
    "street_address": "12201 South Western Avenue",
    "city": "Oklahoma City",
    "state": "OK",
    "zip_code": "73170",
    "latitude": 35.34666670000001,
    "longitude": -97.53056699999999,
    "website": "https://beehealthycafe.com/",
    "category": "Restaurant",
    "types": "restaurant, cafe, store, point_of_interest, food, establishment"
  },
  {
    "place_id": "ChIJscCNGYITsocRyOLaD1CrNDo",
    "name": "Louie's Grill & Bar",
    "street_address": "9101 South Western Avenue",
    "city": "Oklahoma City",
    "state": "OK",
    "zip_code": "73139",
    "latitude": 35.3762634,
    "longitude": -97.5306014,
    "website": "http://louiesgrillandbar.com/",
    "category": "Bar & Restaurant",
    "types": "bar, restaurant, food, point_of_interest, establishment"
  },
  {
    "place_id": "ChIJ-zulcO1rsocRj9UVJG0ocMg",
    "name": "Hidalgo's Mexican Restaurant & Cantina",
    "street_address": "2713 South I- 35 Service Road",
    "city": "Moore",
    "state": "OK",
    "zip_code": "73160",
    "latitude": 35.3122866,
    "longitude": -97.49109299999999,
    "website": "https://hidalgosrestaurant.com/",
    "category": "Restaurant",
    "types": "restaurant, food, point_of_interest, establishment"
  },
  {
    "place_id": "ChIJmanhl8UUsocREYdUxRKzel4",
    "name": "Great Himalayan Indian Cuisines",
    "street_address": "709 North Moore Avenue",
    "city": "Moore",
    "state": "OK",
    "zip_code": "73160",
    "latitude": 35.34481,
    "longitude": -97.49575399999999,
    "website": "http://greathimalayanindiancuisines.com/",
    "category": "Restaurant",
    "types": "restaurant, food, point_of_interest, establishment"
  },
  {
    "place_id": "ChIJ2cLf14MTsocRdCbx6SKjqDc",
    "name": "ENZONE OKC",
    "street_address": "8884 South Western Avenue",
    "city": "Oklahoma City",
    "state": "OK",
    "zip_code": "73139",
    "latitude": 35.3783111,
    "longitude": -97.5289993,
    "website": "http://www.enzoneokc.com/",
    "category": "Bar & Restaurant",
    "types": "night_club, bar, restaurant, food, point_of_interest, establishment"
  },
  {
    "place_id": "ChIJ--zZQ0ZrsocR47a9TM-ZaqM",
    "name": "Hideaway Pizza",
    "street_address": "835 Southwest 19th Street",
    "city": "Moore",
    "state": "OK",
    "zip_code": "73160",
    "latitude": 35.320225,
    "longitude": -97.506918,
    "website": "https://www.hideawaypizza.com/content/moore",
    "category": "Restaurant",
    "types": "restaurant, food, point_of_interest, establishment"
  },
  {
    "place_id": "ChIJ68dZQSRrsocRYUQZKQar1ko",
    "name": "The Garage Burgers & Beer Moore",
    "street_address": "2060 South I- 35 Service Road",
    "city": "Moore",
    "state": "OK",
    "zip_code": "73160",
    "latitude": 35.3185737,
    "longitude": -97.4864899,
    "website": "http://eatatthegarage.com/locations/the-garage-moore/",
    "category": "Bar & Restaurant",
    "types": "bar, restaurant, food, point_of_interest, establishment"
  },
  {
    "place_id": "ChIJU3ROIu8UsocR2eaOK48JABE",
    "name": "Pickles: America's Grill",
    "street_address": "1421 North Moore Avenue",
    "city": "Moore",
    "state": "OK",
    "zip_code": "73160",
    "latitude": 35.35106560000001,
    "longitude": -97.4956823,
    "website": "http://www.picklesok.com/",
    "category": "Restaurant",
    "types": "store, restaurant, food, point_of_interest, establishment"
  },
  {
    "place_id": "ChIJv55XsztrsocRDo5E535Quew",
    "name": "Chicken Express",
    "street_address": "625 Southwest 19th Street",
    "city": "Moore",
    "state": "OK",
    "zip_code": "73160",
    "latitude": 35.3202237,
    "longitude": -97.496743,
    "website": "https://chickene.com/",
    "category": "Restaurant",
    "types": "restaurant, food, point_of_interest, establishment"
  }
]