[
  {
    "place_id": "ChIJG0N-HDDGxokRtra-0Rkvw18",
    "name": "1518 Bar & Grill",
    "street_address": "1518 Sansom Street",
    "city": "Philadelphia",
    "state": "PA",
    "zip_code": "19102",
    "latitude": 39.9503664,
    "longitude": -75.1666157,
    "website": "https://1518barandgrill.com/",
    "category": "Bar & Restaurant",
    "types": "bar, restaurant, food, point_of_interest, establishment"
  },
  {
    "place_id": "ChIJH0GvoYLIxokReDuVnCblATE",
    "name": "Craftsman Row Saloon",
    "street_address": "112 South 8th Street",
    "city": "Philadelphia",
    "state": "PA",
    "zip_code": "19107",
    "latitude": 39.9491023,
    "longitude": -75.1543143,
    "website": "http://www.craftsmanrowsaloon.com/",
    "category": "Bar & Restaurant",
    "types": "bar, restaurant, food, point_of_interest, establishment"
  },
  {
    "place_id": "ChIJ09z2qQzHxokR-1gpzJ4Sgm0",
    "name": "Darling Jack's Tavern",
    "street_address": "104 South 13th Street",
    "city": "Philadelphia",
    "state": "PA",
    "zip_code": "19107",
    "latitude": 39.95011,
    "longitude": -75.1621167,
    "website": "http://www.darlingjacks.com/",
    "category": "Restaurant",
    "types": "restaurant, food, point_of_interest, establishment"
  },
  {
    "place_id": "ChIJoYSfci_GxokRR3o-DdW78bo",
    "name": "McGillin's Olde Ale House",
    "street_address": "1310 Drury Street",
    "city": "Philadelphia",
    "state": "PA",
    "zip_code": "19107",
    "latitude": 39.950176,
    "longitude": -75.1626132,
    "website": "http://www.mcgillins.com/",
    "category": "Bar & Restaurant",
    "types": "bar, restaurant, food, point_of_interest, establishment"
  },
  {
    "place_id": "ChIJdVCkPzLGxokR4zUhavTBBDQ",
    "name": "Con Murphy's Irish Pub",
    "street_address": "1700 Benjamin Franklin Parkway",
    "city": "Philadelphia",
    "state": "PA",
    "zip_code": "19103",
    "latitude": 39.9556869,
    "longitude": -75.1679905,
    "website": "http://www.conmurphyspub.com/",
    "category": "Bar & Restaurant",
    "types": "bar, restaurant, food, point_of_interest, establishment"
  },
  {
    "place_id": "ChIJCQbEvTDGxokRneVcOpxMXDI",
    "name": "The Dandelion",
    "street_address": "124 South 18th Street",
    "city": "Philadelphia",
    "state": "PA",
    "zip_code": "19103",
    "latitude": 39.95099889999999,
    "longitude": -75.1706311,
    "website": "https://thedandelionpub.com/?utm_source=GoogleBusinessProfile&utm_medium=Website&utm_campaign=MapLabs",
    "category": "Bar & Restaurant",
    "types": "restaurant, meal_takeaway, bar, food, point_of_interest, establishment"
  },
  {
    "place_id": "ChIJFT3r1jPGxokRDK8ootOZZSs",
    "name": "City Tap House Logan Square",
    "street_address": "100 North 18th Street",
    "city": "Philadelphia",
    "state": "PA",
    "zip_code": "19103",
    "latitude": 39.955742,
    "longitude": -75.1697923,
    "website": "https://www.citytap.com/menus-logan-square-philadelphia/",
    "category": "Bar & Restaurant",
    "types": "bar, restaurant, point_of_interest, food, establishment"
  },
  {
    "place_id": "ChIJAfSPYTzGxokR90L-ccZZTG8",
    "name": "Founding Fathers South St Sports Bar & Grill",
    "street_address": "1612 South Street",
    "city": "Philadelphia",
    "state": "PA",
    "zip_code": "19146",
    "latitude": 39.9440294,
    "longitude": -75.1692593,
    "website": "https://www.foundingfathersbar.com/",
    "category": "Bar & Restaurant",
    "types": "bar, restaurant, food, point_of_interest, establishment"
  },
  {
    "place_id": "ChIJoWUGiFDGxokRdLTsrPnVAT0",
    "name": "New Deck Tavern",
    "street_address": "3408 Sansom Street",
    "city": "Philadelphia",
    "state": "PA",
    "zip_code": "19104",
    "latitude": 39.9534817,
    "longitude": -75.1926123,
    "website": "http://www.newdecktavern.com/",
    "category": "Bar & Restaurant",
    "types": "bar, restaurant, food, point_of_interest, establishment"
  },
  {
    "place_id": "ChIJpbnckGTIxokRnkSjwpJQ6lY",
    "name": "Bourbon & Branch",
    "street_address": "705 North 2nd Street",
    "city": "Philadelphia",
    "state": "PA",
    "zip_code": "19123",
    "latitude": 39.9620411,
    "longitude": -75.140773,
    "website": "http://bourbonandbranchphilly.com/",
    "category": "Bar & Restaurant",
    "types": "bar, restaurant, point_of_interest, food, establishment"
  },
  {
    "place_id": "ChIJ48EXY4PIxokRk-baJiWsQdU",
    "name": "Red Owl Tavern",
    "street_address": "433 Chestnut Street",
    "city": "Philadelphia",
    "state": "PA",
    "zip_code": "19106",
    "latitude": 39.949191,
    "longitude": -75.14887449999999,
    "website": "https://redowltavern.com/",
    "category": "Bar & Restaurant",
    "types": "bar, restaurant, point_of_interest, food, establishment"
  },
  {
    "place_id": "ChIJQ4HNIkDGxokRYxgH87uN53w",
    "name": "The Sidecar Bar & Grille",
    "street_address": "2201 Christian Street",
    "city": "Philadelphia",
    "state": "PA",
    "zip_code": "19146",
    "latitude": 39.9418386,
    "longitude": -75.179481,
    "website": "http://www.thesidecarbar.com/",
    "category": "Bar & Restaurant",
    "types": "bar, restaurant, food, point_of_interest, establishment"
  },
  {
    "place_id": "ChIJMYPKMKLHxokR6wpPCnKIAyo",
    "name": "The Post",
    "street_address": "129 South 30th Street",
    "city": "Philadelphia",
    "state": "PA",
    "zip_code": "19104",
    "latitude": 39.9527483,
    "longitude": -75.1835766,
    "website": "https://thepostphl.com/",
    "category": "Bar & Restaurant",
    "types": "bar, restaurant, food, point_of_interest, establishment"
  },
  {
    "place_id": "ChIJGbc0GCbGxokR5KZTCdW3Pyc",
    "name": "Strangelove's",
    "street_address": "216 South 11th Street",
    "city": "Philadelphia",
    "state": "PA",
    "zip_code": "19107",
    "latitude": 39.94808440000001,
    "longitude": -75.1592075,
    "website": "http://strangelovesbeerbar.com/",
    "category": "Bar & Restaurant",
    "types": "bar, meal_takeaway, restaurant, food, point_of_interest, establishment"
  },
  {
    "place_id": "ChIJPzXhsjrGxokRfz0Y3386McU",
    "name": "Good Dog Bar",
    "street_address": "224 South 15th Street",
    "city": "Philadelphia",
    "state": "PA",
    "zip_code": "19102",
    "latitude": 39.948776,
    "longitude": -75.1662206,
    "website": "http://www.gooddogbar.com/",
    "category": "Bar & Restaurant",
    "types": "bar, restaurant, food, point_of_interest, establishment"
  },
  {
    "place_id": "ChIJoZyjzSvGxokRAKzvKknrtrQ",
    "name": "Bar-Ly Chinatown",
    "street_address": "101 North 11th Street",
    "city": "Philadelphia",
    "state": "PA",
    "zip_code": "19107",
    "latitude": 39.954167,
    "longitude": -75.157671,
    "website": "http://www.bar-ly.com/",
    "category": "Bar & Restaurant",
    "types": "bar, restaurant, food, point_of_interest, establishment"
  },
  {
    "place_id": "ChIJjUwbFLLIxokRpFLgSa3OScc",
    "name": "Miller's Ale House",
    "street_address": "2100 South Christopher Columbus Boulevard",
    "city": "Philadelphia",
    "state": "PA",
    "zip_code": "19148",
    "latitude": 39.9202081,
    "longitude": -75.141747,
    "website": "https://millersalehouse.com/locations/south-philadelphia/?utm_source=gmb&utm_medium=organic",
    "category": "Bar & Restaurant",
    "types": "restaurant, meal_takeaway, bar, food, point_of_interest, establishment"
  },
  {
    "place_id": "ChIJ_y2SCjfGxokR90VjOlsQLv0",
    "name": "Butcher Bar",
    "street_address": "2034 Chestnut Street",
    "city": "Philadelphia",
    "state": "PA",
    "zip_code": "19103",
    "latitude": 39.95211219999999,
    "longitude": -75.1748994,
    "website": "http://butcherbarphilly.com/",
    "category": "Bar & Restaurant",
    "types": "bar, restaurant, food, point_of_interest, establishment"
  },
  {
    "place_id": "ChIJwWjIVefHxokR0XYHcT_5K6M",
    "name": "Pub Webb",
    "street_address": "1527 Cecil B. Moore Avenue",
    "city": "Philadelphia",
    "state": "PA",
    "zip_code": "19121",
    "latitude": 39.9791459,
    "longitude": -75.1606044,
    "website": "https://pubwebb.com/",
    "category": "Bar & Restaurant",
    "types": "bar, restaurant, food, point_of_interest, establishment"
  },
  {
    "place_id": "ChIJC0BFAibGxokRr0Lx2noP0_s",
    "name": "Moriarty's Restaurant",
    "street_address": "1116 Walnut Street",
    "city": "Philadelphia",
    "state": "PA",
    "zip_code": "19107",
    "latitude": 39.9486858,
    "longitude": -75.1598164,
    "website": "http://moriartyspub.com/",
    "category": "Bar & Restaurant",
    "types": "bar, restaurant, food, point_of_interest, establishment"
  },
  {
    "place_id": "ChIJdRuIYdTHxokRNJGn2G1OhYE",
    "name": "Prohibition Taproom",
    "street_address": "501 North 13th Street",
    "city": "Philadelphia",
    "state": "PA",
    "zip_code": "19123",
    "latitude": 39.9613142,
    "longitude": -75.15933319999999,
    "website": "http://theprohibitiontaproom.com/",
    "category": "Bar & Restaurant",
    "types": "bar, restaurant, point_of_interest, food, establishment"
  },
  {
    "place_id": "ChIJRZbYgp7HxokRTMwJyvmTQkw",
    "name": "The Mulberry",
    "street_address": "1835 Arch Street",
    "city": "Philadelphia",
    "state": "PA",
    "zip_code": "19103",
    "latitude": 39.9555044,
    "longitude": -75.1709951,
    "website": "http://themulberryphl.com/",
    "category": "Bar & Restaurant",
    "types": "bar, restaurant, food, point_of_interest, establishment"
  },
  {
    "place_id": "ChIJgYU6XzrGxokR4wwNl-Ahypc",
    "name": "The Black Sheep Pub & Restaurant",
    "street_address": "247 South 17th Street",
    "city": "Philadelphia",
    "state": "PA",
    "zip_code": "19103",
    "latitude": 39.9484223,
    "longitude": -75.1692901,
    "website": "http://www.theblacksheeppub.com/",
    "category": "Bar & Restaurant",
    "types": "bar, restaurant, food, point_of_interest, establishment"
  },
  {
    "place_id": "ChIJpxWEcYXIxokRZUYTDyQB0mY",
    "name": "The Plough & the Stars",
    "street_address": "North 2nd Street",
    "city": "Philadelphia",
    "state": "PA",
    "zip_code": "19106",
    "latitude": 39.9486235,
    "longitude": -75.1439024,
    "website": "http://www.ploughstars.com/",
    "category": "Bar & Restaurant",
    "types": "bar, restaurant, food, point_of_interest, establishment"
  },
  {
    "place_id": "ChIJqyJvRS_GxokRz0MlrMlYDrk",
    "name": "Fergie's Pub",
    "street_address": "1214 Sansom Street",
    "city": "Philadelphia",
    "state": "PA",
    "zip_code": "19107",
    "latitude": 39.9496403,
    "longitude": -75.1611827,
    "website": "https://www.fergies.com/",
    "category": "Bar & Restaurant",
    "types": "bar, restaurant, food, point_of_interest, establishment"
  },
  {
    "place_id": "ChIJFZ6TuS7HxokR0nv-mBcdrmQ",
    "name": "Topside Tavern - American Restaurant & Bar",
    "street_address": "10 South 20th Street",
    "city": "Philadelphia",
    "state": "PA",
    "zip_code": "19103",
    "latitude": 39.9528668,
    "longitude": -75.17344280000002,
    "website": "http://www.topsidetavern.com/",
    "category": "Bar & Restaurant",
    "types": "bar, restaurant, food, point_of_interest, establishment"
  },
  {
    "place_id": "ChIJHy0KXPjHxokR5RBnFXZnWqg",
    "name": "Happy Hour Sips Paganos - SUMMER ONLY",
    "street_address": "2001 Market Street",
    "city": "Philadelphia",
    "state": "PA",
    "zip_code": "19103",
    "latitude": 39.954126,
    "longitude": -75.1736619,
    "website": null,
    "category": "Bar & Restaurant",
    "types": "bar, restaurant, food, point_of_interest, establishment"
  },
  {
    "place_id": "ChIJ7RDIKZrIxokRlsVAmP_3P8g",
    "name": "The Twisted Tail",
    "street_address": "509 South 2nd Street",
    "city": "Philadelphia",
    "state": "PA",
    "zip_code": "19147",
    "latitude": 39.9418766,
    "longitude": -75.14519880000002,
    "website": "https://thetwistedtail.com/",
    "category": "Bar & Restaurant",
    "types": "restaurant, bar, food, point_of_interest, establishment"
  },
  {
    "place_id": "ChIJHUOpbYXIxokRkSS4GPTIz-A",
    "name": "Rotten Ralph's Pub & Eatery",
    "street_address": "201 Chestnut Street",
    "city": "Philadelphia",
    "state": "PA",
    "zip_code": "19106",
    "latitude": 39.9484883,
    "longitude": -75.14416659999999,
    "website": "https://www.rottenralphspub.com/",
    "category": "Bar & Restaurant",
    "types": "bar, restaurant, food, point_of_interest, establishment"
  },
  {
    "place_id": "ChIJY9G9ZszHxokRTTtVYENvrIQ",
    "name": "McCrossen's Tavern",
    "street_address": "529 North 20th Street",
    "city": "Philadelphia",
    "state": "PA",
    "zip_code": "19130",
    "latitude": 39.9631036,
    "longitude": -75.1709295,
    "website": "http://www.mccrossens.com/",
    "category": "Bar & Restaurant",
    "types": "bar, restaurant, point_of_interest, food, establishment"
  },
  {
    "place_id": "ChIJo8Mj5DrGxokRzOysJp3HPrw",
    "name": "Monk's Cafe",
    "street_address": "264 South 16th Street",
    "city": "Philadelphia",
    "state": "PA",
    "zip_code": "19102",
    "latitude": 39.947701,
    "longitude": -75.16812399999999,
    "website": "http://www.monkscafe.com/",
    "category": "Restaurant",
    "types": "cafe, liquor_store, store, restaurant, food, point_of_interest, establishment"
  },
  {
    "place_id": "ChIJv0WxhQ7GxokR80Faw7TNibE",
    "name": "South Philadelphia Tap Room",
    "street_address": "1509 Mifflin Street",
    "city": "Philadelphia",
    "state": "PA",
    "zip_code": "19145",
    "latitude": 39.9272277,
    "longitude": -75.17147890000001,
    "website": "http://southphiladelphiataproom.com/",
    "category": "Bar & Restaurant",
    "types": "bar, restaurant, food, point_of_interest, establishment"
  },
  {
    "place_id": "ChIJKaM7GkjGxokRQ91nB2nx8cs",
    "name": "Bonner's Irish Pub",
    "street_address": "120 South 23rd Street",
    "city": "Philadelphia",
    "state": "PA",
    "zip_code": "19103",
    "latitude": 39.9520319,
    "longitude": -75.17849369999999,
    "website": "https://www.bonnersirishpub.com/",
    "category": "Bar & Restaurant",
    "types": "bar, restaurant, point_of_interest, food, establishment"
  },
  {
    "place_id": "ChIJzXZKg4DHxokRmlg7S4mP0Ww",
    "name": "Iron Hill Brewery & Restaurant",
    "street_address": "1150 Market Street",
    "city": "Philadelphia",
    "state": "PA",
    "zip_code": "19107",
    "latitude": 39.9516875,
    "longitude": -75.1594358,
    "website": "https://ironhillbrewery.com/location/philadelphia-pa/",
    "category": "Bar & Restaurant",
    "types": "bar, restaurant, food, point_of_interest, establishment"
  },
  {
    "place_id": "ChIJVw-qOuTHxokRdZqgvpmZPqc",
    "name": "Loch Bar",
    "street_address": "301 South Broad Street",
    "city": "Philadelphia",
    "state": "PA",
    "zip_code": "19107",
    "latitude": 39.9468393,
    "longitude": -75.16453179999999,
    "website": "http://www.lochbar.com/philly",
    "category": "Bar & Restaurant",
    "types": "bar, restaurant, food, point_of_interest, establishment"
  },
  {
    "place_id": "ChIJQa1JHDDGxokRGExiHLDYVOA",
    "name": "Harp & Crown",
    "street_address": "1525 Sansom Street",
    "city": "Philadelphia",
    "state": "PA",
    "zip_code": "19102",
    "latitude": 39.9505176,
    "longitude": -75.16680319999999,
    "website": "https://harpcrown.com/",
    "category": "Bar & Restaurant",
    "types": "bar, restaurant, point_of_interest, food, establishment"
  },
  {
    "place_id": "ChIJwfA48eLFxokRloeqyIl3jLU",
    "name": "SouthHouse",
    "street_address": "2535 South 13th Street",
    "city": "Philadelphia",
    "state": "PA",
    "zip_code": "19148",
    "latitude": 39.9180556,
    "longitude": -75.16870639999999,
    "website": "http://www.southhousephilly.com/",
    "category": "Bar & Restaurant",
    "types": "bar, restaurant, food, point_of_interest, establishment"
  },
  {
    "place_id": "ChIJy8i9uzDGxokRCudJzZJM-WA",
    "name": "Cavanaugh's Rittenhouse",
    "street_address": "1913 Sansom Street",
    "city": "Philadelphia",
    "state": "PA",
    "zip_code": "19103",
    "latitude": 39.9512838,
    "longitude": -75.17263969999999,
    "website": "http://www.cavsrittenhouse.com/",
    "category": "Bar & Restaurant",
    "types": "bar, restaurant, food, point_of_interest, establishment"
  },
  {
    "place_id": "ChIJQRPrs5jIxokREU0YE3fozxI",
    "name": "New Wave Cafe",
    "street_address": "784 South 3rd Street",
    "city": "Philadelphia",
    "state": "PA",
    "zip_code": "19147",
    "latitude": 39.9380954,
    "longitude": -75.1485747,
    "website": "https://newwavecafe.com/",
    "category": "Bar & Restaurant",
    "types": "bar, restaurant, food, point_of_interest, establishment"
  },
  {
    "place_id": "ChIJgUAenZnIxokRm0hnJ7GU2wg",
    "name": "Paddy Whacks Irish Sports Pub - South Street",
    "street_address": "150 South Street",
    "city": "Philadelphia",
    "state": "PA",
    "zip_code": "19147",
    "latitude": 39.9410426,
    "longitude": -75.1454846,
    "website": "https://www.paddywhackspub.com/",
    "category": "Bar & Restaurant",
    "types": "restaurant, bar, point_of_interest, food, establishment"
  },
  {
    "place_id": "ChIJx-oXXkDHxokRUMWVQNOQxkE",
    "name": "Hilltown Tavern Fairmount",
    "street_address": "795 North 24th Street",
    "city": "Philadelphia",
    "state": "PA",
    "zip_code": "19130",
    "latitude": 39.9698208,
    "longitude": -75.1763923,
    "website": "http://hilltownfairmount.com/",
    "category": "Bar & Restaurant",
    "types": "bar, restaurant, food, point_of_interest, establishment"
  },
  {
    "place_id": "ChIJ-2T1OsnHxokRqyazVFXkT6Y",
    "name": "Urban Saloon",
    "street_address": "2120 Fairmount Avenue",
    "city": "Philadelphia",
    "state": "PA",
    "zip_code": "19130",
    "latitude": 39.9671692,
    "longitude": -75.17291519999999,
    "website": "http://www.urbansaloon.com/",
    "category": "Bar & Restaurant",
    "types": "bar, restaurant, food, point_of_interest, establishment"
  },
  {
    "place_id": "ChIJB9nIw8nHxokR399-qYC2yCE",
    "name": "The Bishop's Collar",
    "street_address": "2349 Fairmount Avenue",
    "city": "Philadelphia",
    "state": "PA",
    "zip_code": "19130",
    "latitude": 39.9675708,
    "longitude": -75.1768822,
    "website": "https://thebishopscollar.com/",
    "category": "Bar & Restaurant",
    "types": "bar, restaurant, food, point_of_interest, establishment"
  },
  {
    "place_id": "ChIJ3ZYetjrGxokRsAB7euuArPU",
    "name": "Fado Irish Pub",
    "street_address": "1500 Locust Street",
    "city": "Philadelphia",
    "state": "PA",
    "zip_code": "19102",
    "latitude": 39.9483519,
    "longitude": -75.1663447,
    "website": "https://www.fadoirishpub.com/",
    "category": "Bar & Restaurant",
    "types": "bar, restaurant, food, point_of_interest, establishment"
  },
  {
    "place_id": "ChIJ1zj-4tDJxokR1cEjGcu0CwU",
    "name": "Byrne's Tavern",
    "street_address": "3301 Richmond Street",
    "city": "Philadelphia",
    "state": "PA",
    "zip_code": "19134",
    "latitude": 39.9841258,
    "longitude": -75.09875149999999,
    "website": "http://www.byrnestavern.net/",
    "category": "Bar & Restaurant",
    "types": "meal_takeaway, bar, restaurant, food, point_of_interest, establishment"
  },
  {
    "place_id": "ChIJW8JrxzXGxokRo3Lfl9M4EwA",
    "name": "Cherry St. Tavern",
    "street_address": "129 North 22nd Street",
    "city": "Philadelphia",
    "state": "PA",
    "zip_code": "19103",
    "latitude": 39.95702199999999,
    "longitude": -75.175853,
    "website": null,
    "category": "Bar & Restaurant",
    "types": "bar, restaurant, food, point_of_interest, establishment"
  },
  {
    "place_id": "ChIJsWWd0czHxokRfGqF5cwNJLE",
    "name": "Kite & Key",
    "street_address": "1836 Callowhill Street",
    "city": "Philadelphia",
    "state": "PA",
    "zip_code": "19130",
    "latitude": 39.9603579,
    "longitude": -75.16967799999999,
    "website": "http://www.thekiteandkey.com/",
    "category": "Bar & Restaurant",
    "types": "bar, restaurant, food, point_of_interest, establishment"
  },
  {
    "place_id": "ChIJN5qcrBTJxokRiz1d39JfoBw",
    "name": "The Pub",
    "street_address": "7600 Kaighns Avenue",
    "city": "Pennsauken",
    "state": "NJ",
    "zip_code": "08109",
    "latitude": 39.9337191,
    "longitude": -75.0846162,
    "website": "http://www.thepubnj.com/",
    "category": "Bar & Restaurant",
    "types": "bar, restaurant, food, point_of_interest, establishment"
  },
  {
    "place_id": "ChIJ3-tqBfPIxokR5kmbhagEB9w",
    "name": "The Victor Pub",
    "street_address": "1 Market Street",
    "city": "Camden",
    "state": "NJ",
    "zip_code": "08102",
    "latitude": 39.94764259999999,
    "longitude": -75.1278042,
    "website": "http://www.victorspub.com/",
    "category": "Bar & Restaurant",
    "types": "bar, restaurant, point_of_interest, food, establishment"
  },
  {
    "place_id": "ChIJXycAstDIxokRp7uIMKYaKJI",
    "name": "Sophie's Lounge",
    "street_address": "699 Central Avenue",
    "city": "Camden",
    "state": "NJ",
    "zip_code": "08104",
    "latitude": 39.9221164,
    "longitude": -75.1141143,
    "website": null,
    "category": "Bar & Restaurant",
    "types": "bar, restaurant, food, point_of_interest, establishment"
  },
  {
    "place_id": "ChIJ6f-Ru4LJxokR_7b0p88R7FM",
    "name": "Water Street Grill",
    "street_address": "1 Penn Street",
    "city": "Camden",
    "state": "NJ",
    "zip_code": "08102",
    "latitude": 39.9501914,
    "longitude": -75.1305084,
    "website": "https://www.waterstreetgrill.com/",
    "category": "Bar & Restaurant",
    "types": "bar, restaurant, food, point_of_interest, establishment"
  },
  {
    "place_id": "ChIJk1XOQnC4xokRBp2CX6B0B9I",
    "name": "Cranky Joe's Sports Bar",
    "street_address": "3501 Indian Queen Lane",
    "city": "Philadelphia",
    "state": "PA",
    "zip_code": "19129",
    "latitude": 40.01089169999999,
    "longitude": -75.1881696,
    "website": "https://www.facebook.com/crankyjoesphilly/",
    "category": "Bar & Restaurant",
    "types": "meal_takeaway, bar, restaurant, food, point_of_interest, establishment"
  },
  {
    "place_id": "ChIJifG2L4vHxokRU-R9dV4OROY",
    "name": "Henny's Sports Bar",
    "street_address": "2748 North 29th Street",
    "city": "Philadelphia",
    "state": "PA",
    "zip_code": "19132",
    "latitude": 39.9983227,
    "longitude": -75.178456,
    "website": null,
    "category": "Bar & Restaurant",
    "types": "bar, restaurant, food, point_of_interest, establishment"
  },
  {
    "place_id": "ChIJtSaxWnXGxokRoPXEWtnmhyU",
    "name": "Tap Room On 19th",
    "street_address": "2400 South 19th Street",
    "city": "Philadelphia",
    "state": "PA",
    "zip_code": "19145",
    "latitude": 39.92159270000001,
    "longitude": -75.17868779999999,
    "website": "http://www.taproomon19th.com/",
    "category": "Bar & Restaurant",
    "types": "bar, restaurant, food, point_of_interest, establishment"
  },
  {
    "place_id": "ChIJNxESpoPIxokRs5NCI4-Aosc",
    "name": "Independence Beer Garden",
    "street_address": "100 South Independence Mall West",
    "city": "Philadelphia",
    "state": "PA",
    "zip_code": "19106",
    "latitude": 39.950275,
    "longitude": -75.1507561,
    "website": "https://www.phlbeergarden.com/",
    "category": "Bar & Restaurant",
    "types": "bar, restaurant, food, point_of_interest, establishment"
  },
  {
    "place_id": "ChIJJ2XhrirHxokR3GBgxhnTnvw",
    "name": "Victory Brewing Company Philadelphia",
    "street_address": "1776 Benjamin Franklin Parkway",
    "city": "Philadelphia",
    "state": "PA",
    "zip_code": "19103",
    "latitude": 39.9561947,
    "longitude": -75.1689852,
    "website": "https://philadelphia.victorybeer.com/",
    "category": "Bar & Restaurant",
    "types": "restaurant, bar, point_of_interest, food, establishment"
  },
  {
    "place_id": "ChIJfQzzMjfGxokReyhqhaYzv48",
    "name": "Devil's Alley Bar & Grill",
    "street_address": "1907 Chestnut Street",
    "city": "Philadelphia",
    "state": "PA",
    "zip_code": "19103",
    "latitude": 39.952118,
    "longitude": -75.17221599999999,
    "website": "http://www.devilsalleybarandgrill.com/",
    "category": "Bar & Restaurant",
    "types": "meal_delivery, meal_takeaway, bar, restaurant, food, point_of_interest, establishment"
  },
  {
    "place_id": "ChIJQ-b1FgzGxokRPpM17CqYYAQ",
    "name": "Second District Brewing",
    "street_address": "1939 South Bancroft Street",
    "city": "Philadelphia",
    "state": "PA",
    "zip_code": "19145",
    "latitude": 39.9263644,
    "longitude": -75.173037,
    "website": "http://www.seconddistrictbrewing.com/",
    "category": "Bar & Restaurant",
    "types": "liquor_store, bar, store, restaurant, food, point_of_interest, establishment"
  },
  {
    "place_id": "ChIJO9V7iKDJxokR0ATbcpMKyj0",
    "name": "Triple Bottom Brewing",
    "street_address": "915 Spring Garden Street",
    "city": "Philadelphia",
    "state": "PA",
    "zip_code": "19123",
    "latitude": 39.9618226,
    "longitude": -75.15356249999999,
    "website": "https://www.triplebottombrewing.com/",
    "category": "Bar & Restaurant",
    "types": "bar, restaurant, food, point_of_interest, establishment"
  },
  {
    "place_id": "ChIJiXlp2SvGxokRGogTLbllirM",
    "name": "Molly Malloy's",
    "street_address": "1136 Arch Street",
    "city": "Philadelphia",
    "state": "PA",
    "zip_code": "19107",
    "latitude": 39.9530858,
    "longitude": -75.15869710000001,
    "website": "https://mollymalloysphilly.com/",
    "category": "Bar & Restaurant",
    "types": "bar, restaurant, food, point_of_interest, establishment"
  },
  {
    "place_id": "ChIJa9ZbkWbIxokRR2aZnHtEygc",
    "name": "Yards Brewing Company",
    "street_address": "500 Spring Garden Street",
    "city": "Philadelphia",
    "state": "PA",
    "zip_code": "19123",
    "latitude": 39.9609866,
    "longitude": -75.14690829999999,
    "website": "https://yardsbrewing.com/",
    "category": "Bar & Restaurant",
    "types": "bar, liquor_store, restaurant, point_of_interest, food, store, establishment"
  },
  {
    "place_id": "ChIJVxCRc4XIxokRIQ9K6Vf7w9w",
    "name": "Sassafras",
    "street_address": "48 South 2nd Street",
    "city": "Philadelphia",
    "state": "PA",
    "zip_code": "19106",
    "latitude": 39.948787,
    "longitude": -75.1440824,
    "website": "https://www.sassafrasbar.com/",
    "category": "Bar & Restaurant",
    "types": "bar, restaurant, food, point_of_interest, establishment"
  },
  {
    "place_id": "ChIJM5NrHtnJxokRzijWQBZ7kvo",
    "name": "The Crazy Leprechaun",
    "street_address": "3589 Richmond Street",
    "city": "Philadelphia",
    "state": "PA",
    "zip_code": "19134",
    "latitude": 39.9876271,
    "longitude": -75.0920774,
    "website": null,
    "category": "Bar & Restaurant",
    "types": "bar, restaurant, food, point_of_interest, establishment"
  },
  {
    "place_id": "ChIJJ7kYLIbIxokRNEodNL-Ugdo",
    "name": "Race Street Cafe",
    "street_address": "208 Race Street",
    "city": "Philadelphia",
    "state": "PA",
    "zip_code": "19106",
    "latitude": 39.95365099999999,
    "longitude": -75.1434501,
    "website": "http://www.racestreetcafe.net/",
    "category": "Restaurant",
    "types": "restaurant, food, point_of_interest, establishment"
  },
  {
    "place_id": "ChIJS9ygjXvGxokREtJ_5jT7A5Q",
    "name": "Johnny Brenda's",
    "street_address": "1201 Frankford Avenue",
    "city": "Philadelphia",
    "state": "PA",
    "zip_code": "19125",
    "latitude": 39.9690372,
    "longitude": -75.134323,
    "website": "http://www.johnnybrendas.com/",
    "category": "Bar & Restaurant",
    "types": "restaurant, bar, cafe, food, point_of_interest, establishment"
  },
  {
    "place_id": "ChIJe8S-roXIxokRLDtUkAY3uX4",
    "name": "Old City Beer Garden",
    "street_address": "240 Market Street",
    "city": "Philadelphia",
    "state": "PA",
    "zip_code": "19106",
    "latitude": 39.949699,
    "longitude": -75.145341,
    "website": "http://oldcitybeergarden.com/",
    "category": "Bar & Restaurant",
    "types": "bar, restaurant, food, point_of_interest, establishment"
  },
  {
    "place_id": "ChIJj-88HkHHxokRgsLyNxFRVcc",
    "name": "Dock Street Brewery South",
    "street_address": "2118 Washington Avenue",
    "city": "Philadelphia",
    "state": "PA",
    "zip_code": "19146",
    "latitude": 39.9392658,
    "longitude": -75.1796596,
    "website": "http://www.dockstreetbeer.com/dock-street-south-point-breeze",
    "category": "Bar & Restaurant",
    "types": "liquor_store, bar, store, restaurant, food, point_of_interest, establishment"
  },
  {
    "place_id": "ChIJddl5TXPJxokRTfJGQXFdDd8",
    "name": "Human Robot",
    "street_address": "1710 North 5th Street",
    "city": "Philadelphia",
    "state": "PA",
    "zip_code": "19122",
    "latitude": 39.97731220000001,
    "longitude": -75.1436081,
    "website": "http://www.humanrobotbeer.com/",
    "category": "Bar & Restaurant",
    "types": "bar, restaurant, food, point_of_interest, establishment"
  },
  {
    "place_id": "ChIJzQUl7P7FxokRCkcg47gH0Lw",
    "name": "Fireside Tavern",
    "street_address": "2701 South Marshall Street",
    "city": "Philadelphia",
    "state": "PA",
    "zip_code": "19148",
    "latitude": 39.91499979999999,
    "longitude": -75.1585557,
    "website": "http://runinout.com/Fireside/Tavern/Philadelphia",
    "category": "Bar & Restaurant",
    "types": "bar, restaurant, food, point_of_interest, establishment"
  },
  {
    "place_id": "ChIJdwhMQtPJxokRraqkXq4mqUk",
    "name": "Gaul & Co. Malt House Port Richmond",
    "street_address": "2619 East Indiana Avenue",
    "city": "Philadelphia",
    "state": "PA",
    "zip_code": "19134",
    "latitude": 39.9825654,
    "longitude": -75.1075148,
    "website": "http://www.gaulandco.com/",
    "category": "Bar & Restaurant",
    "types": "bar, restaurant, food, point_of_interest, establishment"
  },
  {
    "place_id": "ChIJs2tmNubFxokRamoNvUs9GR0",
    "name": "Chickie's & Pete's",
    "street_address": "1526 Packer Avenue",
    "city": "Philadelphia",
    "state": "PA",
    "zip_code": "19145",
    "latitude": 39.911331,
    "longitude": -75.17433129999999,
    "website": "https://chickiesandpetes.com/location/south-philadelphia-2/?utm_source=gmb&utm_medium=organic&utm_campaign=south_philly",
    "category": "Bar & Restaurant",
    "types": "meal_delivery, bar, restaurant, food, point_of_interest, establishment"
  },
  {
    "place_id": "ChIJSY6fehnHxokR7-2b-maf5pg",
    "name": "White Horse Tavern",
    "street_address": "4860 Lancaster Avenue",
    "city": "Philadelphia",
    "state": "PA",
    "zip_code": "19131",
    "latitude": 39.9735033,
    "longitude": -75.2194569,
    "website": null,
    "category": "Bar & Restaurant",
    "types": "bar, restaurant, food, point_of_interest, establishment"
  },
  {
    "place_id": "ChIJOSWtVYTIxokRwl_XrRL1xz0",
    "name": "National Mechanics Bar and Restaurant",
    "street_address": "22 South 3rd Street",
    "city": "Philadelphia",
    "state": "PA",
    "zip_code": "19106",
    "latitude": 39.949557,
    "longitude": -75.146008,
    "website": "http://www.nationalmechanics.com/",
    "category": "Bar & Restaurant",
    "types": "restaurant, bar, food, point_of_interest, establishment"
  },
  {
    "place_id": "ChIJv-wpDqvHxokRIKDYBthyz30",
    "name": "Bar 50",
    "street_address": "1300 North 50th Street",
    "city": "Philadelphia",
    "state": "PA",
    "zip_code": "19131",
    "latitude": 39.9734233,
    "longitude": -75.2230573,
    "website": null,
    "category": "Bar & Restaurant",
    "types": "bar, restaurant, point_of_interest, food, establishment"
  },
  {
    "place_id": "ChIJA3WZQNLHxokR29MODGXE9s0",
    "name": "Kelliann\u2019s Bar & Grill",
    "street_address": "1549 Spring Garden Street",
    "city": "Philadelphia",
    "state": "PA",
    "zip_code": "19130",
    "latitude": 39.9631011,
    "longitude": -75.164517,
    "website": "http://www.kellianns.com/",
    "category": "Bar & Restaurant",
    "types": "bar, restaurant, food, point_of_interest, establishment"
  },
  {
    "place_id": "ChIJe3DFr57IxokREpLFFKq0uic",
    "name": "MilkBoy South Street",
    "street_address": "401 South Street",
    "city": "Philadelphia",
    "state": "PA",
    "zip_code": "19147",
    "latitude": 39.9417193,
    "longitude": -75.1492966,
    "website": "https://www.milkboy.tv/southstreet",
    "category": "Bar & Restaurant",
    "types": "bar, restaurant, food, point_of_interest, establishment"
  },
  {
    "place_id": "ChIJ39KMrXzIxokRxLLKJXv9YHA",
    "name": "O'Neals Pub",
    "street_address": "611 South 3rd Street",
    "city": "Philadelphia",
    "state": "PA",
    "zip_code": "19147",
    "latitude": 39.94104339999999,
    "longitude": -75.1474124,
    "website": "https://www.onealspub.com/",
    "category": "Bar & Restaurant",
    "types": "night_club, bar, restaurant, food, point_of_interest, establishment"
  },
  {
    "place_id": "ChIJR2fENWjPxokRfGXdrYgJta8",
    "name": "Holy City Publick House",
    "street_address": "332 Jersey Avenue",
    "city": "Gloucester City",
    "state": "NJ",
    "zip_code": "08030",
    "latitude": 39.8936319,
    "longitude": -75.126916,
    "website": "https://holycitypublickhouse.com/",
    "category": "Bar & Restaurant",
    "types": "bar, restaurant, food, point_of_interest, establishment"
  },
  {
    "place_id": "ChIJ6xekxQXGxokR09wo7sKRyJ0",
    "name": "Big Charlie's Saloon",
    "street_address": "1953 South 11th Street",
    "city": "Philadelphia",
    "state": "PA",
    "zip_code": "19148",
    "latitude": 39.9249452,
    "longitude": -75.163906,
    "website": null,
    "category": "Bar & Restaurant",
    "types": "bar, restaurant, point_of_interest, food, establishment"
  },
  {
    "place_id": "ChIJFSq7lmXIxokRnh171AR6bCg",
    "name": "Jerry's Bar",
    "street_address": "129 West Laurel Street",
    "city": "Philadelphia",
    "state": "PA",
    "zip_code": "19123",
    "latitude": 39.9651284,
    "longitude": -75.1389056,
    "website": "https://jerrysbarphilly.com/",
    "category": "Bar & Restaurant",
    "types": "bar, restaurant, point_of_interest, food, establishment"
  },
  {
    "place_id": "ChIJ4Zh1Ko64xokRW4hzr47rgtc",
    "name": "Dawson Street Pub",
    "street_address": "100 Dawson Street",
    "city": "Philadelphia",
    "state": "PA",
    "zip_code": "19127",
    "latitude": 40.018596,
    "longitude": -75.212808,
    "website": "http://www.dawsonstreetpub.com/",
    "category": "Bar & Restaurant",
    "types": "bar, restaurant, food, point_of_interest, establishment"
  },
  {
    "place_id": "ChIJkWzucHC4xokRu9gJkZccuNM",
    "name": "Franklin's East Falls",
    "street_address": "3259 Cresson Street",
    "city": "Philadelphia",
    "state": "PA",
    "zip_code": "19129",
    "latitude": 40.0109283,
    "longitude": -75.189352,
    "website": "https://www.facebook.com/FranklinsPubEastFalls/",
    "category": "Bar & Restaurant",
    "types": "bar, restaurant, food, point_of_interest, establishment"
  },
  {
    "place_id": "ChIJ85Kdxd-3xokRS3gG_KcZ5iA",
    "name": "Victor's Sport Bar",
    "street_address": "5207 Frankford Avenue",
    "city": "Philadelphia",
    "state": "PA",
    "zip_code": "19124",
    "latitude": 40.0223599,
    "longitude": -75.0777724,
    "website": null,
    "category": "Bar & Restaurant",
    "types": "bar, restaurant, food, point_of_interest, establishment"
  },
  {
    "place_id": "ChIJtR5Mf3S2xokRjAbZJFoyZV0",
    "name": "Cannonball Tavern",
    "street_address": "James Street",
    "city": "Philadelphia",
    "state": "PA",
    "zip_code": "19137",
    "latitude": 40.00965999999999,
    "longitude": -75.0668913,
    "website": "http://cannonball-tavern.poi.place/",
    "category": "Bar & Restaurant",
    "types": "bar, restaurant, food, point_of_interest, establishment"
  },
  {
    "place_id": "ChIJJ2lNu_O2xokRRebZLX7Cu8E",
    "name": "Oxford Tavern",
    "street_address": "5990 Oxford Avenue",
    "city": "Philadelphia",
    "state": "PA",
    "zip_code": "19149",
    "latitude": 40.0363888,
    "longitude": -75.0882079,
    "website": null,
    "category": "Bar & Restaurant",
    "types": "liquor_store, bar, store, restaurant, food, point_of_interest, establishment"
  },
  {
    "place_id": "ChIJZxhczYbJxokRtJ4-QVwH89s",
    "name": "45th Street Pub",
    "street_address": "2545 45th Street",
    "city": "Pennsauken",
    "state": "NJ",
    "zip_code": "08110",
    "latitude": 39.9515229,
    "longitude": -75.06516549999999,
    "website": "http://www.45thstreetpub.com/",
    "category": "Bar & Restaurant",
    "types": "bar, restaurant, food, point_of_interest, establishment"
  },
  {
    "place_id": "ChIJcXHK7SHKxokRS2z1OPzjbng",
    "name": "Bobby Ray's Pennsauken Tavern",
    "street_address": "6324 Westfield Avenue",
    "city": "Pennsauken",
    "state": "NJ",
    "zip_code": "08110",
    "latitude": 39.9641703,
    "longitude": -75.05599099999999,
    "website": "https://m.facebook.com/braysplace/",
    "category": "Bar & Restaurant",
    "types": "bar, restaurant, food, point_of_interest, establishment"
  },
  {
    "place_id": "ChIJjVJM6L-4xokRw8y2VV2HT38",
    "name": "Lucky's Last Chance- Manayunk",
    "street_address": "4421 Main Street",
    "city": "Philadelphia",
    "state": "PA",
    "zip_code": "19127",
    "latitude": 40.0263313,
    "longitude": -75.225543,
    "website": "http://www.luckyslastchance.com/",
    "category": "Bar & Restaurant",
    "types": "bar, restaurant, food, point_of_interest, establishment"
  },
  {
    "place_id": "ChIJB_r13L-4xokRME8i9fAKexM",
    "name": "Taqueria Amor",
    "street_address": "4410 Main Street",
    "city": "Philadelphia",
    "state": "PA",
    "zip_code": "19127",
    "latitude": 40.02591819999999,
    "longitude": -75.2250943,
    "website": "http://www.taqueriaamor.com/",
    "category": "Bar & Restaurant",
    "types": "bar, restaurant, food, point_of_interest, establishment"
  },
  {
    "place_id": "ChIJY1AvQ3C4xokRW4Hwnu2ShtI",
    "name": "Billy Murphy's Irish Saloon",
    "street_address": "3333 Conrad Street",
    "city": "Philadelphia",
    "state": "PA",
    "zip_code": "19129",
    "latitude": 40.0107568,
    "longitude": -75.1876997,
    "website": "http://saloonery.com/",
    "category": "Bar & Restaurant",
    "types": "bar, restaurant, food, point_of_interest, establishment"
  },
  {
    "place_id": "ChIJC5BLK-24xokRyWdmH7q2Id0",
    "name": "Scanlon's Saloon",
    "street_address": "4201 Manayunk Avenue",
    "city": "Philadelphia",
    "state": "PA",
    "zip_code": "19128",
    "latitude": 40.02635249999999,
    "longitude": -75.2154813,
    "website": null,
    "category": "Bar & Restaurant",
    "types": "bar, restaurant, food, point_of_interest, establishment"
  },
  {
    "place_id": "ChIJt1o2_ey4xokRVqzTDRptYV8",
    "name": "Hilltown Tavern",
    "street_address": "326 Roxborough Avenue",
    "city": "Philadelphia",
    "state": "PA",
    "zip_code": "19128",
    "latitude": 40.0281841,
    "longitude": -75.2158323,
    "website": "http://hilltowntavern.com/",
    "category": "Bar & Restaurant",
    "types": "bar, restaurant, food, point_of_interest, establishment"
  },
  {
    "place_id": "ChIJQUV3PqO5xokR_HJus_-7rww",
    "name": "McMenamin's Tavern",
    "street_address": "7170 Germantown Avenue",
    "city": "Philadelphia",
    "state": "PA",
    "zip_code": "19119",
    "latitude": 40.0597528,
    "longitude": -75.1908758,
    "website": "https://m.facebook.com/pages/McMenamins-Tavern/115734381788983",
    "category": "Restaurant",
    "types": "restaurant, point_of_interest, food, establishment"
  },
  {
    "place_id": "ChIJzbF_QpS4xokRf4ao4q5UBX0",
    "name": "Manayunk Brewing Company",
    "street_address": "4120 Main Street",
    "city": "Philadelphia",
    "state": "PA",
    "zip_code": "19127",
    "latitude": 40.0225448,
    "longitude": -75.2191448,
    "website": "http://www.manayunkbrewery.com/",
    "category": "Bar & Restaurant",
    "types": "bar, restaurant, food, point_of_interest, establishment"
  },
  {
    "place_id": "ChIJu_6TB6jAxokRLwcjxc2_rNw",
    "name": "Pub of Penn Valley",
    "street_address": "863 Montgomery Avenue",
    "city": "Penn Valley",
    "state": "PA",
    "zip_code": "19072",
    "latitude": 40.01128840000001,
    "longitude": -75.25953140000001,
    "website": "http://www.pubofpennvalley.com/",
    "category": "Bar & Restaurant",
    "types": "bar, restaurant, food, point_of_interest, establishment"
  },
  {
    "place_id": "ChIJ_2R08aXAxokRs9sunw2wxvg",
    "name": "Great American Pub",
    "street_address": "101 North Narberth Avenue",
    "city": "Narberth",
    "state": "PA",
    "zip_code": "19072",
    "latitude": 40.005995,
    "longitude": -75.26000800000001,
    "website": "http://www.greatamericanpub.net/",
    "category": "Bar & Restaurant",
    "types": "bar, restaurant, point_of_interest, food, establishment"
  },
  {
    "place_id": "ChIJdSuCAui5xokRC0UxC5TO7V0",
    "name": "X Mark's the Spot Bar and Grille",
    "street_address": "6364 Stenton Avenue",
    "city": "Philadelphia",
    "state": "PA",
    "zip_code": "19138",
    "latitude": 40.06010260000001,
    "longitude": -75.16680459999999,
    "website": "https://xmarksthespotphilly.com/",
    "category": "Bar & Restaurant",
    "types": "bar, restaurant, food, point_of_interest, establishment"
  },
  {
    "place_id": "ChIJN8HH44K4xokRR5UkNanHu8I",
    "name": "TGI Fridays",
    "street_address": "4000 City Avenue",
    "city": "Philadelphia",
    "state": "PA",
    "zip_code": "19131",
    "latitude": 40.0079212,
    "longitude": -75.21113299999999,
    "website": "https://locations.tgifridays.com/pa/philadelphia/4000-city-ave.html",
    "category": "Bar & Restaurant",
    "types": "restaurant, bar, food, point_of_interest, establishment"
  },
  {
    "place_id": "ChIJ3VPzTwC7xokR5R0CdodF2Sw",
    "name": "152 Public House Restaurant and Bar",
    "street_address": "2734 Limekiln Pike",
    "city": "Glenside",
    "state": "PA",
    "zip_code": "19038",
    "latitude": 40.1094618,
    "longitude": -75.16495239999999,
    "website": "https://www.facebook.com/p/152-Public-House-Restaurant-and-Bar-61550802371279/",
    "category": "Restaurant",
    "types": "restaurant, food, point_of_interest, establishment"
  },
  {
    "place_id": "ChIJp6MdPHq5xokRrh91NEKpcfU",
    "name": "TAVERN ON THE HILL",
    "street_address": "8636 Germantown Avenue",
    "city": "Philadelphia",
    "state": "PA",
    "zip_code": "19118",
    "latitude": 40.0771615,
    "longitude": -75.208891,
    "website": "http://www.tavernonthehill.biz/",
    "category": "Bar & Restaurant",
    "types": "bar, restaurant, food, point_of_interest, establishment"
  },
  {
    "place_id": "ChIJW-ldQXq5xokR-DUi6gfYkUE",
    "name": "McNally's Tavern CHESTNUT HILL",
    "street_address": "8634 Germantown Avenue",
    "city": "Philadelphia",
    "state": "PA",
    "zip_code": "19118",
    "latitude": 40.0771023,
    "longitude": -75.20887259999999,
    "website": "http://www.mcnallys.com/",
    "category": "Bar & Restaurant",
    "types": "bar, restaurant, food, point_of_interest, establishment"
  },
  {
    "place_id": "ChIJmxKGELi7xokRgV_HbzqPHRE",
    "name": "Halligan's Pub",
    "street_address": "1619 Bethlehem Pike",
    "city": "Flourtown",
    "state": "PA",
    "zip_code": "19031",
    "latitude": 40.1070466,
    "longitude": -75.2137296,
    "website": "http://www.halliganspub.com/",
    "category": "Bar & Restaurant",
    "types": "bar, restaurant, food, point_of_interest, establishment"
  },
  {
    "place_id": "ChIJO5jGA5W4xokR6ed6Lu5i-Cg",
    "name": "Ryan's Pub Manayunk",
    "street_address": "4301 Main Street",
    "city": "Philadelphia",
    "state": "PA",
    "zip_code": "19127",
    "latitude": 40.0249726,
    "longitude": -75.2219033,
    "website": "http://ryansmnyk.com/",
    "category": "Bar & Restaurant",
    "types": "bar, restaurant, food, point_of_interest, establishment"
  },
  {
    "place_id": "ChIJr7f9UUq5xokRCnwS3I-Y5pY",
    "name": "Tavern kitchen bar",
    "street_address": "5714 Anderson Street",
    "city": "Philadelphia",
    "state": "PA",
    "zip_code": "19138",
    "latitude": 40.0513122,
    "longitude": -75.1596964,
    "website": null,
    "category": "Bar & Restaurant",
    "types": "bar, restaurant, food, point_of_interest, establishment"
  },
  {
    "place_id": "ChIJvRgYXR28xokRixgIepr0GY8",
    "name": "Ye Olde Ale House",
    "street_address": "405 Germantown Pike",
    "city": "Philadelphia",
    "state": "PA",
    "zip_code": "19444",
    "latitude": 40.0928404,
    "longitude": -75.2609645,
    "website": "https://yeoldealehouse.shop/",
    "category": "Restaurant",
    "types": "restaurant, food, point_of_interest, establishment"
  },
  {
    "place_id": "ChIJt-CD1nm5xokRVKCQ50nNQFI",
    "name": "Campbell's Place",
    "street_address": "8337 Germantown Avenue",
    "city": "Philadelphia",
    "state": "PA",
    "zip_code": "19118",
    "latitude": 40.07512149999999,
    "longitude": -75.20461279999999,
    "website": "http://www.campbellsplacech.com/",
    "category": "Bar & Restaurant",
    "types": "meal_takeaway, bar, restaurant, food, point_of_interest, establishment"
  },
  {
    "place_id": "ChIJmZmDkca4xokRli81pxtl9z4",
    "name": "The Union Tap House",
    "street_address": "4801 Umbria Street",
    "city": "Philadelphia",
    "state": "PA",
    "zip_code": "19127",
    "latitude": 40.032587,
    "longitude": -75.23242619999999,
    "website": "http://www.theuniontaphouse.com/",
    "category": "Bar & Restaurant",
    "types": "bar, restaurant, food, point_of_interest, establishment"
  },
  {
    "place_id": "ChIJZ0Y_JPixxokRVt8clRUKqvA",
    "name": "The Ways Restaurant & Brewery",
    "street_address": "11 South Easton Road",
    "city": "Glenside",
    "state": "PA",
    "zip_code": "19038",
    "latitude": 40.10129579999999,
    "longitude": -75.15273189999999,
    "website": "http://thewaysrestaurantandbrewery.com/",
    "category": "Bar & Restaurant",
    "types": "bar, restaurant, food, point_of_interest, establishment"
  },
  {
    "place_id": "ChIJHQQwj9-5xokRIFLdwPcCF6M",
    "name": "The Brass Tap",
    "street_address": "177 Markle Street",
    "city": "Philadelphia",
    "state": "PA",
    "zip_code": "19127",
    "latitude": 40.0226572,
    "longitude": -75.21442669999999,
    "website": "https://www.brasstapbeerbar.com/philadelphia",
    "category": "Bar & Restaurant",
    "types": "bar, restaurant, food, point_of_interest, establishment"
  },
  {
    "place_id": "ChIJueCXmru3xokR7xI40h3KsD8",
    "name": "Cooper\u2019s Super Bar",
    "street_address": "100 West Wyoming Avenue",
    "city": "Philadelphia",
    "state": "PA",
    "zip_code": "19140",
    "latitude": 40.0214283,
    "longitude": -75.12452739999999,
    "website": "https://luerr.com/cooper-s-super-bar",
    "category": "Bar & Restaurant",
    "types": "bar, restaurant, food, point_of_interest, establishment"
  },
  {
    "place_id": "ChIJAQCfMB24xokRK4fuL4Ebuco",
    "name": "B Bar",
    "street_address": "3630 North 17th Street",
    "city": "Philadelphia",
    "state": "PA",
    "zip_code": "19140",
    "latitude": 40.0091621,
    "longitude": -75.1564412,
    "website": null,
    "category": "Bar & Restaurant",
    "types": "restaurant, bar, food, point_of_interest, establishment"
  }
]