[
  {
    "place_id": "ChIJVfgugfsTK4cRiR2QyP3GJJU",
    "name": "Crown Public House",
    "street_address": "333 East Jefferson Street",
    "city": "Phoenix",
    "state": "AZ",
    "zip_code": "85004",
    "latitude": 33.446175,
    "longitude": -112.0689985,
    "website": "http://crownpublichouse.com/",
    "category": "Bar & Restaurant",
    "types": "bar, restaurant, food, point_of_interest, establishment"
  },
  {
    "place_id": "ChIJdQKR5SESK4cRoq6hHbk8PoQ",
    "name": "The Kettle Black Kitchen & Pub",
    "street_address": "1 North 1st Street",
    "city": "Phoenix",
    "state": "AZ",
    "zip_code": "85004",
    "latitude": 33.4485836,
    "longitude": -112.0721521,
    "website": "http://thekettleblackpub.com/",
    "category": "Bar & Restaurant",
    "types": "bar, restaurant, food, point_of_interest, establishment"
  },
  {
    "place_id": "ChIJOwsvfT4SK4cRQu-QJW5qXMg",
    "name": "MATCH Market & Bar",
    "street_address": "1100 North Central Avenue",
    "city": "Phoenix",
    "state": "AZ",
    "zip_code": "85003",
    "latitude": 33.4602028,
    "longitude": -112.0741815,
    "website": "https://matchphx.com/",
    "category": "Bar & Restaurant",
    "types": "grocery_or_supermarket, bar, restaurant, point_of_interest, food, store, establishment"
  },
  {
    "place_id": "ChIJey8vKxgSK4cR8xVbn8TAc8I",
    "name": "The Vig",
    "street_address": "606 North 4th Avenue",
    "city": "Phoenix",
    "state": "AZ",
    "zip_code": "85003",
    "latitude": 33.455031,
    "longitude": -112.079327,
    "website": "https://www.thevig.us/fillmore",
    "category": "Bar & Restaurant",
    "types": "restaurant, bar, food, point_of_interest, establishment"
  },
  {
    "place_id": "ChIJ557mWB8SK4cRjva83onHjkc",
    "name": "Majerle's Sports Grill",
    "street_address": "24 North 2nd Street",
    "city": "Phoenix",
    "state": "AZ",
    "zip_code": "85004",
    "latitude": 33.448443,
    "longitude": -112.071547,
    "website": "http://www.majerles.com/",
    "category": "Bar & Restaurant",
    "types": "bar, restaurant, food, point_of_interest, establishment"
  },
  {
    "place_id": "ChIJu25ggGIRK4cRtuoILLkTAdM",
    "name": "Saddle Horn Bar",
    "street_address": "2338 West Buckeye Road",
    "city": "Phoenix",
    "state": "AZ",
    "zip_code": "85009",
    "latitude": 33.437044,
    "longitude": -112.110149,
    "website": null,
    "category": "Bar & Restaurant",
    "types": "bar, restaurant, food, point_of_interest, establishment"
  },
  {
    "place_id": "ChIJLQB0eu0SK4cRm2hMcKUxSYs",
    "name": "George and Dragon English Pub",
    "street_address": "4240 North Central Avenue",
    "city": "Phoenix",
    "state": "AZ",
    "zip_code": "85012",
    "latitude": 33.49776250000001,
    "longitude": -112.0740595,
    "website": "http://www.gndphx.com/",
    "category": "Bar & Restaurant",
    "types": "bar, restaurant, food, point_of_interest, establishment"
  },
  {
    "place_id": "ChIJBduQSiISK4cRSgUajBxuuAg",
    "name": "Seamus McCaffrey's Irish Pub",
    "street_address": "18 West Monroe Street",
    "city": "Phoenix",
    "state": "AZ",
    "zip_code": "85003",
    "latitude": 33.4506009,
    "longitude": -112.0743722,
    "website": "http://www.seamusmccaffreys.com/",
    "category": "Bar & Restaurant",
    "types": "bar, restaurant, food, point_of_interest, establishment"
  },
  {
    "place_id": "ChIJD-CCMSISK4cR0rLndAumIXE",
    "name": "Valley Bar",
    "street_address": "130 North Central Avenue",
    "city": "Phoenix",
    "state": "AZ",
    "zip_code": "85004",
    "latitude": 33.4500209,
    "longitude": -112.0741848,
    "website": "https://valleybarphx.com/",
    "category": "Bar & Restaurant",
    "types": "bar, night_club, restaurant, food, point_of_interest, establishment"
  },
  {
    "place_id": "ChIJq9eV12MTK4cRg2XYJ73GmHo",
    "name": "Barrel & Bushel",
    "street_address": "122 North 2nd Street",
    "city": "Phoenix",
    "state": "AZ",
    "zip_code": "85004",
    "latitude": 33.44950100000001,
    "longitude": -112.071545,
    "website": "https://barrelandbushelphoenix.com/",
    "category": "Bar & Restaurant",
    "types": "bar, restaurant, food, point_of_interest, establishment"
  },
  {
    "place_id": "ChIJeZeGTEcTK4cRUhzDVfEhqyY",
    "name": "The Churchill",
    "street_address": "901 North 1st Street",
    "city": "Phoenix",
    "state": "AZ",
    "zip_code": "85004",
    "latitude": 33.4578459,
    "longitude": -112.0721894,
    "website": "https://www.thechurchillphx.com/",
    "category": "Bar & Restaurant",
    "types": "clothing_store, bar, store, restaurant, food, point_of_interest, establishment"
  },
  {
    "place_id": "ChIJ4T3UUysTK4cRG5PS6tGMVmA",
    "name": "The Brill Line",
    "street_address": "901 North 1st Street",
    "city": "Phoenix",
    "state": "AZ",
    "zip_code": "85004",
    "latitude": 33.4579624,
    "longitude": -112.0723015,
    "website": "https://www.thebrillline.com/",
    "category": "Bar & Restaurant",
    "types": "bar, liquor_store, store, restaurant, food, point_of_interest, establishment"
  },
  {
    "place_id": "ChIJLd4xpt0TK4cRqoZk9Xt6KYc",
    "name": "Wren & Wolf",
    "street_address": "2 North Central Avenue",
    "city": "Phoenix",
    "state": "AZ",
    "zip_code": "85004",
    "latitude": 33.44841499999999,
    "longitude": -112.0749091,
    "website": "https://www.wrenandwolf.com/",
    "category": "Bar & Restaurant",
    "types": "bar, restaurant, food, point_of_interest, establishment"
  },
  {
    "place_id": "ChIJBb6U0W4SK4cRT7uJ3GuF4zU",
    "name": "The Main Ingredient Ale House & Cafe",
    "street_address": "2337 North 7th Street",
    "city": "Phoenix",
    "state": "AZ",
    "zip_code": "85006",
    "latitude": 33.4745297,
    "longitude": -112.0646385,
    "website": "http://tmialehouse.com/",
    "category": "Bar & Restaurant",
    "types": "bar, restaurant, food, point_of_interest, establishment"
  },
  {
    "place_id": "ChIJY5VFxDETK4cRvPGqoyijpKY",
    "name": "Salt River Tavern",
    "street_address": "10 East Thomas Road",
    "city": "Phoenix",
    "state": "AZ",
    "zip_code": "85012",
    "latitude": 33.4806743,
    "longitude": -112.0722072,
    "website": "https://www.hilton.com/en/hotels/phxeses-embassy-suites-phoenix-downtown-north/dining/",
    "category": "Bar & Restaurant",
    "types": "bar, restaurant, point_of_interest, food, establishment"
  },
  {
    "place_id": "ChIJadD9riESK4cRjJc5tJ2FLIQ",
    "name": "Bitter & Twisted Cocktail Parlour",
    "street_address": "1 West Jefferson Street",
    "city": "Phoenix",
    "state": "AZ",
    "zip_code": "85003",
    "latitude": 33.4470247,
    "longitude": -112.0739397,
    "website": "https://bitterandtwistedaz.com/",
    "category": "Bar & Restaurant",
    "types": "bar, night_club, meal_takeaway, restaurant, food, point_of_interest, establishment"
  },
  {
    "place_id": "ChIJf3cSDTUTK4cRKTVSKSvg6QM",
    "name": "The Green Woodpecker",
    "street_address": "3110 North Central Avenue",
    "city": "Phoenix",
    "state": "AZ",
    "zip_code": "85012",
    "latitude": 33.48330199999999,
    "longitude": -112.075002,
    "website": "http://thegreenwoodpecker.com/",
    "category": "Bar & Restaurant",
    "types": "bar, restaurant, food, point_of_interest, establishment"
  },
  {
    "place_id": "ChIJ7ULGHj0SK4cRgVMiZur3Qz0",
    "name": "The Grand",
    "street_address": "718 North Central Avenue",
    "city": "Phoenix",
    "state": "AZ",
    "zip_code": "85004",
    "latitude": 33.4560128,
    "longitude": -112.0741594,
    "website": "http://thegrandaz.com/",
    "category": "Bar & Restaurant",
    "types": "bar, restaurant, food, point_of_interest, establishment"
  },
  {
    "place_id": "ChIJrW8lWZATK4cRWVFT1FseReU",
    "name": "Luckys Indoor Outdoor",
    "street_address": "817 North 2nd Street",
    "city": "Phoenix",
    "state": "AZ",
    "zip_code": "85004",
    "latitude": 33.4573277,
    "longitude": -112.0709894,
    "website": "https://www.luckysphx.com/",
    "category": "Bar & Restaurant",
    "types": "bar, night_club, restaurant, food, point_of_interest, establishment"
  },
  {
    "place_id": "ChIJDXRsr1wTK4cR5d09wYTkx3Y",
    "name": "Arizona Wilderness DTPHX",
    "street_address": "201 East Roosevelt Street",
    "city": "Phoenix",
    "state": "AZ",
    "zip_code": "85004",
    "latitude": 33.4584711,
    "longitude": -112.0708336,
    "website": "http://azwbeer.com/",
    "category": "Bar & Restaurant",
    "types": "bar, restaurant, food, point_of_interest, establishment"
  },
  {
    "place_id": "ChIJpQOManwTK4cR5Wk7N_xjIGI",
    "name": "Phoenix Bourbon Room",
    "street_address": "2 East Jefferson Street",
    "city": "Phoenix",
    "state": "AZ",
    "zip_code": "85004",
    "latitude": 33.44743289999999,
    "longitude": -112.0728807,
    "website": "http://phoenixbourbonroom.com/",
    "category": "Restaurant",
    "types": "restaurant, food, point_of_interest, establishment"
  },
  {
    "place_id": "ChIJ42pmA54NK4cRf8rAnXraD44",
    "name": "The Wandering Tortoise",
    "street_address": "2417 East Indian School Road",
    "city": "Phoenix",
    "state": "AZ",
    "zip_code": "85016",
    "latitude": 33.4945,
    "longitude": -112.0291265,
    "website": "http://thewanderingtortoise.com/",
    "category": "Bar & Restaurant",
    "types": "bar, restaurant, food, point_of_interest, establishment"
  },
  {
    "place_id": "ChIJScta_DMNK4cRg3DlsKcuwtM",
    "name": "Casa Corazon Restaurant",
    "street_address": "2637 North 16th Street",
    "city": "Phoenix",
    "state": "AZ",
    "zip_code": "85006",
    "latitude": 33.4769368,
    "longitude": -112.0473809,
    "website": "https://casacorazonrestaurant.com/",
    "category": "Restaurant",
    "types": "restaurant, food, point_of_interest, establishment"
  },
  {
    "place_id": "ChIJJzIaNyISK4cR5Gi5dTzyFF8",
    "name": "Cornish Pasty Co",
    "street_address": "7 West Monroe Street",
    "city": "Phoenix",
    "state": "AZ",
    "zip_code": "85003",
    "latitude": 33.4501649,
    "longitude": -112.0742163,
    "website": "http://www.cornishpastyco.com/",
    "category": "Bar & Restaurant",
    "types": "bar, restaurant, food, point_of_interest, establishment"
  },
  {
    "place_id": "ChIJZy3VlEYTK4cR6oAwfyrf_8I",
    "name": "Cold Beers & Cheeseburgers",
    "street_address": "401 East Jefferson Street",
    "city": "Phoenix",
    "state": "AZ",
    "zip_code": "85004",
    "latitude": 33.4460705,
    "longitude": -112.0676053,
    "website": "https://www.coldbeers.com/cheeseburgers/ballpark-downtown-phoenix/",
    "category": "Bar & Restaurant",
    "types": "bar, restaurant, food, point_of_interest, establishment"
  },
  {
    "place_id": "ChIJ35A3g1ETK4cRHOjuOwlZh7A",
    "name": "Stadium Sports Bar & Lounge",
    "street_address": "50 West Jefferson Street",
    "city": "Phoenix",
    "state": "AZ",
    "zip_code": "85003",
    "latitude": 33.44772270000001,
    "longitude": -112.0746375,
    "website": "https://stadiumphx.com/",
    "category": "Bar & Restaurant",
    "types": "night_club, bar, restaurant, food, point_of_interest, establishment"
  },
  {
    "place_id": "ChIJ8yJC9CESK4cRG_mMN3Hlmo8",
    "name": "Hanny's",
    "street_address": "40 North 1st Street",
    "city": "Phoenix",
    "state": "AZ",
    "zip_code": "85004",
    "latitude": 33.4491155,
    "longitude": -112.0727187,
    "website": "https://hannys.net/",
    "category": "Restaurant",
    "types": "restaurant, food, point_of_interest, establishment"
  },
  {
    "place_id": "ChIJzxn_N1QSK4cRsltVSSe3XkY",
    "name": "Original Hamburger Works",
    "street_address": "2801 North 15th Avenue",
    "city": "Phoenix",
    "state": "AZ",
    "zip_code": "85007",
    "latitude": 33.4798122,
    "longitude": -112.0911755,
    "website": "http://greatburgeraz.com/",
    "category": "Restaurant",
    "types": "restaurant, food, point_of_interest, establishment"
  },
  {
    "place_id": "ChIJDXzPnO8TK4cRpVhmFZvLDmM",
    "name": "Rough Rider",
    "street_address": "1001 North Central Avenue",
    "city": "Phoenix",
    "state": "AZ",
    "zip_code": "85004",
    "latitude": 33.4589438,
    "longitude": -112.0735001,
    "website": "http://www.roughrideraz.com/",
    "category": "Bar & Restaurant",
    "types": "bar, restaurant, food, point_of_interest, establishment"
  },
  {
    "place_id": "ChIJS-dou7kTK4cRXu_7zL5r5WM",
    "name": "The Desmond",
    "street_address": "1 North 1st Street",
    "city": "Phoenix",
    "state": "AZ",
    "zip_code": "85004",
    "latitude": 33.44865,
    "longitude": -112.0723724,
    "website": "http://www.thedesmondaz.com/",
    "category": "Bar & Restaurant",
    "types": "bar, restaurant, food, point_of_interest, establishment"
  },
  {
    "place_id": "ChIJy3dIJ58TK4cRjo8z0hYWflQ",
    "name": "Tap That Downtown",
    "street_address": "909 North 5th Street",
    "city": "Phoenix",
    "state": "AZ",
    "zip_code": "85004",
    "latitude": 33.4580189,
    "longitude": -112.0670912,
    "website": "https://www.tapthatbeer.com/",
    "category": "Restaurant",
    "types": "restaurant, food, point_of_interest, establishment"
  },
  {
    "place_id": "ChIJ6S9oOegTK4cRExZ14yvkWJ4",
    "name": "Ingo\u2019s Tasty Food",
    "street_address": "101 East Washington Street",
    "city": "Phoenix",
    "state": "AZ",
    "zip_code": "85004",
    "latitude": 33.4479645,
    "longitude": -112.0723302,
    "website": "https://ingostastyfood.com/?utm_source=GMB&utm_medium=local&utm_campaign=dtphx",
    "category": "Bar & Restaurant",
    "types": "restaurant, cafe, bar, store, food, point_of_interest, establishment"
  },
  {
    "place_id": "ChIJeVNB_RYSK4cRG9LYfAjHZDc",
    "name": "Jobot Coffee, Breakfast and Pizzeria",
    "street_address": "333 East Roosevelt Street",
    "city": "Phoenix",
    "state": "AZ",
    "zip_code": "85004",
    "latitude": 33.4584535,
    "longitude": -112.0696776,
    "website": "https://untappd.com/v/jobot-coffee-and-bar/5802628",
    "category": "Bar & Restaurant",
    "types": "cafe, bar, store, restaurant, food, point_of_interest, establishment"
  },
  {
    "place_id": "ChIJN37AnPgTK4cRKOEDqgRExyA",
    "name": "Dog Haus Biergarten",
    "street_address": "1 East Washington Street",
    "city": "Phoenix",
    "state": "AZ",
    "zip_code": "85004",
    "latitude": 33.4480155,
    "longitude": -112.0737253,
    "website": "http://downtownphoenix.doghaus.com/",
    "category": "Restaurant",
    "types": "restaurant, food, point_of_interest, establishment"
  },
  {
    "place_id": "ChIJ_ZRoJbwLK4cRnhBnzrk7pwM",
    "name": "Social Tap Scottsdale",
    "street_address": "4312 North Brown Avenue",
    "city": "Scottsdale",
    "state": "AZ",
    "zip_code": "85251",
    "latitude": 33.49872779999999,
    "longitude": -111.9246332,
    "website": "https://socialtapscottsdaleaz.com/",
    "category": "Restaurant",
    "types": "restaurant, food, point_of_interest, establishment"
  },
  {
    "place_id": "ChIJI2i21IQJK4cRAqiFgHIIj-4",
    "name": "El Dorado Bar & Grill",
    "street_address": "8708 East McDowell Road",
    "city": "Scottsdale",
    "state": "AZ",
    "zip_code": "85257",
    "latitude": 33.4662191,
    "longitude": -111.8959798,
    "website": "http://eldorado-bar-grill.com/",
    "category": "Bar & Restaurant",
    "types": "bar, restaurant, food, point_of_interest, establishment"
  },
  {
    "place_id": "ChIJSYnAvMALK4cRIVgKZTKIqMk",
    "name": "AZ88",
    "street_address": "7353 East Scottsdale Mall",
    "city": "Scottsdale",
    "state": "AZ",
    "zip_code": "85251",
    "latitude": 33.4927468,
    "longitude": -111.9231291,
    "website": "http://az88.com/",
    "category": "Bar & Restaurant",
    "types": "bar, restaurant, food, point_of_interest, establishment"
  },
  {
    "place_id": "ChIJg90od74LK4cRqc_j-V56K9Y",
    "name": "Cold Beers & Cheeseburgers",
    "street_address": "4222 North Scottsdale Road",
    "city": "Scottsdale",
    "state": "AZ",
    "zip_code": "85251",
    "latitude": 33.4975411,
    "longitude": -111.9264305,
    "website": "https://www.coldbeers.com/cheeseburgers/old-town-scottsdale/",
    "category": "Bar & Restaurant",
    "types": "bar, restaurant, food, point_of_interest, establishment"
  },
  {
    "place_id": "ChIJ8dFQKboLK4cRT9xg11c_dpk",
    "name": "Clancy's Pub Pizza and Grill",
    "street_address": "4432 North Miller Road",
    "city": "Scottsdale",
    "state": "AZ",
    "zip_code": "85251",
    "latitude": 33.5016207,
    "longitude": -111.9182013,
    "website": "http://www.clancyspubscottsdale.com/",
    "category": "Bar & Restaurant",
    "types": "bar, restaurant, food, point_of_interest, establishment"
  },
  {
    "place_id": "ChIJYQVwoeMLK4cR2faUPZrfYys",
    "name": "Pour Decisions Patio & Kitchen",
    "street_address": "4209 North Craftsman Court",
    "city": "Scottsdale",
    "state": "AZ",
    "zip_code": "85251",
    "latitude": 33.4968976,
    "longitude": -111.9275179,
    "website": "https://www.pourdecisionsscottsdale.com/",
    "category": "Bar & Restaurant",
    "types": "restaurant, bar, food, point_of_interest, establishment"
  },
  {
    "place_id": "ChIJKUro59YLK4cROfChAHTd_v8",
    "name": "R.T. O'Sullivan's Sports Grill",
    "street_address": "7919 East Thomas Road",
    "city": "Scottsdale",
    "state": "AZ",
    "zip_code": "85251",
    "latitude": 33.4789114,
    "longitude": -111.9108479,
    "website": "https://scottsdale.rtosullivans.com/",
    "category": "Bar & Restaurant",
    "types": "restaurant, bar, point_of_interest, food, establishment"
  },
  {
    "place_id": "ChIJx377cIMJK4cRE5oCB7OrSwE",
    "name": "Night Owl Pizza & Drinks Scottsdale",
    "street_address": "1645 Hayden Road",
    "city": "Scottsdale",
    "state": "AZ",
    "zip_code": "85257",
    "latitude": 33.4671445,
    "longitude": -111.908469,
    "website": "https://nightowlaz.com/",
    "category": "Bar & Restaurant",
    "types": "night_club, bar, restaurant, food, point_of_interest, establishment"
  },
  {
    "place_id": "ChIJX8jB45QLK4cRsAMfJOenUB8",
    "name": "Craft 64 Scottsdale",
    "street_address": "6922 East Main Street",
    "city": "Scottsdale",
    "state": "AZ",
    "zip_code": "85251",
    "latitude": 33.4933181,
    "longitude": -111.9316662,
    "website": "https://www.craft64.com/",
    "category": "Bar & Restaurant",
    "types": "bar, restaurant, food, point_of_interest, establishment"
  },
  {
    "place_id": "ChIJ3wY9E7wLK4cRi2cZDizdITU",
    "name": "DJ's of Scottsdale Bar & Grill",
    "street_address": "7320 East Stetson Drive",
    "city": "Scottsdale",
    "state": "AZ",
    "zip_code": "85251",
    "latitude": 33.4997361,
    "longitude": -111.9234167,
    "website": null,
    "category": "Bar & Restaurant",
    "types": "bar, restaurant, food, point_of_interest, establishment"
  },
  {
    "place_id": "ChIJA4w5x2QJK4cR2CYDJ7MWKr8",
    "name": "Duke's Sports Bar and Grill",
    "street_address": "7607 East McDowell Road",
    "city": "Scottsdale",
    "state": "AZ",
    "zip_code": "85257",
    "latitude": 33.4645654,
    "longitude": -111.9164475,
    "website": "https://dukessportsbar.com/",
    "category": "Bar & Restaurant",
    "types": "bar, restaurant, food, point_of_interest, establishment"
  },
  {
    "place_id": "ChIJUcI8UqILK4cRkaWAEDcwrws",
    "name": "Postino Highland",
    "street_address": "4821 North Scottsdale Road",
    "city": "Scottsdale",
    "state": "AZ",
    "zip_code": "85251",
    "latitude": 33.506904,
    "longitude": -111.925684,
    "website": "https://www.postinowinecafe.com/locations/postino-highland",
    "category": "Bar & Restaurant",
    "types": "restaurant, bar, food, point_of_interest, establishment"
  },
  {
    "place_id": "ChIJi2hRWbsMK4cR1VrdsuC0giQ",
    "name": "Hoppin' Jacks",
    "street_address": "5402 East Lincoln Drive",
    "city": "Scottsdale",
    "state": "AZ",
    "zip_code": "85253",
    "latitude": 33.53583959999999,
    "longitude": -111.9640883,
    "website": "https://www.marriott.com/en-us/dining/restaurant-bar/phxcb-jw-marriott-scottsdale-camelback-inn-resort-spa/78817-hoppin-jacks-at-the-jackrabbit-pool.mi",
    "category": "Bar & Restaurant",
    "types": "bar, restaurant, food, point_of_interest, establishment"
  },
  {
    "place_id": "ChIJr4pmh7sLK4cR9XgByyx3tig",
    "name": "Mother Tucker's Tavern",
    "street_address": "4420 North Saddlebag Trail",
    "city": "Scottsdale",
    "state": "AZ",
    "zip_code": "85251",
    "latitude": 33.500868,
    "longitude": -111.922405,
    "website": "https://mothertuckerstavern.com/",
    "category": "Bar & Restaurant",
    "types": "bar, restaurant, food, point_of_interest, establishment"
  },
  {
    "place_id": "ChIJDdcJTcALK4cRtG1eLkgiSu0",
    "name": "Brat Haus",
    "street_address": "3622 North Scottsdale Road",
    "city": "Scottsdale",
    "state": "AZ",
    "zip_code": "85251",
    "latitude": 33.49017049999999,
    "longitude": -111.9263268,
    "website": "https://www.brathausaz.com/",
    "category": "Bar & Restaurant",
    "types": "restaurant, bar, food, point_of_interest, establishment"
  },
  {
    "place_id": "ChIJN-by7bwLK4cR1lo3iT3Uqu4",
    "name": "Cottontail Lounge",
    "street_address": "7277 East Camelback Road",
    "city": "Scottsdale",
    "state": "AZ",
    "zip_code": "85251",
    "latitude": 33.501721,
    "longitude": -111.924227,
    "website": "https://cottontaillounge.com/?utm_source=GMB&utm_medium=local",
    "category": "Bar & Restaurant",
    "types": "cafe, night_club, bar, restaurant, food, point_of_interest, establishment"
  },
  {
    "place_id": "ChIJb5fAdXULK4cRtftiUcIKaZg",
    "name": "The Phoenician Tavern",
    "street_address": "6000 East Camelback Road",
    "city": "Scottsdale",
    "state": "AZ",
    "zip_code": "85251",
    "latitude": 33.5060683,
    "longitude": -111.9481201,
    "website": "https://www.thephoenician.com/dine/the-phoenician-tavern",
    "category": "Restaurant",
    "types": "restaurant, food, point_of_interest, establishment"
  },
  {
    "place_id": "ChIJFXa1vskLK4cRit5gOSULHIk",
    "name": "The Back Door Bar & Restaurant",
    "street_address": "7330 East Main Street",
    "city": "Scottsdale",
    "state": "AZ",
    "zip_code": "85251",
    "latitude": 33.49331980000001,
    "longitude": -111.9238462,
    "website": "https://www.thebackdoorbar.com/",
    "category": "Bar & Restaurant",
    "types": "bar, restaurant, food, point_of_interest, establishment"
  },
  {
    "place_id": "ChIJx5-Of7wLK4cRhbzcpk-JrRE",
    "name": "Dierks Bentley's Whiskey Row",
    "street_address": "4420 North Saddlebag Trail",
    "city": "Scottsdale",
    "state": "AZ",
    "zip_code": "85251",
    "latitude": 33.5010506,
    "longitude": -111.9223809,
    "website": "https://dierkswhiskeyrow.com/scottsdale-az/",
    "category": "Bar & Restaurant",
    "types": "night_club, bar, restaurant, food, point_of_interest, establishment"
  },
  {
    "place_id": "ChIJVTtZMf0JK4cRcqJLmmVqWYM",
    "name": "Twin Peaks",
    "street_address": "2050 East Rio Salado Parkway",
    "city": "Tempe",
    "state": "AZ",
    "zip_code": "85281",
    "latitude": 33.4321987,
    "longitude": -111.9023996,
    "website": "https://twinpeaksrestaurant.com/locations/tempe-az",
    "category": "Bar & Restaurant",
    "types": "bar, restaurant, food, point_of_interest, establishment"
  },
  {
    "place_id": "ChIJTYrBD0cHK4cRItirpOHnYDk",
    "name": "The Porch",
    "street_address": "1128 East Baseline Road",
    "city": "Tempe",
    "state": "AZ",
    "zip_code": "85283",
    "latitude": 33.3786358,
    "longitude": -111.9231097,
    "website": "http://www.porchrestaurants.com/tempe/",
    "category": "Bar & Restaurant",
    "types": "restaurant, night_club, bar, point_of_interest, food, establishment"
  },
  {
    "place_id": "ChIJa0QeDvEJK4cR_3A-hlUpcbA",
    "name": "Mill's Modern Social",
    "street_address": "83 East Broadway Road",
    "city": "Tempe",
    "state": "AZ",
    "zip_code": "85282",
    "latitude": 33.4068935,
    "longitude": -111.9385511,
    "website": "http://www.millsmodernsocial.com/",
    "category": "Bar & Restaurant",
    "types": "bar, restaurant, food, point_of_interest, establishment"
  },
  {
    "place_id": "ChIJxxKaOfQIK4cRALrPs6TM94g",
    "name": "Tempe Tavern",
    "street_address": "1810 East Apache Boulevard",
    "city": "Tempe",
    "state": "AZ",
    "zip_code": "85281",
    "latitude": 33.4150327,
    "longitude": -111.9085471,
    "website": "http://www.tempetavern.com/",
    "category": "Bar & Restaurant",
    "types": "bar, restaurant, food, point_of_interest, establishment"
  },
  {
    "place_id": "ChIJI7_nOkMJK4cRSCe7ZA1u2o0",
    "name": "The Hudson Eatery & Bar",
    "street_address": "1601 East Apache Boulevard",
    "city": "Tempe",
    "state": "AZ",
    "zip_code": "85281",
    "latitude": 33.4141684,
    "longitude": -111.9123082,
    "website": "http://www.hudsontempe.com/",
    "category": "Bar & Restaurant",
    "types": "restaurant, bar, food, point_of_interest, establishment"
  },
  {
    "place_id": "ChIJ8UKqh38JK4cRUKc_7WU5-XQ",
    "name": "Boondocks Patio & Grill Tempe",
    "street_address": "1024 East Broadway Road",
    "city": "Tempe",
    "state": "AZ",
    "zip_code": "85282",
    "latitude": 33.4077334,
    "longitude": -111.9230453,
    "website": "https://tempe.boondocksaz.com/",
    "category": "Bar & Restaurant",
    "types": "bar, restaurant, food, point_of_interest, establishment"
  },
  {
    "place_id": "ChIJVeTUiq8IK4cRIFDl-z99g84",
    "name": "Yucca Tap Room",
    "street_address": "29 West Southern Avenue",
    "city": "Tempe",
    "state": "AZ",
    "zip_code": "85282",
    "latitude": 33.3926526,
    "longitude": -111.9405375,
    "website": "https://yuccatap.com/",
    "category": "Bar & Restaurant",
    "types": "bar, restaurant, food, point_of_interest, establishment"
  },
  {
    "place_id": "ChIJi2b5WIMIK4cRyOjnJ0fIP14",
    "name": "Spokes On Southern",
    "street_address": "1470 East Southern Avenue",
    "city": "Tempe",
    "state": "AZ",
    "zip_code": "85282",
    "latitude": 33.3939327,
    "longitude": -111.9143288,
    "website": "http://www.spokesonsouthern.com/",
    "category": "Bar & Restaurant",
    "types": "meal_delivery, bar, restaurant, food, point_of_interest, establishment"
  },
  {
    "place_id": "ChIJWby9Q6UIK4cRJcNVgxSy0fI",
    "name": "Monkey Pants Bar & Grill",
    "street_address": "3223 South Mill Avenue",
    "city": "Tempe",
    "state": "AZ",
    "zip_code": "85282",
    "latitude": 33.393621,
    "longitude": -111.938547,
    "website": "http://monkeypantsbar.com/",
    "category": "Bar & Restaurant",
    "types": "bar, restaurant, food, point_of_interest, establishment"
  },
  {
    "place_id": "ChIJDShNphwGK4cRl48NoS8s0M4",
    "name": "Final Round",
    "street_address": "5030 South Mill Avenue",
    "city": "Tempe",
    "state": "AZ",
    "zip_code": "85282",
    "latitude": 33.3791582,
    "longitude": -111.9400152,
    "website": "https://finalroundaz.com/",
    "category": "Bar & Restaurant",
    "types": "bar, restaurant, food, point_of_interest, establishment"
  },
  {
    "place_id": "ChIJ1zrKSi4PK4cRXNv4_O6Fk90",
    "name": "Philly's Sports Grill",
    "street_address": "1402 South Priest Drive",
    "city": "Tempe",
    "state": "AZ",
    "zip_code": "85281",
    "latitude": 33.41291090000001,
    "longitude": -111.9611776,
    "website": "https://phillyssportsgrill.com/",
    "category": "Bar & Restaurant",
    "types": "bar, restaurant, food, point_of_interest, establishment"
  },
  {
    "place_id": "ChIJRSOpGQAJK4cRglhtzVjqbRk",
    "name": "Thirsty Lion",
    "street_address": "2000 East Rio Salado Parkway",
    "city": "Tempe",
    "state": "AZ",
    "zip_code": "85281",
    "latitude": 33.4330007,
    "longitude": -111.9055282,
    "website": "https://www.thirstylionrestaurant.com/",
    "category": "Bar & Restaurant",
    "types": "restaurant, bar, food, point_of_interest, establishment"
  },
  {
    "place_id": "ChIJhWoaddcIK4cRJ_lyprUAkPY",
    "name": "Pedal Haus Brewery",
    "street_address": "730 South Mill Avenue",
    "city": "Tempe",
    "state": "AZ",
    "zip_code": "85281",
    "latitude": 33.4232907,
    "longitude": -111.9415306,
    "website": "https://pedalhausbrewery.com/tempe-location",
    "category": "Bar & Restaurant",
    "types": "restaurant, bar, food, point_of_interest, establishment"
  },
  {
    "place_id": "ChIJvWK9U8sIK4cRZQoqZgr0GHU",
    "name": "Tailgate Sports Bar & Grill",
    "street_address": "930 West Broadway Road",
    "city": "Tempe",
    "state": "AZ",
    "zip_code": "85282",
    "latitude": 33.4078048,
    "longitude": -111.9541996,
    "website": "http://tailgatebartempe.com/",
    "category": "Bar & Restaurant",
    "types": "bar, restaurant, food, point_of_interest, establishment"
  },
  {
    "place_id": "ChIJ4wn9FCIGK4cRFmING24A8mM",
    "name": "Doc & Eddy's",
    "street_address": "909 East Minton Drive",
    "city": "Tempe",
    "state": "AZ",
    "zip_code": "85282",
    "latitude": 33.379226,
    "longitude": -111.926899,
    "website": "http://www.docandeddystempe.com/",
    "category": "Bar & Restaurant",
    "types": "bar, restaurant, food, point_of_interest, establishment"
  },
  {
    "place_id": "ChIJ1cBNtWoJK4cRkoA6nBWn98g",
    "name": "Philly's Sports Grill",
    "street_address": "1826 North Scottsdale Road",
    "city": "Tempe",
    "state": "AZ",
    "zip_code": "85288",
    "latitude": 33.44968209999999,
    "longitude": -111.9269578,
    "website": "https://phillyssportsgrill.com/index.php/scottsdale/",
    "category": "Bar & Restaurant",
    "types": "bar, restaurant, food, point_of_interest, establishment"
  },
  {
    "place_id": "ChIJ1ReU7csIK4cRY7u9rIUDjx0",
    "name": "SaltFire Brewery Co Taphouse",
    "street_address": "530 West Broadway Road",
    "city": "Tempe",
    "state": "AZ",
    "zip_code": "85282",
    "latitude": 33.4076195,
    "longitude": -111.9475708,
    "website": "http://www.saltfirebrewingtaphouse.com/",
    "category": "Bar & Restaurant",
    "types": "bar, restaurant, food, point_of_interest, establishment"
  },
  {
    "place_id": "ChIJD4Fx1aoJK4cRj8YVAXNxAtI",
    "name": "Bar Louie - Tempe Marketplace",
    "street_address": "2000 East Rio Salado Parkway",
    "city": "Tempe",
    "state": "AZ",
    "zip_code": "85288",
    "latitude": 33.43331070000001,
    "longitude": -111.9015744,
    "website": "https://www.barlouie.com/locations/us/az/tempe/tempe-marketplace?utm_source=google&utm_medium=gmb&utm_campaign=listings",
    "category": "Bar & Restaurant",
    "types": "night_club, bar, restaurant, food, point_of_interest, establishment"
  },
  {
    "place_id": "ChIJTdAEFykJK4cRfZjrN9MVVE8",
    "name": "The Yard At Farmer Arts District",
    "street_address": "149 South Farmer Avenue",
    "city": "Tempe",
    "state": "AZ",
    "zip_code": "85281",
    "latitude": 33.4286912,
    "longitude": -111.9440252,
    "website": "https://www.culinarydropout.com/locations/tempe-az/?utm_source=Google&utm_medium=Organic&utm_campaign=Maps",
    "category": "Bar & Restaurant",
    "types": "bar, restaurant, food, point_of_interest, establishment"
  },
  {
    "place_id": "ChIJl_4F7VUIK4cR7dZQDX91yFU",
    "name": "The Way Station Restaurant & Bar",
    "street_address": "1929 East Rio Salado Parkway",
    "city": "Tempe",
    "state": "AZ",
    "zip_code": "85288",
    "latitude": 33.4286353,
    "longitude": -111.9036679,
    "website": "https://www.thewaystationtempe.com/",
    "category": "Bar & Restaurant",
    "types": "restaurant, night_club, bar, food, point_of_interest, establishment"
  },
  {
    "place_id": "ChIJl1cNJ1AJK4cRma-LQ2z11Ic",
    "name": "Dog Haus Biergarten",
    "street_address": "430 North Scottsdale Road",
    "city": "Tempe",
    "state": "AZ",
    "zip_code": "85288",
    "latitude": 33.4340491,
    "longitude": -111.9272364,
    "website": "http://tempe.doghaus.com/",
    "category": "Restaurant",
    "types": "restaurant, food, point_of_interest, establishment"
  },
  {
    "place_id": "ChIJh-ihWJsOK4cRyf8nZlLyHmI",
    "name": "The Lunch Lounge",
    "street_address": "501 North 44th Street",
    "city": "Phoenix",
    "state": "AZ",
    "zip_code": "85008",
    "latitude": 33.45404089999999,
    "longitude": -111.9865761,
    "website": "http://thelunchlounge.com/",
    "category": "Restaurant",
    "types": "cafe, restaurant, point_of_interest, food, store, establishment"
  },
  {
    "place_id": "ChIJq6qqqiYJK4cRu-2rsfShPIw",
    "name": "Daily Jam - Breakfast & Brunch Restaurant",
    "street_address": "310 South Mill Avenue",
    "city": "Tempe",
    "state": "AZ",
    "zip_code": "85281",
    "latitude": 33.427202,
    "longitude": -111.9403482,
    "website": "https://www.mydailyjam.com/",
    "category": "Restaurant",
    "types": "cafe, restaurant, food, point_of_interest, establishment"
  },
  {
    "place_id": "ChIJ_RDK4YMIK4cRP-GxXXLBl84",
    "name": "Outback Steakhouse",
    "street_address": "1734 East Southern Avenue",
    "city": "Tempe",
    "state": "AZ",
    "zip_code": "85282",
    "latitude": 33.3937521,
    "longitude": -111.9102346,
    "website": "https://locations.outback.com/arizona/tempe/1734-east-southern-avenue?utm_source=gmb&utm_medium=local_search&utm_campaign=website_cta&y_source=1_MTU1MDIzNDEtNzE1LWxvY2F0aW9uLndlYnNpdGU%3D",
    "category": "Bar & Restaurant",
    "types": "meal_takeaway, bar, restaurant, food, point_of_interest, establishment"
  },
  {
    "place_id": "ChIJY3nR8yoPK4cRHQLTlj8PsWo",
    "name": "Pizza Pie Factory",
    "street_address": "777 South College Avenue",
    "city": "Tempe",
    "state": "AZ",
    "zip_code": "85281",
    "latitude": 33.4230136,
    "longitude": -111.9347356,
    "website": "http://www.pizzapiefactorytempe.com/",
    "category": "Restaurant",
    "types": "meal_delivery, meal_takeaway, restaurant, food, point_of_interest, establishment"
  },
  {
    "place_id": "ChIJrTyCmpIIK4cRNMsGgJIobNU",
    "name": "Native Grill & Wings",
    "street_address": "1301 East Broadway Road",
    "city": "Tempe",
    "state": "AZ",
    "zip_code": "85282",
    "latitude": 33.4071512,
    "longitude": -111.9173001,
    "website": "https://locations.nativegrillandwings.com/ll/US/AZ/Tempe/1301-East-Broadway-Road",
    "category": "Bar & Restaurant",
    "types": "bar, restaurant, point_of_interest, food, establishment"
  },
  {
    "place_id": "ChIJOaTXR9UIK4cRVKKSkl3sDtg",
    "name": "Cornish Pasty Co",
    "street_address": "960 West University Drive",
    "city": "Tempe",
    "state": "AZ",
    "zip_code": "85281",
    "latitude": 33.4230211,
    "longitude": -111.9518195,
    "website": "http://www.cornishpastyco.com/?utm_source=local&utm_medium=organic&utm_campaign=gmb&utm_content=tempe",
    "category": "Bar & Restaurant",
    "types": "bar, restaurant, food, point_of_interest, establishment"
  },
  {
    "place_id": "ChIJ9Wd6mGYGK4cRiWd0_bkohHg",
    "name": "Postino Annex",
    "street_address": "615 South College Avenue",
    "city": "Tempe",
    "state": "AZ",
    "zip_code": "85281",
    "latitude": 33.4238482,
    "longitude": -111.9347356,
    "website": "https://www.postinowinecafe.com/locations/postino-annex",
    "category": "Bar & Restaurant",
    "types": "restaurant, bar, food, point_of_interest, establishment"
  },
  {
    "place_id": "ChIJLSPphYYJK4cRukX-O0mJF_Q",
    "name": "Alter Ego",
    "street_address": "108 East University Drive",
    "city": "Tempe",
    "state": "AZ",
    "zip_code": "85281",
    "latitude": 33.4222008,
    "longitude": -111.9377321,
    "website": "https://www.alteregotempe.com/",
    "category": "Restaurant",
    "types": "restaurant, food, point_of_interest, establishment"
  },
  {
    "place_id": "ChIJY9M3BPAIK4cRkSOWsfkfkCQ",
    "name": "Four Peaks Brewing Company",
    "street_address": "1340 East 8th Street",
    "city": "Tempe",
    "state": "AZ",
    "zip_code": "85281",
    "latitude": 33.4196566,
    "longitude": -111.9159531,
    "website": "https://www.fourpeaks.com/8th-street-pub",
    "category": "Bar & Restaurant",
    "types": "restaurant, bar, food, point_of_interest, establishment"
  },
  {
    "place_id": "ChIJE3w1BNgIK4cR7DbJpUc4Xe8",
    "name": "Cornish Pasty Co",
    "street_address": "425 South Mill Avenue",
    "city": "Tempe",
    "state": "AZ",
    "zip_code": "85281",
    "latitude": 33.4258657,
    "longitude": -111.9398292,
    "website": "http://www.cornishpastyco.com/",
    "category": "Bar & Restaurant",
    "types": "bar, restaurant, point_of_interest, food, establishment"
  },
  {
    "place_id": "ChIJgxIxGIYOK4cRo4cF1SN2uRA",
    "name": "Mesquite Fresh Street Mex",
    "street_address": "4002 East Washington Street",
    "city": "Phoenix",
    "state": "AZ",
    "zip_code": "85034",
    "latitude": 33.44845919999999,
    "longitude": -111.9949113,
    "website": "https://eatmesquite.com/",
    "category": "Restaurant",
    "types": "restaurant, food, point_of_interest, establishment"
  },
  {
    "place_id": "ChIJ0yNMgNcIK4cRI51tN9HIp_I",
    "name": "Zipps Sports Grill",
    "street_address": "690 South Mill Avenue",
    "city": "Tempe",
    "state": "AZ",
    "zip_code": "85281",
    "latitude": 33.423409,
    "longitude": -111.940412,
    "website": "https://www.zippssportsgrills.com/locations/mill/",
    "category": "Bar & Restaurant",
    "types": "restaurant, bar, food, point_of_interest, establishment"
  },
  {
    "place_id": "ChIJCdDKkR4MK4cRigAokzDShSc",
    "name": "Gypsy's Roadhouse",
    "street_address": "5122 East McDowell Road",
    "city": "Phoenix",
    "state": "AZ",
    "zip_code": "85008",
    "latitude": 33.4658926,
    "longitude": -111.9711107,
    "website": "https://gypsysroadhouse.com/",
    "category": "Bar & Restaurant",
    "types": "night_club, bar, restaurant, food, point_of_interest, establishment"
  },
  {
    "place_id": "ChIJWwhelgcJK4cRLSxL6iz4eHU",
    "name": "Gyro 101 - Scottsdale",
    "street_address": "8770 East McDowell Road",
    "city": "Scottsdale",
    "state": "AZ",
    "zip_code": "85257",
    "latitude": 33.4661902,
    "longitude": -111.8934551,
    "website": "https://www.gyro101menu.com/?utm_source=gbp",
    "category": "Restaurant",
    "types": "restaurant, food, point_of_interest, establishment"
  },
  {
    "place_id": "ChIJWU-P0-AIK4cRGS5DOUNQVdA",
    "name": "Buffalo Wild Wings",
    "street_address": "705 South Rural Road",
    "city": "Tempe",
    "state": "AZ",
    "zip_code": "85288",
    "latitude": 33.4236202,
    "longitude": -111.9258342,
    "website": "https://www.buffalowildwings.com/locations/us/az/tempe/705-s-rural-rd/sports-bar-241?utm_source=google%20my%20business&utm_medium=organic&utm_campaign=website%20link",
    "category": "Bar & Restaurant",
    "types": "meal_takeaway, bar, restaurant, point_of_interest, food, establishment"
  },
  {
    "place_id": "ChIJZSmaHdMJK4cRSFd1xrfcnNg",
    "name": "El Paisano Restaurant at The Carmin",
    "street_address": "1000 East Apache Boulevard",
    "city": "Tempe",
    "state": "AZ",
    "zip_code": "85281",
    "latitude": 33.4149414,
    "longitude": -111.9241473,
    "website": "https://paisano.top/",
    "category": "Restaurant",
    "types": "restaurant, food, point_of_interest, establishment"
  },
  {
    "place_id": "ChIJ3zWEFZAJK4cRP5BF67elXqk",
    "name": "Fate Brewing Company - Tempe",
    "street_address": "201 East Southern Avenue",
    "city": "Tempe",
    "state": "AZ",
    "zip_code": "85282",
    "latitude": 33.3923294,
    "longitude": -111.9364595,
    "website": "https://fatebrewing.com/",
    "category": "Bar & Restaurant",
    "types": "bar, restaurant, food, point_of_interest, establishment"
  },
  {
    "place_id": "ChIJ75cTAIVsK4cR5SL_IisnSEo",
    "name": "OBriens Sports Bar",
    "street_address": "7829 North 35th Avenue",
    "city": "Phoenix",
    "state": "AZ",
    "zip_code": "85051",
    "latitude": 33.5523224,
    "longitude": -112.1339264,
    "website": "https://www.facebook.com/obriens.sportsbar/",
    "category": "Bar & Restaurant",
    "types": "bar, restaurant, food, point_of_interest, establishment"
  },
  {
    "place_id": "ChIJUwz-iDNsK4cR9VjCHysVhdg",
    "name": "The Beaver Bar",
    "street_address": "11801 North 19th Avenue",
    "city": "Phoenix",
    "state": "AZ",
    "zip_code": "85029",
    "latitude": 33.5932255,
    "longitude": -112.0992291,
    "website": "http://www.thebeaverbarphxaz.com/",
    "category": "Bar & Restaurant",
    "types": "bar, restaurant, food, point_of_interest, establishment"
  },
  {
    "place_id": "ChIJVQ2QuVNsK4cRwSbVMKH5g1c",
    "name": "Maverick Saloon",
    "street_address": "9605 North 19th Avenue",
    "city": "Phoenix",
    "state": "AZ",
    "zip_code": "85021",
    "latitude": 33.57412000000001,
    "longitude": -112.099195,
    "website": "http://www.themavericksaloon.com/",
    "category": "Bar & Restaurant",
    "types": "bar, restaurant, food, point_of_interest, establishment"
  },
  {
    "place_id": "ChIJ8Srt0YdtK4cRMWr-hSSSTxc",
    "name": "Time Capsule Bar and Grill",
    "street_address": "3558 West Northern Avenue",
    "city": "Phoenix",
    "state": "AZ",
    "zip_code": "85051",
    "latitude": 33.5536683,
    "longitude": -112.1369203,
    "website": null,
    "category": "Bar & Restaurant",
    "types": "bar, restaurant, food, point_of_interest, establishment"
  },
  {
    "place_id": "ChIJd6vg_sJrK4cRCLIvUvMFRy8",
    "name": "Mason's Sports Pub & Grub",
    "street_address": "10634 North 51st Avenue",
    "city": "Glendale",
    "state": "AZ",
    "zip_code": "85304",
    "latitude": 33.58335,
    "longitude": -112.1695525,
    "website": null,
    "category": "Bar & Restaurant",
    "types": "bar, restaurant, point_of_interest, food, establishment"
  },
  {
    "place_id": "ChIJa-6i7wpsK4cR2fe4EKDmHz0",
    "name": "Bull Shooters",
    "street_address": "3337 West Peoria Avenue",
    "city": "Phoenix",
    "state": "AZ",
    "zip_code": "85029",
    "latitude": 33.5806236,
    "longitude": -112.1330566,
    "website": "http://www.bullshooters-az.com/",
    "category": "Bar & Restaurant",
    "types": "night_club, bar, restaurant, food, point_of_interest, establishment"
  },
  {
    "place_id": "ChIJL7nytLNvK4cRDG1tm64jRXY",
    "name": "Ojos Locos Sports Cantina - Metro",
    "street_address": "9040 North Black Canyon Highway",
    "city": "Phoenix",
    "state": "AZ",
    "zip_code": "85051",
    "latitude": 33.5694427,
    "longitude": -112.1182098,
    "website": "http://www.ojoslocos.com/",
    "category": "Bar & Restaurant",
    "types": "bar, restaurant, food, point_of_interest, establishment"
  },
  {
    "place_id": "ChIJ4x8pzk9pK4cRzO9kwRWP8uc",
    "name": "Charley's Place",
    "street_address": "4324 West Thunderbird Road",
    "city": "Glendale",
    "state": "AZ",
    "zip_code": "85306",
    "latitude": 33.6115702,
    "longitude": -112.1534724,
    "website": null,
    "category": "Bar & Restaurant",
    "types": "night_club, bar, restaurant, food, point_of_interest, establishment"
  },
  {
    "place_id": "ChIJlRdEAVJpK4cRi_fb6KkzvqI",
    "name": "Daddy-O's Grill",
    "street_address": "4163 West Thunderbird Road",
    "city": "Phoenix",
    "state": "AZ",
    "zip_code": "85029",
    "latitude": 33.60943189999999,
    "longitude": -112.148098,
    "website": "https://daddyosgrill.shop/",
    "category": "Bar & Restaurant",
    "types": "night_club, bar, restaurant, food, point_of_interest, establishment"
  },
  {
    "place_id": "ChIJAU4J2UFsK4cRqE-NYtRiibA",
    "name": "Buffalo Wild Wings",
    "street_address": "2700 West North Lane",
    "city": "Phoenix",
    "state": "AZ",
    "zip_code": "85051",
    "latitude": 33.58057469999999,
    "longitude": -112.1180393,
    "website": "https://www.buffalowildwings.com/locations/us/az/phoenix/2700-w-north-ln/sports-bar-844?utm_source=google%20my%20business&utm_medium=organic&utm_campaign=website%20link",
    "category": "Bar & Restaurant",
    "types": "meal_takeaway, bar, restaurant, food, point_of_interest, establishment"
  },
  {
    "place_id": "ChIJoypvPGBpK4cR23jF14NaUgk",
    "name": "Jimbo\u2019s Sports Bar & Grill",
    "street_address": "12224 North 51st Avenue",
    "city": "Glendale",
    "state": "AZ",
    "zip_code": "85304",
    "latitude": 33.5970198,
    "longitude": -112.1694173,
    "website": "http://www.jimbosaz.com/",
    "category": "Bar & Restaurant",
    "types": "meal_takeaway, meal_delivery, bar, restaurant, food, point_of_interest, establishment"
  },
  {
    "place_id": "ChIJS_vxbBhsK4cRVSiqaJupxPw",
    "name": "Stackers Restaurant",
    "street_address": "2855 West Cactus Road",
    "city": "Phoenix",
    "state": "AZ",
    "zip_code": "85029",
    "latitude": 33.5956819,
    "longitude": -112.1207788,
    "website": "https://stackersphx.com/",
    "category": "Bar & Restaurant",
    "types": "bar, restaurant, food, point_of_interest, establishment"
  },
  {
    "place_id": "ChIJpX5ZE0JsK4cR2FlZ2I5VRZg",
    "name": "LongHorn Steakhouse",
    "street_address": "10047 North Metro Parkway East",
    "city": "Phoenix",
    "state": "AZ",
    "zip_code": "85051",
    "latitude": 33.57808,
    "longitude": -112.11808,
    "website": "https://www.longhornsteakhouse.com/locations/az/phoenix/phoenix-metro-center/5513?cmpid=br:lh_ag:ie_ch:loc_ca:LHGMB_sn:gmb_gt:phoenix-az-5513_pl:locurl_rd:1447",
    "category": "Bar & Restaurant",
    "types": "meal_takeaway, bar, restaurant, food, point_of_interest, establishment"
  },
  {
    "place_id": "ChIJ424Ni3VrK4cRp-bRFan-Nh8",
    "name": "The 44 Sports Grill & Nightlife",
    "street_address": "4494 West Peoria Avenue",
    "city": "Glendale",
    "state": "AZ",
    "zip_code": "85302",
    "latitude": 33.5829806,
    "longitude": -112.1548388,
    "website": "http://the44sportsgrillandnightlife.com/",
    "category": "Bar & Restaurant",
    "types": "night_club, bar, restaurant, food, point_of_interest, establishment"
  },
  {
    "place_id": "ChIJ47KZQ0BtK4cR4FCkEm_UihI",
    "name": "il Asilo Restaurant & Bar",
    "street_address": "13470 North 7th Street",
    "city": "Phoenix",
    "state": "AZ",
    "zip_code": "85022",
    "latitude": 33.6094326,
    "longitude": -112.066902,
    "website": "http://www.ilasilo.com/",
    "category": "Bar & Restaurant",
    "types": "bar, restaurant, food, point_of_interest, establishment"
  },
  {
    "place_id": "ChIJM95s5lMMK4cRhT-WYSHQvRA",
    "name": "The Porch",
    "street_address": "4017 East Indian School Road",
    "city": "Phoenix",
    "state": "AZ",
    "zip_code": "85018",
    "latitude": 33.4947838,
    "longitude": -111.9946483,
    "website": "http://www.porchrestaurants.com/",
    "category": "Bar & Restaurant",
    "types": "restaurant, bar, night_club, food, point_of_interest, establishment"
  },
  {
    "place_id": "ChIJr4WtjjoMK4cRDYk2Z7VlRjQ",
    "name": "The Dirty Drummer",
    "street_address": "2303 North 44th Street",
    "city": "Phoenix",
    "state": "AZ",
    "zip_code": "85008",
    "latitude": 33.4737488,
    "longitude": -111.9862138,
    "website": "https://thedirtydrummer.com/",
    "category": "Bar & Restaurant",
    "types": "bar, restaurant, food, point_of_interest, establishment"
  },
  {
    "place_id": "ChIJkxpMR28NK4cRg84ZJeCWJ-U",
    "name": "The Gladly",
    "street_address": "2201 East Camelback Road",
    "city": "Phoenix",
    "state": "AZ",
    "zip_code": "85016",
    "latitude": 33.5090973,
    "longitude": -112.0339058,
    "website": "http://www.thegladly.com/",
    "category": "Bar & Restaurant",
    "types": "bar, restaurant, food, point_of_interest, establishment"
  },
  {
    "place_id": "ChIJ2QJTMrUNK4cR6VV-n37hnV4",
    "name": "Ole Brass Rail",
    "street_address": "3738 East Thomas Road",
    "city": "Phoenix",
    "state": "AZ",
    "zip_code": "85018",
    "latitude": 33.4808149,
    "longitude": -112.000155,
    "website": "http://www.olebrassrail.com/",
    "category": "Bar & Restaurant",
    "types": "bar, restaurant, food, point_of_interest, establishment"
  },
  {
    "place_id": "ChIJAZMB6lMMK4cRj23OzJOusW4",
    "name": "The Vig",
    "street_address": "4041 North 40th Street",
    "city": "Phoenix",
    "state": "AZ",
    "zip_code": "85018",
    "latitude": 33.4944067,
    "longitude": -111.9950064,
    "website": "https://www.thevig.us/arcadia",
    "category": "Bar & Restaurant",
    "types": "restaurant, bar, food, point_of_interest, establishment"
  },
  {
    "place_id": "ChIJawGHJfEMK4cRyNHA2-dfoPw",
    "name": "The Henry",
    "street_address": "4455 East Camelback Road",
    "city": "Phoenix",
    "state": "AZ",
    "zip_code": "85018",
    "latitude": 33.50883630000001,
    "longitude": -111.9841332,
    "website": "https://www.thehenryrestaurant.com/locations/the-henry-phoenix/?utm_source=Google&utm_medium=Organic&utm_campaign=Maps",
    "category": "Bar & Restaurant",
    "types": "cafe, bar, restaurant, food, point_of_interest, store, establishment"
  },
  {
    "place_id": "ChIJubSbgZkSK4cRhFmA79yp-cQ",
    "name": "Original Gravity",
    "street_address": "4700 North 12th Street",
    "city": "Phoenix",
    "state": "AZ",
    "zip_code": "85014",
    "latitude": 33.5058478,
    "longitude": -112.0567571,
    "website": "http://www.ogphx.com/",
    "category": "Bar & Restaurant",
    "types": "restaurant, bar, food, point_of_interest, establishment"
  },
  {
    "place_id": "ChIJPepqjfAMK4cRkWO6eImQatI",
    "name": "Wally's American Pub N Grill",
    "street_address": "5029 North 44th Street",
    "city": "Phoenix",
    "state": "AZ",
    "zip_code": "85018",
    "latitude": 33.5107361,
    "longitude": -111.9862028,
    "website": "http://www.wallyspub.com/",
    "category": "Bar & Restaurant",
    "types": "bar, restaurant, food, point_of_interest, establishment"
  },
  {
    "place_id": "ChIJ2elfh50SK4cRH91xJeP_XEc",
    "name": "The Casual Pint of Central Phoenix",
    "street_address": "4626 North 16th Street",
    "city": "Phoenix",
    "state": "AZ",
    "zip_code": "85016",
    "latitude": 33.5051612,
    "longitude": -112.0477828,
    "website": "https://centralphoenix.thecasualpint.com/",
    "category": "Bar & Restaurant",
    "types": "bar, restaurant, point_of_interest, food, establishment"
  },
  {
    "place_id": "ChIJlxbe27kNK4cR2M87xkqJtoE",
    "name": "Hideaway Lounge",
    "street_address": "3215 East Thomas Road",
    "city": "Phoenix",
    "state": "AZ",
    "zip_code": "85018",
    "latitude": 33.4801794,
    "longitude": -112.0122717,
    "website": "https://m.facebook.com/diannashideaway",
    "category": "Bar & Restaurant",
    "types": "night_club, bar, restaurant, food, point_of_interest, establishment"
  },
  {
    "place_id": "ChIJjU7qYW8NK4cRSftDaIOIniU",
    "name": "Twin Peaks",
    "street_address": "2135 East Camelback Road",
    "city": "Phoenix",
    "state": "AZ",
    "zip_code": "85016",
    "latitude": 33.5081019,
    "longitude": -112.0358076,
    "website": "https://twinpeaksrestaurant.com/locations/camelback-az",
    "category": "Bar & Restaurant",
    "types": "bar, restaurant, food, point_of_interest, establishment"
  },
  {
    "place_id": "ChIJVXGRjFAMK4cRmqSCx7D-8NE",
    "name": "The Attic Ale House",
    "street_address": "4247 East Indian School Road",
    "city": "Phoenix",
    "state": "AZ",
    "zip_code": "85018",
    "latitude": 33.494646,
    "longitude": -111.9895335,
    "website": "http://www.theatticalehouseaz.com/",
    "category": "Bar & Restaurant",
    "types": "liquor_store, bar, store, restaurant, food, point_of_interest, establishment"
  },
  {
    "place_id": "ChIJJ2Ry5agOK4cRpxL5HnRq5Eg",
    "name": "Lou's Bar & Grill At Papago Golf Course",
    "street_address": "5595 Karsten",
    "city": "Phoenix",
    "state": "AZ",
    "zip_code": "85008",
    "latitude": 33.4611055,
    "longitude": -111.9610527,
    "website": "https://www.lousbarandgrill.com/?utm_source=extnet&utm_medium=yext",
    "category": "Restaurant",
    "types": "restaurant, food, point_of_interest, establishment"
  },
  {
    "place_id": "ChIJpe-z8-oSK4cRaBPyWcht4xU",
    "name": "HULA'S Modern Tiki Uptown",
    "street_address": "5114 North 7th Street",
    "city": "Phoenix",
    "state": "AZ",
    "zip_code": "85014",
    "latitude": 33.51165,
    "longitude": -112.0653177,
    "website": "http://hulasmoderntiki.com/",
    "category": "Bar & Restaurant",
    "types": "bar, restaurant, food, point_of_interest, establishment"
  },
  {
    "place_id": "ChIJa6I4PboSK4cRemaOW8OsRLo",
    "name": "Pomeroy's",
    "street_address": "5555 North 7th Street",
    "city": "Phoenix",
    "state": "AZ",
    "zip_code": "85014",
    "latitude": 33.5185664,
    "longitude": -112.0641463,
    "website": null,
    "category": "Bar & Restaurant",
    "types": "bar, restaurant, point_of_interest, food, establishment"
  },
  {
    "place_id": "ChIJjT5ThuoSK4cReOzuH0Yy2ec",
    "name": "The Greedy Hamster",
    "street_address": "4750 North Central Avenue",
    "city": "Phoenix",
    "state": "AZ",
    "zip_code": "85012",
    "latitude": 33.5071387,
    "longitude": -112.0742811,
    "website": "http://thegreedyhamster.com/",
    "category": "Bar & Restaurant",
    "types": "restaurant, bar, liquor_store, store, food, point_of_interest, establishment"
  },
  {
    "place_id": "ChIJnUkdd8tsK4cRkGuoGnSNGI4",
    "name": "Bullock's Cocktail Lounge",
    "street_address": "2601 West Bethany Home Road",
    "city": "Phoenix",
    "state": "AZ",
    "zip_code": "85017",
    "latitude": 33.5236289,
    "longitude": -112.114304,
    "website": null,
    "category": "Bar & Restaurant",
    "types": "bar, restaurant, point_of_interest, food, establishment"
  },
  {
    "place_id": "ChIJaeXT08ASK4cRkCGpGgzYpu8",
    "name": "Postino Central",
    "street_address": "5144 North Central Avenue",
    "city": "Phoenix",
    "state": "AZ",
    "zip_code": "85012",
    "latitude": 33.5126361,
    "longitude": -112.0740766,
    "website": "https://www.postinowinecafe.com/locations/postino-central",
    "category": "Bar & Restaurant",
    "types": "restaurant, bar, food, point_of_interest, establishment"
  },
  {
    "place_id": "ChIJVVVFaJESK4cRwZQmpfILlZI",
    "name": "McKenzie's Midtown Tavern",
    "street_address": "4531 North 7th Street",
    "city": "Phoenix",
    "state": "AZ",
    "zip_code": "85014",
    "latitude": 33.5027088,
    "longitude": -112.064637,
    "website": "http://www.mckenziesmidtown.com/",
    "category": "Bar & Restaurant",
    "types": "bar, restaurant, food, point_of_interest, establishment"
  },
  {
    "place_id": "ChIJ16W7XD0SK4cRdd0wr9QwKvs",
    "name": "Chambers Bohemian Whiskey Lounge & Kitchen",
    "street_address": "705 North 1st Street",
    "city": "Phoenix",
    "state": "AZ",
    "zip_code": "85004",
    "latitude": 33.455882,
    "longitude": -112.0723841,
    "website": "https://chambersphx.com/",
    "category": "Bar & Restaurant",
    "types": "bar, night_club, restaurant, food, point_of_interest, establishment"
  },
  {
    "place_id": "ChIJN9Mj91cNK4cRRelBUvKkx0w",
    "name": "The Whining Pig Uptown Phoenix",
    "street_address": "1612 East Bethany Home Road",
    "city": "Phoenix",
    "state": "AZ",
    "zip_code": "85016",
    "latitude": 33.5239097,
    "longitude": -112.0467862,
    "website": "https://whiningpigphoenix.com/",
    "category": "Bar & Restaurant",
    "types": "bar, night_club, restaurant, food, point_of_interest, establishment"
  },
  {
    "place_id": "ChIJ32qhd6sNK4cR0wBfX1USVQM",
    "name": "Zipps Sports Grill",
    "street_address": "3647 East Indian School Road",
    "city": "Phoenix",
    "state": "AZ",
    "zip_code": "85018",
    "latitude": 33.494559,
    "longitude": -112.0024746,
    "website": "https://www.zippssportsgrills.com/locations/arcadia/",
    "category": "Bar & Restaurant",
    "types": "restaurant, bar, food, point_of_interest, establishment"
  },
  {
    "place_id": "ChIJoyC5Cb4LK4cRrjcQZHmrcK8",
    "name": "Rockbar Inc.",
    "street_address": "4245 North Craftsman Court",
    "city": "Scottsdale",
    "state": "AZ",
    "zip_code": "85251",
    "latitude": 33.49761829999999,
    "longitude": -111.927546,
    "website": "https://rockbarscottsdale.com/",
    "category": "Bar & Restaurant",
    "types": "bar, restaurant, food, point_of_interest, establishment"
  },
  {
    "place_id": "ChIJ86AodjF1K4cRPed4x1jDm08",
    "name": "Tavern Grille Scottsdale",
    "street_address": "8880 East V\u00eda Linda",
    "city": "Scottsdale",
    "state": "AZ",
    "zip_code": "85258",
    "latitude": 33.5692394,
    "longitude": -111.8902434,
    "website": "http://www.taverngrillescottsdale.com/",
    "category": "Bar & Restaurant",
    "types": "bar, restaurant, food, point_of_interest, establishment"
  },
  {
    "place_id": "ChIJb8Tf7Mh0K4cRycBs8X-a8Yw",
    "name": "Village Tavern",
    "street_address": "8787 North Scottsdale Road",
    "city": "Scottsdale",
    "state": "AZ",
    "zip_code": "85253",
    "latitude": 33.5644344,
    "longitude": -111.9245175,
    "website": "https://www.villagetavern.com/",
    "category": "Restaurant",
    "types": "restaurant, food, point_of_interest, establishment"
  },
  {
    "place_id": "ChIJB7wq1xILK4cRSOKJKHY92Xg",
    "name": "Weft & Warp Art Bar + Kitchen",
    "street_address": "6114 North Scottsdale Road",
    "city": "Scottsdale",
    "state": "AZ",
    "zip_code": "85253",
    "latitude": 33.52842,
    "longitude": -111.9286543,
    "website": "https://www.andazscottsdale.com/dining/weft_and_warp/?src=corp_outlets_gmb_seo_PHXAZR1",
    "category": "Bar & Restaurant",
    "types": "bar, restaurant, food, point_of_interest, establishment"
  },
  {
    "place_id": "ChIJNTDJ69F0K4cRKyvzh7-ZMn4",
    "name": "Wally's American Gastropub",
    "street_address": "7704 East Doubletree Ranch Road",
    "city": "Scottsdale",
    "state": "AZ",
    "zip_code": "85258",
    "latitude": 33.5648304,
    "longitude": -111.9148112,
    "website": "http://www.wallysgastropub.com/",
    "category": "Bar & Restaurant",
    "types": "bar, restaurant, food, point_of_interest, establishment"
  },
  {
    "place_id": "ChIJQTIa0rsLK4cRoe2Hm1MP-Fs",
    "name": "Boondocks Patio & Grill Scottsdale",
    "street_address": "4341 North 75th Street",
    "city": "Scottsdale",
    "state": "AZ",
    "zip_code": "85251",
    "latitude": 33.499719,
    "longitude": -111.9199108,
    "website": "http://patio.boondocksaz.com/",
    "category": "Bar & Restaurant",
    "types": "bar, night_club, restaurant, food, point_of_interest, establishment"
  },
  {
    "place_id": "ChIJWeyoyGYEK4cRoeun1QdK-HA",
    "name": "CK's Tavern & Grill",
    "street_address": "4142 East Chandler Boulevard",
    "city": "Phoenix",
    "state": "AZ",
    "zip_code": "85048",
    "latitude": 33.3056337,
    "longitude": -111.9933472,
    "website": "http://www.ckgrill.com/",
    "category": "Bar & Restaurant",
    "types": "bar, restaurant, food, point_of_interest, establishment"
  },
  {
    "place_id": "ChIJscX5RmAEK4cRs4ZRN7Mr3GE",
    "name": "Bleachers Sports Grill",
    "street_address": "15410 South Mountain Parkway",
    "city": "Phoenix",
    "state": "AZ",
    "zip_code": "85044",
    "latitude": 33.3069442,
    "longitude": -111.9985235,
    "website": "http://www.bleacherssportsgrill.com/",
    "category": "Bar & Restaurant",
    "types": "bar, restaurant, food, point_of_interest, establishment"
  },
  {
    "place_id": "ChIJkbZOWLkFK4cRuwtHa5DIq1A",
    "name": "Cactus Jack's Bar & Grill",
    "street_address": "4747 East Elliot Road",
    "city": "Phoenix",
    "state": "AZ",
    "zip_code": "85044",
    "latitude": 33.3484301,
    "longitude": -111.9834181,
    "website": "http://www.cactusjacksbar.co/",
    "category": "Bar & Restaurant",
    "types": "bar, restaurant, food, point_of_interest, establishment"
  },
  {
    "place_id": "ChIJiWiyZWwEK4cReBkv_DVPKac",
    "name": "Tukee's Sports Grille",
    "street_address": "4804 East Chandler Boulevard",
    "city": "Phoenix",
    "state": "AZ",
    "zip_code": "85048",
    "latitude": 33.30558599999999,
    "longitude": -111.9798295,
    "website": "http://www.tukeessportsgrille.com/",
    "category": "Bar & Restaurant",
    "types": "bar, restaurant, food, point_of_interest, establishment"
  },
  {
    "place_id": "ChIJc_PKTaQFK4cRwegVASbE-g8",
    "name": "Wren S\u00fcdhalle",
    "street_address": "4025 East Chandler Boulevard",
    "city": "Phoenix",
    "state": "AZ",
    "zip_code": "85048",
    "latitude": 33.3031689,
    "longitude": -111.9952394,
    "website": "http://wrenhousebrewing.com/",
    "category": "Bar & Restaurant",
    "types": "bar, restaurant, food, point_of_interest, establishment"
  },
  {
    "place_id": "ChIJe4u3mUwEK4cRn_2WupCGLWg",
    "name": "Zipps Sports Grill",
    "street_address": "4710 East Warner Road",
    "city": "Phoenix",
    "state": "AZ",
    "zip_code": "85044",
    "latitude": 33.3311706,
    "longitude": -111.9827463,
    "website": "https://www.zippssportsgrills.com/locations/ahwatukee/",
    "category": "Bar & Restaurant",
    "types": "restaurant, bar, food, point_of_interest, establishment"
  },
  {
    "place_id": "ChIJT9nNXEsEK4cRW7U-PXWDxuo",
    "name": "Hillside Spot",
    "street_address": "4740 East Warner Road",
    "city": "Phoenix",
    "state": "AZ",
    "zip_code": "85044",
    "latitude": 33.3319207,
    "longitude": -111.9813149,
    "website": "http://www.hillsidespot.com/",
    "category": "Restaurant",
    "types": "cafe, restaurant, food, point_of_interest, establishment"
  },
  {
    "place_id": "ChIJqfIm3zMbK4cRf6rBrU1-ojI",
    "name": "Native Grill & Wings",
    "street_address": "1339 East Chandler Boulevard",
    "city": "Phoenix",
    "state": "AZ",
    "zip_code": "85048",
    "latitude": 33.3041534,
    "longitude": -112.0543319,
    "website": "https://locations.nativegrillandwings.com/ll/US/AZ/Phoenix/1339-East-Chandler-Boulevard",
    "category": "Bar & Restaurant",
    "types": "bar, restaurant, food, point_of_interest, establishment"
  },
  {
    "place_id": "ChIJ_bGVLm8EK4cRsC588iU9WkU",
    "name": "Va Bene Italian Restaurant and Wine Bar",
    "street_address": "4647 East Chandler Boulevard",
    "city": "Phoenix",
    "state": "AZ",
    "zip_code": "85048",
    "latitude": 33.3037414,
    "longitude": -111.9808959,
    "website": "http://www.vabeneaz.com/",
    "category": "Bar & Restaurant",
    "types": "bar, restaurant, food, point_of_interest, establishment"
  },
  {
    "place_id": "ChIJq-dG8nMFK4cRHsM_qlo0z7A",
    "name": "Thai Basil Ahwatukee",
    "street_address": "4221 East Chandler Boulevard",
    "city": "Phoenix",
    "state": "AZ",
    "zip_code": "85048",
    "latitude": 33.30490169999999,
    "longitude": -111.9924447,
    "website": "https://www.orderthaibasilahwatukee.com/",
    "category": "Restaurant",
    "types": "restaurant, point_of_interest, food, establishment"
  },
  {
    "place_id": "ChIJrb9GqBGqK4cRKncHJKvOu4M",
    "name": "Rebel & Rogue",
    "street_address": "11 West Boston Street",
    "city": "Chandler",
    "state": "AZ",
    "zip_code": "85225",
    "latitude": 33.3020519,
    "longitude": -111.8418365,
    "website": "https://www.rebel-n-rogue.com/",
    "category": "Bar & Restaurant",
    "types": "bar, restaurant, food, point_of_interest, establishment"
  },
  {
    "place_id": "ChIJs7w2ofkBK4cRGZ2GMNBCxqc",
    "name": "Thirsty Lion",
    "street_address": "3077 West Frye Road",
    "city": "Chandler",
    "state": "AZ",
    "zip_code": "85226",
    "latitude": 33.29799550000001,
    "longitude": -111.895751,
    "website": "https://www.thirstylionrestaurant.com/",
    "category": "Bar & Restaurant",
    "types": "restaurant, bar, food, point_of_interest, establishment"
  },
  {
    "place_id": "ChIJq6oOOBCqK4cRuI1FxAYQVbU",
    "name": "The Hidden House",
    "street_address": "159 West Commonwealth Avenue",
    "city": "Chandler",
    "state": "AZ",
    "zip_code": "85225",
    "latitude": 33.30314620000001,
    "longitude": -111.8435105,
    "website": "http://hiddenhouseaz.com/",
    "category": "Bar & Restaurant",
    "types": "bar, restaurant, food, point_of_interest, establishment"
  },
  {
    "place_id": "ChIJnyYUCuipK4cRKvilAz-MXsM",
    "name": "Jolie's Place",
    "street_address": "140 West Warner Road",
    "city": "Chandler",
    "state": "AZ",
    "zip_code": "85225",
    "latitude": 33.3355955,
    "longitude": -111.8443291,
    "website": "https://jpchandleraz.com/",
    "category": "Bar & Restaurant",
    "types": "bar, restaurant, food, point_of_interest, establishment"
  },
  {
    "place_id": "ChIJdYsgubMAK4cRtyTbLw8eoYU",
    "name": "The Hungry Monk",
    "street_address": "1760 West Chandler Boulevard",
    "city": "Chandler",
    "state": "AZ",
    "zip_code": "85224",
    "latitude": 33.3066461,
    "longitude": -111.872815,
    "website": "https://www.hungrymonkaz.com/",
    "category": "Bar & Restaurant",
    "types": "restaurant, bar, food, point_of_interest, establishment"
  },
  {
    "place_id": "ChIJ-0HfFHarK4cRAA26jkTZNUc",
    "name": "The Uncommon Chandler",
    "street_address": "1 East Boston Street",
    "city": "Chandler",
    "state": "AZ",
    "zip_code": "85225",
    "latitude": 33.3021495,
    "longitude": -111.8412058,
    "website": "https://www.uncommonchandler.com/?utm_source=google&utm_medium=organic&utm_campaign=gbp&utm_content=the-uncommon",
    "category": "Bar & Restaurant",
    "types": "bar, restaurant, food, point_of_interest, establishment"
  },
  {
    "place_id": "ChIJhRQRVRCqK4cREncFxyB0nJs",
    "name": "Murphy's Law Irish Pub",
    "street_address": "58 South San Marcos Place",
    "city": "Chandler",
    "state": "AZ",
    "zip_code": "85225",
    "latitude": 33.302775,
    "longitude": -111.8423453,
    "website": "http://www.murphyslaw.pub/",
    "category": "Bar & Restaurant",
    "types": "bar, restaurant, food, point_of_interest, establishment"
  },
  {
    "place_id": "ChIJL0GPIHQHK4cRnrWuXRsJlME",
    "name": "Fibber Magees",
    "street_address": "1989 West Elliot Road",
    "city": "Chandler",
    "state": "AZ",
    "zip_code": "85224",
    "latitude": 33.3488789,
    "longitude": -111.8746688,
    "website": "http://fibbermageespub.com/",
    "category": "Bar & Restaurant",
    "types": "bar, restaurant, food, point_of_interest, establishment"
  },
  {
    "place_id": "ChIJQZJefL-rK4cRO5lW14VpEf4",
    "name": "Copper Still Moonshine Grill - Gilbert",
    "street_address": "2531 South Gilbert Road",
    "city": "Gilbert",
    "state": "AZ",
    "zip_code": "85296",
    "latitude": 33.3036491,
    "longitude": -111.7889152,
    "website": "https://copperstillmoonshinegrill.com/",
    "category": "Bar & Restaurant",
    "types": "lodging, bar, night_club, restaurant, food, point_of_interest, establishment"
  },
  {
    "place_id": "ChIJwUuIWfyrK4cR1Dai8EyUcf0",
    "name": "The Stillery",
    "street_address": "130 South Arizona Avenue",
    "city": "Chandler",
    "state": "AZ",
    "zip_code": "85225",
    "latitude": 33.3016187,
    "longitude": -111.8418067,
    "website": "http://www.thestillery.com/chandler",
    "category": "Bar & Restaurant",
    "types": "restaurant, bar, point_of_interest, food, establishment"
  },
  {
    "place_id": "ChIJcSuLL_SrK4cR4C8iWePD3XU",
    "name": "Fat Willy's Williams Field Rd & Gilbert Rd",
    "street_address": "151 East Williams Field Road",
    "city": "Gilbert",
    "state": "AZ",
    "zip_code": "85295",
    "latitude": 33.3049178,
    "longitude": -111.7865184,
    "website": "https://www.fatwillysaz.com/",
    "category": "Bar & Restaurant",
    "types": "bar, restaurant, food, point_of_interest, establishment"
  },
  {
    "place_id": "ChIJOY1fhhGqK4cRG4NGtHaCOSU",
    "name": "The Perch Brewery",
    "street_address": "232 South Wall Street",
    "city": "Chandler",
    "state": "AZ",
    "zip_code": "85225",
    "latitude": 33.30004809999999,
    "longitude": -111.8425078,
    "website": "http://www.perchpubbrewery.com/",
    "category": "Bar & Restaurant",
    "types": "bar, restaurant, food, point_of_interest, establishment"
  },
  {
    "place_id": "ChIJ-VX_rhGqK4cROpYJeSS7gvU",
    "name": "The Brickyard Downtown",
    "street_address": "85 West Boston Street",
    "city": "Chandler",
    "state": "AZ",
    "zip_code": "85225",
    "latitude": 33.3021027,
    "longitude": -111.8425125,
    "website": "http://brickyarddowntown.com/",
    "category": "Bar & Restaurant",
    "types": "bar, restaurant, food, point_of_interest, establishment"
  },
  {
    "place_id": "ChIJMyau4Z-pK4cRMqFO8w8BPo0",
    "name": "Icons Sport Grill",
    "street_address": "1475 West Elliot Road",
    "city": "Gilbert",
    "state": "AZ",
    "zip_code": "85233",
    "latitude": 33.3494062,
    "longitude": -111.8218784,
    "website": "http://catchingflightsbarandgrille.com/",
    "category": "Bar & Restaurant",
    "types": "bar, restaurant, food, point_of_interest, establishment"
  },
  {
    "place_id": "ChIJKRLshK8BK4cRBm0ZHrWQA1g",
    "name": "Brews - A Taphouse and Gourmet Burger Joint",
    "street_address": "2040 South Alma School Road",
    "city": "Chandler",
    "state": "AZ",
    "zip_code": "85286",
    "latitude": 33.274753,
    "longitude": -111.8600125,
    "website": "https://brewsburgerjoint.com/brewsataphouse-southalma?utm_source=google",
    "category": "Bar & Restaurant",
    "types": "bar, restaurant, food, point_of_interest, establishment"
  },
  {
    "place_id": "ChIJBZv-hiirK4cRKL2TpLaxgxg",
    "name": "DTC Sports Grille",
    "street_address": "55 West Chicago Street",
    "city": "Chandler",
    "state": "AZ",
    "zip_code": "85225",
    "latitude": 33.30039780000001,
    "longitude": -111.8422563,
    "website": "https://www.dtcsportsgrille.com/",
    "category": "Restaurant",
    "types": "restaurant, food, point_of_interest, establishment"
  },
  {
    "place_id": "ChIJzTK1VLkBK4cRf7W-RqaPNzE",
    "name": "The Parlay Kitchen + Cocktails",
    "street_address": "1245 South Price Road",
    "city": "Chandler",
    "state": "AZ",
    "zip_code": "85286",
    "latitude": 33.28769,
    "longitude": -111.890532,
    "website": "https://theparlayaz.com/",
    "category": "Bar & Restaurant",
    "types": "bar, restaurant, food, point_of_interest, establishment"
  },
  {
    "place_id": "ChIJ_dCPnnkAK4cR0Su84Tu6WAY",
    "name": "The Casual Pint of Ocotillo",
    "street_address": "1095 West Queen Creek Road",
    "city": "Chandler",
    "state": "AZ",
    "zip_code": "85248",
    "latitude": 33.2614972,
    "longitude": -111.8616923,
    "website": "https://ocotillo.thecasualpint.com/",
    "category": "Bar & Restaurant",
    "types": "bar, restaurant, food, point_of_interest, establishment"
  },
  {
    "place_id": "ChIJOw_wqHWrK4cRsUNPpmcT350",
    "name": "Pedal Haus Brewery",
    "street_address": "95 West Boston Street",
    "city": "Chandler",
    "state": "AZ",
    "zip_code": "85225",
    "latitude": 33.3021622,
    "longitude": -111.8425867,
    "website": "https://pedalhausbrewery.com/chandler-location",
    "category": "Bar & Restaurant",
    "types": "restaurant, bar, point_of_interest, food, establishment"
  },
  {
    "place_id": "ChIJQ06qJQwJK4cRzCulZCUNjNY",
    "name": "Copper State Taphouse",
    "street_address": "1033 North Dobson Road",
    "city": "Mesa",
    "state": "AZ",
    "zip_code": "85201",
    "latitude": 33.4351446,
    "longitude": -111.865033,
    "website": "https://www.copperstatetaphouse.com/",
    "category": "Bar & Restaurant",
    "types": "liquor_store, bar, restaurant, food, point_of_interest, store, establishment"
  },
  {
    "place_id": "ChIJLatcvrKnK4cRRogN2-L8Rqg",
    "name": "12 West Brewing - Downtown Mesa",
    "street_address": "12 West Main Street",
    "city": "Mesa",
    "state": "AZ",
    "zip_code": "85201",
    "latitude": 33.4155113,
    "longitude": -111.8321003,
    "website": "http://12westbrewing.com/mesa/",
    "category": "Bar & Restaurant",
    "types": "bar, restaurant, food, point_of_interest, establishment"
  },
  {
    "place_id": "ChIJTzLvHE2pK4cRHbzLbsuasPM",
    "name": "The Draft Sports Grill",
    "street_address": "542 West Baseline Road",
    "city": "Mesa",
    "state": "AZ",
    "zip_code": "85210",
    "latitude": 33.3793613,
    "longitude": -111.8428316,
    "website": "https://www.draftgrill.com/",
    "category": "Bar & Restaurant",
    "types": "bar, restaurant, point_of_interest, food, establishment"
  },
  {
    "place_id": "ChIJTVk32vWoK4cRAyV3h9fmbG0",
    "name": "The Hub Grill and Bar",
    "street_address": "1860 South Stapley Drive",
    "city": "Mesa",
    "state": "AZ",
    "zip_code": "85204",
    "latitude": 33.38160859999999,
    "longitude": -111.8070677,
    "website": "http://www.hubgrill.com/",
    "category": "Bar & Restaurant",
    "types": "bar, restaurant, food, point_of_interest, establishment"
  },
  {
    "place_id": "ChIJ034g0QOoK4cROAM-f7PBxOY",
    "name": "Boulders on Southern",
    "street_address": "1010 West Southern Avenue",
    "city": "Mesa",
    "state": "AZ",
    "zip_code": "85210",
    "latitude": 33.3935656,
    "longitude": -111.8535051,
    "website": "http://www.bouldersonsouthern.com/",
    "category": "Bar & Restaurant",
    "types": "bar, restaurant, food, point_of_interest, establishment"
  },
  {
    "place_id": "ChIJQa0X4vSnK4cRkW0eNbDpT_w",
    "name": "Blue 32 Sports Grill",
    "street_address": "2028 North Gilbert Road",
    "city": "Mesa",
    "state": "AZ",
    "zip_code": "85203",
    "latitude": 33.45244390000001,
    "longitude": -111.7894855,
    "website": "https://www.blue32sportsgrill.com/",
    "category": "Restaurant",
    "types": "restaurant, food, point_of_interest, establishment"
  },
  {
    "place_id": "ChIJwZ-4eAAHK4cRq1cXu-f9Zbo",
    "name": "Starfire Restaurant and Rooftop Brewery",
    "street_address": "2645 East Southern Avenue",
    "city": "Tempe",
    "state": "AZ",
    "zip_code": "85282",
    "latitude": 33.39257439999999,
    "longitude": -111.8815291,
    "website": "https://www.friendshipvillageaz.com/dining/",
    "category": "Restaurant",
    "types": "restaurant, point_of_interest, food, establishment"
  },
  {
    "place_id": "ChIJ88g9BPinK4cRKpgoOHlRmto",
    "name": "Kay's Place",
    "street_address": "315 South Alma School Road",
    "city": "Mesa",
    "state": "AZ",
    "zip_code": "85210",
    "latitude": 33.4090609,
    "longitude": -111.8563682,
    "website": "http://www.divebarmesa.com/",
    "category": "Bar & Restaurant",
    "types": "bar, restaurant, food, point_of_interest, establishment"
  },
  {
    "place_id": "ChIJQTF6kJOnK4cRGcXSKQ3Iago",
    "name": "Gabby\u2019s Sports Bar and Grill",
    "street_address": "635 North Country Club Drive",
    "city": "Mesa",
    "state": "AZ",
    "zip_code": "85201",
    "latitude": 33.42681880000001,
    "longitude": -111.8395156,
    "website": "http://www.gabbysbar.com/",
    "category": "Bar & Restaurant",
    "types": "bar, restaurant, food, point_of_interest, establishment"
  },
  {
    "place_id": "ChIJcbwXAg-oK4cRdlN8XYU-BrA",
    "name": "September's Bar & Grill",
    "street_address": "500 West Southern Avenue",
    "city": "Mesa",
    "state": "AZ",
    "zip_code": "85210",
    "latitude": 33.3940877,
    "longitude": -111.842154,
    "website": "https://septembersbarmesa.com/",
    "category": "Bar & Restaurant",
    "types": "bar, night_club, restaurant, food, point_of_interest, establishment"
  },
  {
    "place_id": "ChIJ4Up-2GYHK4cRMpAEmxkLbLM",
    "name": "Ojos Locos Sports Cantina - Mesa",
    "street_address": "1656 South Alma School Road",
    "city": "Mesa",
    "state": "AZ",
    "zip_code": "85210",
    "latitude": 33.3847516,
    "longitude": -111.8578368,
    "website": "http://www.ojoslocos.com/",
    "category": "Bar & Restaurant",
    "types": "restaurant, bar, food, point_of_interest, establishment"
  },
  {
    "place_id": "ChIJTyTXd8MHK4cRwGMFHXgcxmQ",
    "name": "Whiskey Wednesdays Bar & Grill",
    "street_address": "1457 West Southern Avenue",
    "city": "Mesa",
    "state": "AZ",
    "zip_code": "85202",
    "latitude": 33.392628,
    "longitude": -111.8619613,
    "website": "https://www.whiskeywednesdaysaz.com/",
    "category": "Bar & Restaurant",
    "types": "bar, restaurant, food, point_of_interest, establishment"
  },
  {
    "place_id": "ChIJy6mTNNRrK4cRS96K3CFyI7U",
    "name": "Trevizo's Tavern",
    "street_address": "5304 North 59th Avenue",
    "city": "Glendale",
    "state": "AZ",
    "zip_code": "85301",
    "latitude": 33.5144329,
    "longitude": -112.1867284,
    "website": null,
    "category": "Bar & Restaurant",
    "types": "night_club, bar, restaurant, food, point_of_interest, establishment"
  },
  {
    "place_id": "ChIJf4gCCv9BK4cRDaKOBX0D7ts",
    "name": "Coop's Bar & Grill",
    "street_address": "8455 West Peoria Avenue",
    "city": "Peoria",
    "state": "AZ",
    "zip_code": "85345",
    "latitude": 33.5811247,
    "longitude": -112.2414307,
    "website": "https://www.facebook.com/CoopsBarandGrill/",
    "category": "Bar & Restaurant",
    "types": "bar, restaurant, point_of_interest, food, establishment"
  },
  {
    "place_id": "ChIJEf9LUb8UK4cR5Ss9zbaA5w8",
    "name": "Purple Turtle Sports Bar & Night Club",
    "street_address": "4105 North 51st Avenue",
    "city": "Phoenix",
    "state": "AZ",
    "zip_code": "85031",
    "latitude": 33.4952996,
    "longitude": -112.1661368,
    "website": "http://purpleturtleaz.com/",
    "category": "Bar & Restaurant",
    "types": "night_club, bar, restaurant, food, point_of_interest, establishment"
  },
  {
    "place_id": "ChIJUY5-1YFqK4cReq6EakfRIyg",
    "name": "Ella's",
    "street_address": "8302 West Glendale Avenue",
    "city": "Glendale",
    "state": "AZ",
    "zip_code": "85303",
    "latitude": 33.5380327,
    "longitude": -112.2384292,
    "website": null,
    "category": "Bar & Restaurant",
    "types": "bar, restaurant, food, point_of_interest, establishment"
  },
  {
    "place_id": "ChIJjff6XpxBK4cRiqYwy-sMXEI",
    "name": "The Vig",
    "street_address": "9824 West Northern Avenue",
    "city": "Peoria",
    "state": "AZ",
    "zip_code": "85345",
    "latitude": 33.5521922,
    "longitude": -112.2706876,
    "website": "https://www.thevig.us/park-west",
    "category": "Bar & Restaurant",
    "types": "restaurant, bar, food, point_of_interest, establishment"
  },
  {
    "place_id": "ChIJf6Rjfy9rK4cRhcYXAoVfmEM",
    "name": "GameTime Bar and Grill",
    "street_address": "6750 West Olive Avenue",
    "city": "Peoria",
    "state": "AZ",
    "zip_code": "85345",
    "latitude": 33.568001,
    "longitude": -112.2048702,
    "website": "https://facebook.com/gametimepeoria",
    "category": "Bar & Restaurant",
    "types": "bar, restaurant, food, point_of_interest, establishment"
  },
  {
    "place_id": "ChIJj7cILwBpK4cRTtc5AWhA6oU",
    "name": "The Nest North Sports Grill",
    "street_address": "5843 West Thunderbird Road",
    "city": "Glendale",
    "state": "AZ",
    "zip_code": "85306",
    "latitude": 33.60949309999999,
    "longitude": -112.1851341,
    "website": "https://l.facebook.com/l.php?u=http%3A%2F%2Fthenestnorth.com%2F%3Ffbclid%3DIwZXh0bgNhZW0CMTAAAR1YW0QRt0vkSTVMN_YcYMYTOyK-BnGcmQ8oshAt_o4uKV_eTjEbkJ8yJ5A_aem_0GveVjS2FAb7Q6zEj9Ov6Q&h=AT0nZzqGSfw5js3wBDA2Ovp8bDfpRLBxNhJkmbGBzXQuIl4EkBvLrM-thURfJG4SCL6LDJZbg6hqEDLyc68inRFZ7xgQNLMaJwr9bnTHyV3k94WmTPkb4mFTY36ffzE7vB4KIw",
    "category": "Bar & Restaurant",
    "types": "bar, restaurant, food, point_of_interest, establishment"
  },
  {
    "place_id": "ChIJf_sVOAZpK4cRTdh5bjSQDUY",
    "name": "Kimmyz On Greenway Rock & Roll Bar & Grill",
    "street_address": "5930 West Greenway Road",
    "city": "Glendale",
    "state": "AZ",
    "zip_code": "85306",
    "latitude": 33.6258354,
    "longitude": -112.1875672,
    "website": "http://www.kimmyzongreenway.com/",
    "category": "Bar & Restaurant",
    "types": "bar, restaurant, food, point_of_interest, establishment"
  },
  {
    "place_id": "ChIJQ5h2IltDK4cRiAvXf7HetIM",
    "name": "J&T's Copper Penny Tavern",
    "street_address": "10765 West Peoria Avenue",
    "city": "Sun City",
    "state": "AZ",
    "zip_code": "85351",
    "latitude": 33.5793304,
    "longitude": -112.2914962,
    "website": "http://www.jtscopperpenny.com/",
    "category": "Bar & Restaurant",
    "types": "bar, restaurant, food, point_of_interest, establishment"
  },
  {
    "place_id": "ChIJaeEOvf5BK4cRwvlC8JvfLQM",
    "name": "Twin Peaks",
    "street_address": "6922 North 95th Avenue",
    "city": "Glendale",
    "state": "AZ",
    "zip_code": "85305",
    "latitude": 33.5359698,
    "longitude": -112.2648774,
    "website": "https://twinpeaksrestaurant.com/locations/glendale-az",
    "category": "Bar & Restaurant",
    "types": "bar, restaurant, food, point_of_interest, establishment"
  },
  {
    "place_id": "ChIJtwZMDrxBK4cRIJOZsSlNXio",
    "name": "BJ's Restaurant & Brewhouse",
    "street_address": "9748 West Northern Avenue",
    "city": "Peoria",
    "state": "AZ",
    "zip_code": "85345",
    "latitude": 33.55204850000001,
    "longitude": -112.2692487,
    "website": "https://www.bjsrestaurants.com/locations/az/peoria",
    "category": "Bar & Restaurant",
    "types": "restaurant, bar, food, point_of_interest, establishment"
  },
  {
    "place_id": "ChIJdW2bezVAK4cRBrpDPy35lQs",
    "name": "Yard House",
    "street_address": "9401 West Westgate Boulevard",
    "city": "Glendale",
    "state": "AZ",
    "zip_code": "85305",
    "latitude": 33.5340858,
    "longitude": -112.2612644,
    "website": "https://www.yardhouse.com/locations/az/glendale/glendale-westgate-entertainment-district/8315?cmpid=br:yh_ag:ie_ch:loc_ca:YHGMB_sn:gmb_gt:glendale-az-8315_pl:locurl_rd:1014",
    "category": "Bar & Restaurant",
    "types": "bar, meal_takeaway, restaurant, food, point_of_interest, establishment"
  },
  {
    "place_id": "ChIJzSkyXMdDK4cRdId7veSs6BU",
    "name": "Haymaker Thunderbird",
    "street_address": "8706 West Thunderbird Road",
    "city": "Peoria",
    "state": "AZ",
    "zip_code": "85381",
    "latitude": 33.61028809999999,
    "longitude": -112.2464587,
    "website": "http://haymakeraz.com/",
    "category": "Bar & Restaurant",
    "types": "restaurant, bar, food, point_of_interest, establishment"
  },
  {
    "place_id": "ChIJP-zYVoxBK4cR2L1UZngg9cA",
    "name": "Cold Beers & Cheeseburgers",
    "street_address": "9828 West Northern Avenue",
    "city": "Peoria",
    "state": "AZ",
    "zip_code": "85345",
    "latitude": 33.5538985,
    "longitude": -112.2706953,
    "website": "https://www.coldbeers.com/?utm_source=google&utm_medium=organic&utm_campaign=gmb",
    "category": "Bar & Restaurant",
    "types": "bar, restaurant, food, point_of_interest, establishment"
  },
  {
    "place_id": "ChIJNVHkSQhCK4cRav4zIXAusR4",
    "name": "Barro's Pizza",
    "street_address": "8390 West Cactus Road",
    "city": "Peoria",
    "state": "AZ",
    "zip_code": "85381",
    "latitude": 33.5958858,
    "longitude": -112.2398946,
    "website": "https://barrospizza.com/",
    "category": "Restaurant",
    "types": "meal_delivery, restaurant, food, point_of_interest, establishment"
  },
  {
    "place_id": "ChIJ3WIubzVAK4cRQRR88AJEhhI",
    "name": "Bar Louie - Westgate Entertainment District",
    "street_address": "6770 North Sunrise Boulevard",
    "city": "Glendale",
    "state": "AZ",
    "zip_code": "85305",
    "latitude": 33.5335803,
    "longitude": -112.2608731,
    "website": "https://www.barlouie.com/locations/us/az/glendale/westgate-entertainment-district?utm_source=google&utm_medium=gmb&utm_campaign=listings",
    "category": "Bar & Restaurant",
    "types": "night_club, bar, restaurant, food, point_of_interest, establishment"
  },
  {
    "place_id": "ChIJE0w8nYlBK4cRhxtS8jEONEU",
    "name": "The Lola - Cocktail Lab & Eatery",
    "street_address": "6770 North Sunrise Boulevard",
    "city": "Glendale",
    "state": "AZ",
    "zip_code": "85305",
    "latitude": 33.53350549999999,
    "longitude": -112.2606501,
    "website": "https://www.lolacocktaillabandeatery.com/",
    "category": "Bar & Restaurant",
    "types": "bar, restaurant, food, point_of_interest, establishment"
  },
  {
    "place_id": "ChIJV9ifT8JpK4cRBXwR5mVucfc",
    "name": "Ballpark Pizza & Subs",
    "street_address": "7615 West Thunderbird Road",
    "city": "Peoria",
    "state": "AZ",
    "zip_code": "85381",
    "latitude": 33.60960379999999,
    "longitude": -112.2226409,
    "website": "https://ballparkpizzaandsubs.com/?utm_source=google",
    "category": "Restaurant",
    "types": "restaurant, food, point_of_interest, establishment"
  },
  {
    "place_id": "ChIJh4nSFPhpK4cRfr5RDMq0VIw",
    "name": "Burgers & Brews Glendale",
    "street_address": "6670 West Cactus Road",
    "city": "Glendale",
    "state": "AZ",
    "zip_code": "85304",
    "latitude": 33.5975075,
    "longitude": -112.2019787,
    "website": "http://www.burgersbrewsaz.com/",
    "category": "Restaurant",
    "types": "restaurant, food, point_of_interest, establishment"
  },
  {
    "place_id": "ChIJN41KTIpBK4cR2AWc_1jO4v0",
    "name": "State 48 Funk House Brewery",
    "street_address": "6770 North Sunrise Boulevard",
    "city": "Glendale",
    "state": "AZ",
    "zip_code": "85305",
    "latitude": 33.5341406,
    "longitude": -112.2607798,
    "website": "http://www.state48brewery.com/",
    "category": "Bar & Restaurant",
    "types": "restaurant, bar, food, point_of_interest, establishment"
  },
  {
    "place_id": "ChIJ5WVnKXmpK4cRZ38t1W0ddU0",
    "name": "The Porch",
    "street_address": "312 North Gilbert Road",
    "city": "Gilbert",
    "state": "AZ",
    "zip_code": "85234",
    "latitude": 33.3556016,
    "longitude": -111.7900496,
    "website": "https://www.porchrestaurants.com/porch-gilbert/",
    "category": "Bar & Restaurant",
    "types": "bar, restaurant, point_of_interest, food, establishment"
  },
  {
    "place_id": "ChIJN_MAl2usK4cRX51aRz53xWg",
    "name": "Thirsty Lion",
    "street_address": "2212 East Williams Field Road",
    "city": "Gilbert",
    "state": "AZ",
    "zip_code": "85297",
    "latitude": 33.3094626,
    "longitude": -111.7422385,
    "website": "https://www.thirstylionrestaurant.com/",
    "category": "Bar & Restaurant",
    "types": "restaurant, bar, point_of_interest, food, establishment"
  },
  {
    "place_id": "ChIJj2pEmkCoK4cRkMctMCN67lw",
    "name": "Mesquite Grill and Sports Bar",
    "street_address": "75 West Baseline Road",
    "city": "Gilbert",
    "state": "AZ",
    "zip_code": "85233",
    "latitude": 33.3783697,
    "longitude": -111.8331546,
    "website": "https://www.facebook.com/MesquiteRestaurantAndSportsBar",
    "category": "Bar & Restaurant",
    "types": "bar, restaurant, point_of_interest, food, establishment"
  },
  {
    "place_id": "ChIJUwlnejWvK4cRUSjjTf_QQRk",
    "name": "Time Out Sports Bar & Grill",
    "street_address": "1762 South Greenfield Road",
    "city": "Mesa",
    "state": "AZ",
    "zip_code": "85206",
    "latitude": 33.3834687,
    "longitude": -111.7432203,
    "website": "https://www.sportsbarmesa.com/",
    "category": "Bar & Restaurant",
    "types": "bar, restaurant, food, point_of_interest, establishment"
  },
  {
    "place_id": "ChIJyZ9vVpatK4cRL3zWbLTMQDk",
    "name": "Smoke & Grain",
    "street_address": "1695 South Santan Village Parkway",
    "city": "Gilbert",
    "state": "AZ",
    "zip_code": "85295",
    "latitude": 33.3191742,
    "longitude": -111.7400725,
    "website": "https://continentalgilbert.com/wicks-bar-and-grill/",
    "category": "Bar & Restaurant",
    "types": "bar, restaurant, food, point_of_interest, establishment"
  },
  {
    "place_id": "ChIJW0r7k6SpK4cRB6KD9dRCG9E",
    "name": "Icons Sports Grill",
    "street_address": "1475 West Elliot Road",
    "city": "Gilbert",
    "state": "AZ",
    "zip_code": "85233",
    "latitude": 33.3494278,
    "longitude": -111.8218939,
    "website": "http://www.iconsaz.com/",
    "category": "Bar & Restaurant",
    "types": "bar, restaurant, food, point_of_interest, establishment"
  },
  {
    "place_id": "ChIJzXsoaRepK4cRdF2q3bGaVz4",
    "name": "Culinary Dropout",
    "street_address": "383 North Gilbert Road",
    "city": "Gilbert",
    "state": "AZ",
    "zip_code": "85234",
    "latitude": 33.3569418,
    "longitude": -111.7891835,
    "website": "https://www.culinarydropout.com/locations/gilbert-az/?utm_source=Google&utm_medium=Organic&utm_campaign=Maps",
    "category": "Bar & Restaurant",
    "types": "bar, restaurant, point_of_interest, food, store, establishment"
  },
  {
    "place_id": "ChIJMbkdnH-vK4cRkiv33IVSzpw",
    "name": "Uncle Bear's Grill & Tap - Greenfield",
    "street_address": "1110 South Greenfield Road",
    "city": "Mesa",
    "state": "AZ",
    "zip_code": "85206",
    "latitude": 33.395641,
    "longitude": -111.7372917,
    "website": "http://www.unclebearsaz.com/",
    "category": "Bar & Restaurant",
    "types": "bar, restaurant, food, point_of_interest, establishment"
  },
  {
    "place_id": "ChIJuXYFhVSpK4cRTbW-nPKxmC8",
    "name": "Mulligan's Grill",
    "street_address": "1245 East Warner Road",
    "city": "Gilbert",
    "state": "AZ",
    "zip_code": "85296",
    "latitude": 33.3347918,
    "longitude": -111.7624378,
    "website": "http://www.westernskiesgolf.com/mulligans/",
    "category": "Bar & Restaurant",
    "types": "bar, restaurant, food, point_of_interest, establishment"
  },
  {
    "place_id": "ChIJXQod_hisK4cR3DkM-Yk8xfE",
    "name": "Park Tavern and Market",
    "street_address": "2305 East Knox Road",
    "city": "Gilbert",
    "state": "AZ",
    "zip_code": "85296",
    "latitude": 33.3271842,
    "longitude": -111.7408076,
    "website": "http://parktavernandmarket.com/",
    "category": "Bar & Restaurant",
    "types": "bar, cafe, restaurant, food, point_of_interest, establishment"
  },
  {
    "place_id": "ChIJyfo2we-tK4cR3It0gBqBULs",
    "name": "State 48 Tap House",
    "street_address": "2218 East Williams Field Road",
    "city": "Gilbert",
    "state": "AZ",
    "zip_code": "85296",
    "latitude": 33.3088474,
    "longitude": -111.7423142,
    "website": "http://state48brewery.com/",
    "category": "Bar & Restaurant",
    "types": "bar, restaurant, food, point_of_interest, establishment"
  },
  {
    "place_id": "ChIJobHaFhepK4cRyTYku73Nm9c",
    "name": "Dierks Bentley's Whiskey Row Gilbert",
    "street_address": "323 North Gilbert Road",
    "city": "Gilbert",
    "state": "AZ",
    "zip_code": "85234",
    "latitude": 33.35582350000001,
    "longitude": -111.7893133,
    "website": "http://dierkswhiskeyrow.com/gilbert-az/",
    "category": "Bar & Restaurant",
    "types": "restaurant, night_club, bar, food, point_of_interest, establishment"
  },
  {
    "place_id": "ChIJf6z1W3SsK4cR6H1hG0LCmTE",
    "name": "Blue 32 Sports Grill",
    "street_address": "1524 East Williams Field Road",
    "city": "Gilbert",
    "state": "AZ",
    "zip_code": "85295",
    "latitude": 33.3072305,
    "longitude": -111.7573624,
    "website": "https://www.blue32sportsgrill.com/",
    "category": "Bar & Restaurant",
    "types": "bar, restaurant, food, point_of_interest, establishment"
  },
  {
    "place_id": "ChIJpXMdN8yZK4cRRg023ryFqkY",
    "name": "Parkview Tap House",
    "street_address": "16828 East Parkview Avenue",
    "city": "Fountain Hills",
    "state": "AZ",
    "zip_code": "85268",
    "latitude": 33.6060096,
    "longitude": -111.7164455,
    "website": null,
    "category": "Bar & Restaurant",
    "types": "bar, restaurant, food, point_of_interest, establishment"
  },
  {
    "place_id": "ChIJizKLPbSYK4cRYLf4rfTm8Z8",
    "name": "Wicked 6 Bar & Grill",
    "street_address": "13100 Sunridge Drive",
    "city": "Fountain Hills",
    "state": "AZ",
    "zip_code": "85268",
    "latitude": 33.605139,
    "longitude": -111.756504,
    "website": "http://www.sunridgegolf.com/",
    "category": "Bar & Restaurant",
    "types": "bar, restaurant, food, point_of_interest, establishment"
  },
  {
    "place_id": "ChIJgx5spIeYK4cR2VV7zd7BIaE",
    "name": "All American Sports Grill",
    "street_address": "16872 East Avenue of the Fountains",
    "city": "Fountain Hills",
    "state": "AZ",
    "zip_code": "85268",
    "latitude": 33.6037063,
    "longitude": -111.7155201,
    "website": "http://www.allamericansportsgrill-az.com/",
    "category": "Bar & Restaurant",
    "types": "bar, restaurant, food, point_of_interest, establishment"
  },
  {
    "place_id": "ChIJJckqcYaiK4cR-YbbwGOcnyQ",
    "name": "Saddle Bronc Grill",
    "street_address": "11056 North Saguaro Boulevard",
    "city": "Fountain Hills",
    "state": "AZ",
    "zip_code": "85268",
    "latitude": 33.5879,
    "longitude": -111.7082,
    "website": "http://www.saddlebroncgrill.com/",
    "category": "Bar & Restaurant",
    "types": "bar, restaurant, food, point_of_interest, establishment"
  },
  {
    "place_id": "ChIJa_PfRQCjK4cRUNmLja2sI_s",
    "name": "Saddle Bronc",
    "street_address": "11057 North Saguaro Boulevard",
    "city": "Fountain Hills",
    "state": "AZ",
    "zip_code": "85268",
    "latitude": 33.5871524,
    "longitude": -111.7083747,
    "website": null,
    "category": "Restaurant",
    "types": "restaurant, food, point_of_interest, establishment"
  },
  {
    "place_id": "ChIJY_AbXWKiK4cR75Nh-IAguMk",
    "name": "The Grill at Desert Canyon",
    "street_address": "10440 North Indian Wells Drive",
    "city": "Fountain Hills",
    "state": "AZ",
    "zip_code": "85268",
    "latitude": 33.58214330000001,
    "longitude": -111.7151937,
    "website": "https://desertcanyongolf.com/dining/",
    "category": "Bar & Restaurant",
    "types": "bar, restaurant, food, point_of_interest, establishment"
  },
  {
    "place_id": "ChIJ9U9P04CYK4cR1hXSWossAGM",
    "name": "Euro Pizza Cafe",
    "street_address": "12645 North Saguaro Boulevard",
    "city": "Fountain Hills",
    "state": "AZ",
    "zip_code": "85268",
    "latitude": 33.60160039999999,
    "longitude": -111.7153975,
    "website": "http://www.europizzacafe.com/",
    "category": "Restaurant",
    "types": "restaurant, food, point_of_interest, establishment"
  },
  {
    "place_id": "ChIJX9kl24eYK4cRiiTkoIHT4dE",
    "name": "Sun Baked Food 4 The Soul",
    "street_address": "16842 East Parkview Avenue",
    "city": "Fountain Hills",
    "state": "AZ",
    "zip_code": "85268",
    "latitude": 33.605852,
    "longitude": -111.715964,
    "website": null,
    "category": "Restaurant",
    "types": "bakery, store, restaurant, food, point_of_interest, establishment"
  },
  {
    "place_id": "ChIJ-bknZ4iYK4cRzXfjotfB1C4",
    "name": "Phil's Filling Station",
    "street_address": "16852 East Parkview Avenue",
    "city": "Fountain Hills",
    "state": "AZ",
    "zip_code": "85268",
    "latitude": 33.6057587,
    "longitude": -111.7155762,
    "website": "http://www.philsfillingstationgrill.com/",
    "category": "Bar & Restaurant",
    "types": "bar, restaurant, food, point_of_interest, establishment"
  },
  {
    "place_id": "ChIJnYvuL0x7K4cRhwthKwvrHZ4",
    "name": "Fat Willy's Carefree Hwy & Black Mountain Pkwy",
    "street_address": "34406 North Black Mountain Parkway",
    "city": "Cave Creek",
    "state": "AZ",
    "zip_code": "85331",
    "latitude": 33.7975322,
    "longitude": -111.9786581,
    "website": "https://www.fatwillysaz.com/",
    "category": "Bar & Restaurant",
    "types": "bar, restaurant, food, point_of_interest, establishment"
  },
  {
    "place_id": "ChIJBXR_Zb9-K4cRKmPYHahxaFQ",
    "name": "Mountain View Pub",
    "street_address": "7033 East Cave Creek Road",
    "city": "Cave Creek",
    "state": "AZ",
    "zip_code": "85331",
    "latitude": 33.82913599999999,
    "longitude": -111.929134,
    "website": "https://www.mountainviewpub.pub/",
    "category": "Bar & Restaurant",
    "types": "bar, restaurant, food, point_of_interest, establishment"
  },
  {
    "place_id": "ChIJI1NDCJZ-K4cR8f3Pl63BJLk",
    "name": "Hideaway",
    "street_address": "6746 East Cave Creek Road",
    "city": "Cave Creek",
    "state": "AZ",
    "zip_code": "85331",
    "latitude": 33.8323469,
    "longitude": -111.9345583,
    "website": "http://www.hideaway-usa.com/",
    "category": "Restaurant",
    "types": "restaurant, food, point_of_interest, establishment"
  },
  {
    "place_id": "ChIJT7yrD55-K4cRjmzeCQU5Dz8",
    "name": "Local Jonny's Tavern And Caf\u00e9",
    "street_address": "6033 East Cave Creek Road",
    "city": "Cave Creek",
    "state": "AZ",
    "zip_code": "85331",
    "latitude": 33.8326171,
    "longitude": -111.9500689,
    "website": "http://www.localjonnys.com/",
    "category": "Bar & Restaurant",
    "types": "cafe, bar, store, restaurant, food, point_of_interest, establishment"
  },
  {
    "place_id": "ChIJRWhzAZZ-K4cRb8-1PwcqhtQ",
    "name": "Buffalo Chip Saloon and Steakhouse",
    "street_address": "6823 East Cave Creek Road",
    "city": "Cave Creek",
    "state": "AZ",
    "zip_code": "85331",
    "latitude": 33.83073869999999,
    "longitude": -111.9341487,
    "website": "http://www.buffalochipsaloon.com/",
    "category": "Bar & Restaurant",
    "types": "bar, restaurant, food, point_of_interest, establishment"
  },
  {
    "place_id": "ChIJexfdar5-K4cRmNvJiJkzXx0",
    "name": "Harold's Cave Creek Corral",
    "street_address": "6895 East Cave Creek Road",
    "city": "Cave Creek",
    "state": "AZ",
    "zip_code": "85331",
    "latitude": 33.8301646,
    "longitude": -111.9328982,
    "website": "https://haroldscorral.com/",
    "category": "Bar & Restaurant",
    "types": "night_club, bar, restaurant, point_of_interest, food, establishment"
  },
  {
    "place_id": "ChIJHVqLFb5-K4cR0aVqcSpb-0A",
    "name": "The Roadhouse",
    "street_address": "6900 East Cave Creek Road",
    "city": "Cave Creek",
    "state": "AZ",
    "zip_code": "85331",
    "latitude": 33.8309513,
    "longitude": -111.933015,
    "website": "https://hideaway-usa.com/",
    "category": "Bar & Restaurant",
    "types": "bar, restaurant, food, point_of_interest, establishment"
  },
  {
    "place_id": "ChIJ4U7l455-K4cRMKJenmv-Fv0",
    "name": "Big Earl's Greasy Eats",
    "street_address": "6135 East Cave Creek Road",
    "city": "Cave Creek",
    "state": "AZ",
    "zip_code": "85331",
    "latitude": 33.8320257,
    "longitude": -111.9481853,
    "website": "https://bigearlsgreasyeats.com/",
    "category": "Restaurant",
    "types": "restaurant, food, point_of_interest, establishment"
  },
  {
    "place_id": "ChIJGevTecZ-K4cRD9AXt-oIpEI",
    "name": "Venues Cafe",
    "street_address": "34 Easy Street",
    "city": "Carefree",
    "state": "AZ",
    "zip_code": "85377",
    "latitude": 33.8252068,
    "longitude": -111.9226456,
    "website": "http://venuescafe.com/",
    "category": "Bar & Restaurant",
    "types": "bar, restaurant, food, point_of_interest, establishment"
  },
  {
    "place_id": "ChIJJROeKCF8K4cRu9lJh21kVMU",
    "name": "Tonto Bar & Grill",
    "street_address": "5736 East Rancho Manana Boulevard",
    "city": "Cave Creek",
    "state": "AZ",
    "zip_code": "85331",
    "latitude": 33.8330472,
    "longitude": -111.9558899,
    "website": "http://www.tontobarandgrill.com/",
    "category": "Bar & Restaurant",
    "types": "bar, restaurant, food, point_of_interest, establishment"
  },
  {
    "place_id": "ChIJOTJZhwB_K4cRIo2t75tMHCI",
    "name": "Speedy Burger Tavern",
    "street_address": "100 Easy Street",
    "city": "Carefree",
    "state": "AZ",
    "zip_code": "85377",
    "latitude": 33.82410069999999,
    "longitude": -111.9227193,
    "website": "http://www.speedyburgertavern.com/",
    "category": "Restaurant",
    "types": "restaurant, point_of_interest, food, establishment"
  },
  {
    "place_id": "ChIJFzIaAIl_K4cRkNyxMN_cLFw",
    "name": "Stumblina's Cantina",
    "street_address": "6268 East Cave Creek Road",
    "city": "Cave Creek",
    "state": "AZ",
    "zip_code": "85331",
    "latitude": 33.83238680000001,
    "longitude": -111.9449738,
    "website": "http://stumblinascantinaaz.com/",
    "category": "Bar & Restaurant",
    "types": "restaurant, bar, food, point_of_interest, establishment"
  },
  {
    "place_id": "ChIJXTPt8cZ-K4cR1dINg3eXSX0",
    "name": "The Grill Kitchen and Bar",
    "street_address": "34631 North Tom Darlington Drive",
    "city": "Scottsdale",
    "state": "AZ",
    "zip_code": "85266",
    "latitude": 33.803164,
    "longitude": -111.926382,
    "website": "https://www.hilton.com/en/hotels/phxrsqq-boulders-resort-and-spa-scottsdale/dining/?SEO_id=GMB--R-PHXRSQQ-3&y_source=1_MjY1ODk0MTAtNzE1LWxvY2F0aW9uLndlYnNpdGU%3D",
    "category": "Restaurant",
    "types": "restaurant, point_of_interest, food, establishment"
  },
  {
    "place_id": "ChIJ3yZft0d5K4cRXVBj0sA0n6I",
    "name": "Liberty Station",
    "street_address": "34522 North Scottsdale Road",
    "city": "Scottsdale",
    "state": "AZ",
    "zip_code": "85266",
    "latitude": 33.7988511,
    "longitude": -111.9310399,
    "website": "http://libertystationtavern.com/",
    "category": "Restaurant",
    "types": "restaurant, food, point_of_interest, establishment"
  },
  {
    "place_id": "ChIJcSRCD5Z-K4cRWIukSZnI75c",
    "name": "The Horny Toad",
    "street_address": "6738 East Cave Creek Road",
    "city": "Cave Creek",
    "state": "AZ",
    "zip_code": "85331",
    "latitude": 33.833062,
    "longitude": -111.935024,
    "website": "https://thehornytoad.com/",
    "category": "Bar & Restaurant",
    "types": "bar, restaurant, food, point_of_interest, establishment"
  },
  {
    "place_id": "ChIJa7GZvCR_K4cRoIWfjaQKCfo",
    "name": "Kiki Rae's",
    "street_address": "6219 East Cave Creek Road",
    "city": "Cave Creek",
    "state": "AZ",
    "zip_code": "85331",
    "latitude": 33.831604,
    "longitude": -111.9468917,
    "website": "http://www.kikiraes.com/?utm_source=google&utm_medium=wix_google_business_profile&utm_campaign=3191947212379776166",
    "category": "Restaurant",
    "types": "restaurant, food, point_of_interest, establishment"
  },
  {
    "place_id": "ChIJTb5LG4t7K4cRpML1Gv_EWSc",
    "name": "Heart and Soul Mexican Grill",
    "street_address": "4705 East Carefree Highway",
    "city": "Cave Creek",
    "state": "AZ",
    "zip_code": "85331",
    "latitude": 33.7977638,
    "longitude": -111.979736,
    "website": "http://heartandsoulmexicangrill.com/",
    "category": "Bar & Restaurant",
    "types": "bar, restaurant, food, point_of_interest, establishment"
  },
  {
    "place_id": "ChIJIbeEfr9-K4cRBmdtAuXRCg0",
    "name": "Ofrenda",
    "street_address": "7100 East Cave Creek Road",
    "city": "Cave Creek",
    "state": "AZ",
    "zip_code": "85331",
    "latitude": 33.82987,
    "longitude": -111.9286284,
    "website": "https://www.theofrenda.com/",
    "category": "Bar & Restaurant",
    "types": "bar, restaurant, food, point_of_interest, establishment"
  },
  {
    "place_id": "ChIJHQJvGVt5K4cRu6TXi29y5BY",
    "name": "Poppy\u2019s Office",
    "street_address": "34522 North Scottsdale Road",
    "city": "Scottsdale",
    "state": "AZ",
    "zip_code": "85266",
    "latitude": 33.79882,
    "longitude": -111.9309033,
    "website": "https://poppysoffice.com/",
    "category": "Bar & Restaurant",
    "types": "bar, restaurant, food, point_of_interest, establishment"
  },
  {
    "place_id": "ChIJdffrgj1uK4cRAK3a3WrFX-4",
    "name": "Lookout Tavern",
    "street_address": "830 East Greenway Parkway",
    "city": "Phoenix",
    "state": "AZ",
    "zip_code": "85022",
    "latitude": 33.63817579999999,
    "longitude": -112.0625555,
    "website": "https://lookoutaz.com/",
    "category": "Bar & Restaurant",
    "types": "restaurant, night_club, bar, food, point_of_interest, establishment"
  },
  {
    "place_id": "ChIJI59FcXlvK4cRYHua6KfzD2w",
    "name": "The Tav",
    "street_address": "22034 North 19th Avenue",
    "city": "Phoenix",
    "state": "AZ",
    "zip_code": "85027",
    "latitude": 33.6867779,
    "longitude": -112.1003038,
    "website": "https://thetav.top/",
    "category": "Bar & Restaurant",
    "types": "bar, restaurant, food, point_of_interest, establishment"
  },
  {
    "place_id": "ChIJGcrziBxvK4cRQi8YGBV-ah8",
    "name": "Tosos Sports Bar & Grill",
    "street_address": "2401 West Union Hills Drive",
    "city": "Phoenix",
    "state": "AZ",
    "zip_code": "85027",
    "latitude": 33.654128,
    "longitude": -112.1098436,
    "website": "http://www.tosossportsbargrill.com/",
    "category": "Bar & Restaurant",
    "types": "bar, restaurant, food, point_of_interest, establishment"
  },
  {
    "place_id": "ChIJo5sY6D9uK4cRaw_KwdTiv5c",
    "name": "Half Moon Sports Grill",
    "street_address": "288 East Greenway Parkway",
    "city": "Phoenix",
    "state": "AZ",
    "zip_code": "85022",
    "latitude": 33.63699299999999,
    "longitude": -112.070123,
    "website": "http://www.halfmoonsportsgrill.com/",
    "category": "Bar & Restaurant",
    "types": "bar, restaurant, food, point_of_interest, establishment"
  },
  {
    "place_id": "ChIJsa1jcpRxK4cRkQ7RmfrHjAk",
    "name": "Casey Jones Grill",
    "street_address": "2848 East Bell Road",
    "city": "Phoenix",
    "state": "AZ",
    "zip_code": "85032",
    "latitude": 33.64097700000001,
    "longitude": -112.020506,
    "website": "http://www.caseyjonesgrill.com/",
    "category": "Bar & Restaurant",
    "types": "bar, restaurant, food, point_of_interest, establishment"
  },
  {
    "place_id": "ChIJY1PukzNuK4cR-TPA5Z31zto",
    "name": "The Burg Sports Grill",
    "street_address": "751 East Union Hills Drive",
    "city": "Phoenix",
    "state": "AZ",
    "zip_code": "85024",
    "latitude": 33.6541446,
    "longitude": -112.0633585,
    "website": "https://www.burgsportsgrill.com/",
    "category": "Bar & Restaurant",
    "types": "bar, restaurant, food, point_of_interest, establishment"
  },
  {
    "place_id": "ChIJzVuX3elxK4cRO44v1yyHoBM",
    "name": "Brigett's Last Laugh",
    "street_address": "17222 Cave Creek Road",
    "city": "Phoenix",
    "state": "AZ",
    "zip_code": "85032",
    "latitude": 33.642984,
    "longitude": -112.0313407,
    "website": "http://brigetts.com/",
    "category": "Bar & Restaurant",
    "types": "bar, restaurant, food, point_of_interest, establishment"
  },
  {
    "place_id": "ChIJUeT1jJtxK4cRUCI58F0MPEE",
    "name": "Brennan's Pub & Grub",
    "street_address": "3510 East Bell Road",
    "city": "Phoenix",
    "state": "AZ",
    "zip_code": "85032",
    "latitude": 33.6413175,
    "longitude": -112.0066902,
    "website": null,
    "category": "Bar & Restaurant",
    "types": "bar, restaurant, food, point_of_interest, establishment"
  },
  {
    "place_id": "ChIJE2fwn3VvK4cROs4BzM9m2CA",
    "name": "CAPS Sports Grill",
    "street_address": "1721 West Rose Garden Lane",
    "city": "Phoenix",
    "state": "AZ",
    "zip_code": "85027",
    "latitude": 33.67565250000001,
    "longitude": -112.0969133,
    "website": "https://www.capsgrill.com/",
    "category": "Bar & Restaurant",
    "types": "bar, restaurant, food, point_of_interest, establishment"
  },
  {
    "place_id": "ChIJf3CwQ5llK4cRxTfSzWs2xM0",
    "name": "The Bistro - Eat. Drink. Connect.\u00ae",
    "street_address": "2029 West Whispering Wind Drive",
    "city": "Phoenix",
    "state": "AZ",
    "zip_code": "85085",
    "latitude": 33.7104851,
    "longitude": -112.1032826,
    "website": "https://www.marriott.com/hotels/hotel-information/restaurant/phxbc-courtyard-phoenix-north-happy-valley/?scid=f2ae0541-1279-4f24-b197-a979c79310b0",
    "category": "Restaurant",
    "types": "restaurant, food, point_of_interest, establishment"
  },
  {
    "place_id": "ChIJEeurVRZlK4cR0zpABORAPVg",
    "name": "The Stillery",
    "street_address": "2501 West Happy Valley Road",
    "city": "Phoenix",
    "state": "AZ",
    "zip_code": "85085",
    "latitude": 33.7124122,
    "longitude": -112.1123238,
    "website": "http://www.thestillery.com/happyvalley",
    "category": "Bar & Restaurant",
    "types": "restaurant, bar, food, point_of_interest, establishment"
  },
  {
    "place_id": "ChIJcQiQiHRvK4cR9xYUFKX1lX8",
    "name": "Q Bar & Grill",
    "street_address": "20818 North 19th Avenue",
    "city": "Phoenix",
    "state": "AZ",
    "zip_code": "85027",
    "latitude": 33.6756194,
    "longitude": -112.1003639,
    "website": "http://qbarandgrill.net/",
    "category": "Bar & Restaurant",
    "types": "bar, restaurant, point_of_interest, food, establishment"
  },
  {
    "place_id": "ChIJxy-J3rJxK4cRwPUGsGk7qDA",
    "name": "Sunshine Breakfast Bar",
    "street_address": "20811 North Cave Creek Road",
    "city": "Phoenix",
    "state": "AZ",
    "zip_code": "85024",
    "latitude": 33.67532970000001,
    "longitude": -112.0304423,
    "website": "https://www.sunshinebreakfastbar.com/",
    "category": "Bar & Restaurant",
    "types": "cafe, bar, store, restaurant, food, point_of_interest, establishment"
  },
  {
    "place_id": "ChIJlaoLoM9lK4cRlM5SRgXJ09w",
    "name": "State 48 Rock House",
    "street_address": "2530 West Happy Valley Road",
    "city": "Phoenix",
    "state": "AZ",
    "zip_code": "85085",
    "latitude": 33.71529110000001,
    "longitude": -112.1136426,
    "website": "http://state48brewery.com/",
    "category": "Restaurant",
    "types": "restaurant, food, point_of_interest, establishment"
  },
  {
    "place_id": "ChIJBdnLnG5xK4cRNH_97139Sog",
    "name": "Cornish Pasty Co",
    "street_address": "18725 North 32nd Street",
    "city": "Phoenix",
    "state": "AZ",
    "zip_code": "85050",
    "latitude": 33.6562251,
    "longitude": -112.0130313,
    "website": "http://www.cornishpastyco.com/",
    "category": "Restaurant",
    "types": "restaurant, point_of_interest, food, establishment"
  },
  {
    "place_id": "ChIJG5KecL5lK4cRgkNKrTEXf3k",
    "name": "Buffalo Wild Wings",
    "street_address": "2510 West Happy Valley Road",
    "city": "Phoenix",
    "state": "AZ",
    "zip_code": "85085",
    "latitude": 33.7148311,
    "longitude": -112.1134221,
    "website": "https://www.buffalowildwings.com/locations/us/az/phoenix/2510-w-happy-valley-rd/sports-bar-237?utm_source=google%20my%20business&utm_medium=organic&utm_campaign=website%20link",
    "category": "Bar & Restaurant",
    "types": "meal_takeaway, bar, restaurant, food, point_of_interest, establishment"
  }
]