[
  {
    "place_id": "ChIJBbsKoFbxNIgRfZy_c4Gysew",
    "name": "City Works (Market Square - Pittsburgh)",
    "street_address": "2 PPG Place",
    "city": "Pittsburgh",
    "state": "PA",
    "zip_code": "15222",
    "latitude": 40.440575,
    "longitude": -80.00325450000001,
    "website": "https://www.cityworksrestaurant.com/locations/pittsburgh/",
    "category": "Bar & Restaurant",
    "types": "bar, restaurant, food, point_of_interest, establishment"
  },
  {
    "place_id": "ChIJXXutnFbxNIgR7UUU81s_VKg",
    "name": "The Yard",
    "street_address": "100 Fifth Avenue",
    "city": "Pittsburgh",
    "state": "PA",
    "zip_code": "15222",
    "latitude": 40.4412646,
    "longitude": -80.0027879,
    "website": "http://www.theyardpgh.com/",
    "category": "Bar & Restaurant",
    "types": "bar, restaurant, food, point_of_interest, establishment"
  },
  {
    "place_id": "ChIJueESRrnxNIgR4DeLRiwdNwo",
    "name": "Bridges & Bourbon",
    "street_address": "930 Penn Avenue",
    "city": "Pittsburgh",
    "state": "PA",
    "zip_code": "15222",
    "latitude": 40.4439766,
    "longitude": -79.9969831,
    "website": "https://www.bridgesandbourbonpgh.com/",
    "category": "Bar & Restaurant",
    "types": "bar, restaurant, food, point_of_interest, establishment"
  },
  {
    "place_id": "ChIJb026fVHyNIgRp717s78G9n0",
    "name": "The Abbey on Butler Street",
    "street_address": "4635 Butler Street",
    "city": "Pittsburgh",
    "state": "PA",
    "zip_code": "15201",
    "latitude": 40.4738272,
    "longitude": -79.9584053,
    "website": "http://theabbeyonbutlerstreet.com/",
    "category": "Bar & Restaurant",
    "types": "restaurant, cafe, bar, store, food, point_of_interest, establishment"
  },
  {
    "place_id": "ChIJgVVd0Or1NIgRs0BeWUojDz4",
    "name": "Tom's Watch Bar",
    "street_address": "261 North Shore Drive",
    "city": "Pittsburgh",
    "state": "PA",
    "zip_code": "15212",
    "latitude": 40.446179,
    "longitude": -80.008876,
    "website": "https://tomswatchbar.com/pittsburgh/",
    "category": "Bar & Restaurant",
    "types": "bar, restaurant, food, point_of_interest, establishment"
  },
  {
    "place_id": "ChIJvfMuIwD0NIgR_OKU1NP3Exw",
    "name": "Bar Louie - North Shore",
    "street_address": "330 North Shore Drive",
    "city": "Pittsburgh",
    "state": "PA",
    "zip_code": "15212",
    "latitude": 40.4463639,
    "longitude": -80.0106043,
    "website": "https://www.barlouie.com/locations/us/pa/pittsburgh/north-shore?utm_source=google&utm_medium=gmb&utm_campaign=listings",
    "category": "Bar & Restaurant",
    "types": "night_club, bar, restaurant, food, point_of_interest, establishment"
  },
  {
    "place_id": "ChIJbUeFn1DxNIgRNsB4lETrxQ0",
    "name": "Grant Street Tavern",
    "street_address": "310 Grant Street",
    "city": "Pittsburgh",
    "state": "PA",
    "zip_code": "15219",
    "latitude": 40.4376887,
    "longitude": -79.9976353,
    "website": "http://www.thegrantstreet.com/",
    "category": "Bar & Restaurant",
    "types": "bar, restaurant, food, point_of_interest, establishment"
  },
  {
    "place_id": "ChIJezxPEXzzNIgRRVigvGgRNHQ",
    "name": "North Shore Tavern",
    "street_address": "120 Federal Street",
    "city": "Pittsburgh",
    "state": "PA",
    "zip_code": "15212",
    "latitude": 40.44822019999999,
    "longitude": -80.0039053,
    "website": "https://northshoretavern.com/",
    "category": "Restaurant",
    "types": "restaurant, food, point_of_interest, establishment"
  },
  {
    "place_id": "ChIJg888LAD0NIgRv6CEQUat1uc",
    "name": "The Foundry | Table & Tap",
    "street_address": "381 North Shore Drive",
    "city": "Pittsburgh",
    "state": "PA",
    "zip_code": "15212",
    "latitude": 40.445705,
    "longitude": -80.01126699999999,
    "website": "http://www.thefoundrypgh.com/",
    "category": "Bar & Restaurant",
    "types": "bar, restaurant, food, point_of_interest, establishment"
  },
  {
    "place_id": "ChIJv6siiU3yNIgRY1K4PUwSTvY",
    "name": "Industry Public House",
    "street_address": "4305 Butler Street",
    "city": "Pittsburgh",
    "state": "PA",
    "zip_code": "15201",
    "latitude": 40.47092200000001,
    "longitude": -79.960374,
    "website": "http://industrypgh.com/",
    "category": "Bar & Restaurant",
    "types": "bar, restaurant, food, point_of_interest, establishment"
  },
  {
    "place_id": "ChIJReLa5-_zNIgRj2_pLh7ZKpQ",
    "name": "Verdetto's | Bar & Restaurant",
    "street_address": "814 Madison Avenue",
    "city": "Pittsburgh",
    "state": "PA",
    "zip_code": "15212",
    "latitude": 40.45527779999999,
    "longitude": -79.99694439999999,
    "website": null,
    "category": "Bar & Restaurant",
    "types": "bar, restaurant, food, point_of_interest, establishment"
  },
  {
    "place_id": "ChIJ0f005GnxNIgR97iNHfJPwho",
    "name": "The Urban Tap - Southside",
    "street_address": "1209 East Carson Street",
    "city": "Pittsburgh",
    "state": "PA",
    "zip_code": "15203",
    "latitude": 40.4289593,
    "longitude": -79.9859142,
    "website": "http://theurbantap.com/",
    "category": "Bar & Restaurant",
    "types": "bar, restaurant, point_of_interest, food, establishment"
  },
  {
    "place_id": "ChIJMwNf-k3xNIgRKJcrlH1YVqQ",
    "name": "Forbes Tavern",
    "street_address": "310 Forbes Avenue",
    "city": "Pittsburgh",
    "state": "PA",
    "zip_code": "15222",
    "latitude": 40.439784,
    "longitude": -80.000461,
    "website": "https://forbestavernpgh.com/",
    "category": "Bar & Restaurant",
    "types": "restaurant, bar, food, point_of_interest, establishment"
  },
  {
    "place_id": "ChIJBZR0o1_2NIgRSCYvsmM7xIo",
    "name": "Ugly Dog Saloon",
    "street_address": "2351 Noblestown Road",
    "city": "Pittsburgh",
    "state": "PA",
    "zip_code": "15205",
    "latitude": 40.4267498,
    "longitude": -80.0555578,
    "website": "https://www.facebook.com/UGLYDOGPGH/",
    "category": "Bar & Restaurant",
    "types": "bar, restaurant, food, point_of_interest, establishment"
  },
  {
    "place_id": "ChIJKT2mUrXzNIgRP_zITVG6-1s",
    "name": "The Church Brew Works",
    "street_address": "3525 Liberty Avenue",
    "city": "Pittsburgh",
    "state": "PA",
    "zip_code": "15201",
    "latitude": 40.46198609999999,
    "longitude": -79.9640806,
    "website": "http://www.churchbrew.com/",
    "category": "Bar & Restaurant",
    "types": "restaurant, bar, food, point_of_interest, establishment"
  },
  {
    "place_id": "ChIJi_tCb1rxNIgRpCJk0phr6Hk",
    "name": "Mitchell's Pub",
    "street_address": "304 Ross Street",
    "city": "Pittsburgh",
    "state": "PA",
    "zip_code": "15219",
    "latitude": 40.4371371,
    "longitude": -79.99656759999999,
    "website": "http://originalmitchells.com/",
    "category": "Bar & Restaurant",
    "types": "bar, restaurant, food, point_of_interest, establishment"
  },
  {
    "place_id": "ChIJv-h4F53zNIgRjhtVF5kI5H0",
    "name": "Hog's Head Bar and Grill",
    "street_address": "3433 Spring Garden Avenue",
    "city": "Pittsburgh",
    "state": "PA",
    "zip_code": "15212",
    "latitude": 40.4824238,
    "longitude": -79.9962106,
    "website": "https://www.facebook.com/hogsheadbarandgrill",
    "category": "Bar & Restaurant",
    "types": "bar, restaurant, food, point_of_interest, establishment"
  },
  {
    "place_id": "ChIJswalHGj0NIgRIH3BwknvkCs",
    "name": "Steel City Sports Bar & Grub",
    "street_address": "1216 Woods Run Avenue",
    "city": "Pittsburgh",
    "state": "PA",
    "zip_code": "15212",
    "latitude": 40.4765653,
    "longitude": -80.0306078,
    "website": "http://www.steelcitygrub.com/",
    "category": "Bar & Restaurant",
    "types": "bar, night_club, restaurant, food, point_of_interest, store, establishment"
  },
  {
    "place_id": "ChIJ8e_CBY_zNIgRNXkx03Ejrn0",
    "name": "Rear End Gastropub & Garage",
    "street_address": "399 Butler Street",
    "city": "Pittsburgh",
    "state": "PA",
    "zip_code": "15223",
    "latitude": 40.4976218,
    "longitude": -79.9441501,
    "website": "http://rearendetna.com/",
    "category": "Restaurant",
    "types": "restaurant, food, point_of_interest, establishment"
  },
  {
    "place_id": "ChIJf8-9UXPyNIgR0MoGEhLB1VY",
    "name": "The Urban Tap - Shadyside",
    "street_address": "216 South Highland Avenue",
    "city": "Pittsburgh",
    "state": "PA",
    "zip_code": "15206",
    "latitude": 40.45835739999999,
    "longitude": -79.9252612,
    "website": "http://www.theurbantap.com/",
    "category": "Bar & Restaurant",
    "types": "bar, restaurant, food, point_of_interest, establishment"
  },
  {
    "place_id": "ChIJv2DWlv7zNIgRTTz0tEVx4Ok",
    "name": "Mike's Beer Bar",
    "street_address": "110 Federal Street",
    "city": "Pittsburgh",
    "state": "PA",
    "zip_code": "15212",
    "latitude": 40.44799400000001,
    "longitude": -80.0039821,
    "website": "https://mikesbeerbar.com/",
    "category": "Bar & Restaurant",
    "types": "bar, restaurant, food, point_of_interest, establishment"
  },
  {
    "place_id": "ChIJrd_MPQD0NIgRaQcAurQ7VPk",
    "name": "Tequila Cowboy",
    "street_address": "380 North Shore Drive",
    "city": "Pittsburgh",
    "state": "PA",
    "zip_code": "15212",
    "latitude": 40.4460747,
    "longitude": -80.0115356,
    "website": "https://tequilacowboy.com/pittsburgh/",
    "category": "Bar & Restaurant",
    "types": "night_club, bar, restaurant, point_of_interest, food, establishment"
  },
  {
    "place_id": "ChIJAeVyyVfyNIgRJl5qfH2SbDs",
    "name": "Dive Bar & Grille",
    "street_address": "5147 Butler Street",
    "city": "Pittsburgh",
    "state": "PA",
    "zip_code": "15201",
    "latitude": 40.47967879999999,
    "longitude": -79.9550826,
    "website": "http://www.divebarandgrille.com/index_LAW.htm",
    "category": "Bar & Restaurant",
    "types": "bar, restaurant, food, point_of_interest, establishment"
  },
  {
    "place_id": "ChIJ9RuVqkfyNIgRkMqRFmij0AE",
    "name": "Lot 17",
    "street_address": "4617 Liberty Avenue",
    "city": "Pittsburgh",
    "state": "PA",
    "zip_code": "15224",
    "latitude": 40.4624552,
    "longitude": -79.9502692,
    "website": "http://www.lot17pgh.com/",
    "category": "Bar & Restaurant",
    "types": "bar, restaurant, food, point_of_interest, establishment"
  },
  {
    "place_id": "ChIJ07YvcLH2NIgRYuOrEBUNga0",
    "name": "Bigham Tavern",
    "street_address": "321 Bigham Street",
    "city": "Pittsburgh",
    "state": "PA",
    "zip_code": "15211",
    "latitude": 40.4324472,
    "longitude": -80.0151867,
    "website": "http://www.bighamtavern.com/",
    "category": "Restaurant",
    "types": "restaurant, food, point_of_interest, establishment"
  },
  {
    "place_id": "ChIJ_as8sbL1NIgRJRfXN8tX704",
    "name": "Fry Bar",
    "street_address": "1100 Galveston Avenue",
    "city": "Pittsburgh",
    "state": "PA",
    "zip_code": "15233",
    "latitude": 40.453665,
    "longitude": -80.0169147,
    "website": "http://frybarllc.com/",
    "category": "Restaurant",
    "types": "restaurant, food, point_of_interest, establishment"
  },
  {
    "place_id": "ChIJdVCquinyNIgR2oRCbBuyh3A",
    "name": "Hemingway's Cafe",
    "street_address": "3911 Forbes Avenue",
    "city": "Pittsburgh",
    "state": "PA",
    "zip_code": "15213",
    "latitude": 40.4422489,
    "longitude": -79.95618879999999,
    "website": "http://hemingwayspgh.com/",
    "category": "Bar & Restaurant",
    "types": "bar, restaurant, food, point_of_interest, establishment"
  },
  {
    "place_id": "ChIJ1f0hhxHxNIgRoKGYhYTNOW0",
    "name": "BAR 21",
    "street_address": "2100 Spring Street",
    "city": "Pittsburgh",
    "state": "PA",
    "zip_code": "15210",
    "latitude": 40.41689580000001,
    "longitude": -79.9775999,
    "website": "https://www.facebook.com/profile.php?id=100086605054892&mibextid=LQQJ4d",
    "category": "Bar & Restaurant",
    "types": "bar, restaurant, food, point_of_interest, establishment"
  },
  {
    "place_id": "ChIJT42nXW7xNIgRc_TKySMF3x8",
    "name": "Smokin' Joe's Saloon",
    "street_address": "2001 East Carson Street",
    "city": "Pittsburgh",
    "state": "PA",
    "zip_code": "15203",
    "latitude": 40.42877439999999,
    "longitude": -79.9774279,
    "website": "https://smokinjoessaloon.com/",
    "category": "Bar & Restaurant",
    "types": "bar, restaurant, food, point_of_interest, establishment"
  },
  {
    "place_id": "ChIJofJwzFbxNIgRC57bGvzRYKE",
    "name": "The Rebel Room",
    "street_address": "405 Wood Street",
    "city": "Pittsburgh",
    "state": "PA",
    "zip_code": "15222",
    "latitude": 40.43959839999999,
    "longitude": -80.0014058,
    "website": "https://www.rebelroompittsburgh.com/?scid=feed67b0-9a2f-4de1-8df6-114544116108",
    "category": "Bar & Restaurant",
    "types": "restaurant, bar, food, point_of_interest, establishment"
  },
  {
    "place_id": "ChIJSeDjv27xNIgR1sjjqaBqtFQ",
    "name": "Piper's Pub",
    "street_address": "1828 East Carson Street",
    "city": "Pittsburgh",
    "state": "PA",
    "zip_code": "15203",
    "latitude": 40.4284687,
    "longitude": -79.9794312,
    "website": "http://www.piperspub.com/",
    "category": "Bar & Restaurant",
    "types": "bar, restaurant, food, point_of_interest, establishment"
  },
  {
    "place_id": "ChIJK1hW6YTyNIgRTqozUZYSdHw",
    "name": "The Bulldog Pub",
    "street_address": "1818 Morningside Avenue",
    "city": "Pittsburgh",
    "state": "PA",
    "zip_code": "15206",
    "latitude": 40.4867684,
    "longitude": -79.9266313,
    "website": "http://thebulldogpub.com/",
    "category": "Bar & Restaurant",
    "types": "bar, restaurant, food, point_of_interest, establishment"
  },
  {
    "place_id": "ChIJNbURhHTyNIgRYowTatqoah4",
    "name": "Kelly's Bar & Lounge",
    "street_address": "6012 Centre Avenue",
    "city": "Pittsburgh",
    "state": "PA",
    "zip_code": "15206",
    "latitude": 40.45989159999999,
    "longitude": -79.92439139999999,
    "website": "https://kellysbarlounge.com/",
    "category": "Bar & Restaurant",
    "types": "bar, night_club, restaurant, food, point_of_interest, establishment"
  },
  {
    "place_id": "ChIJ51ZZeUbyNIgR2bSGde-0wMA",
    "name": "Condrin Tavern",
    "street_address": "4501 Torley Street",
    "city": "Pittsburgh",
    "state": "PA",
    "zip_code": "15224",
    "latitude": 40.4648698,
    "longitude": -79.9505188,
    "website": null,
    "category": "Bar & Restaurant",
    "types": "bar, restaurant, food, point_of_interest, establishment"
  },
  {
    "place_id": "ChIJ7Z3q5z_yNIgRPjNpFPCbwh8",
    "name": "Silky's Pub",
    "street_address": "5135 Liberty Avenue",
    "city": "Pittsburgh",
    "state": "PA",
    "zip_code": "15224",
    "latitude": 40.4581703,
    "longitude": -79.9422409,
    "website": null,
    "category": "Bar & Restaurant",
    "types": "bar, restaurant, food, point_of_interest, establishment"
  },
  {
    "place_id": "ChIJi32qHBHyNIgRxPtrUFhiLBc",
    "name": "William Penn Tavern",
    "street_address": "3810 Butler Street",
    "city": "Pittsburgh",
    "state": "PA",
    "zip_code": "15201",
    "latitude": 40.4669023,
    "longitude": -79.9639902,
    "website": "http://www.wmpenntavern.com/",
    "category": "Bar & Restaurant",
    "types": "bar, restaurant, food, point_of_interest, establishment"
  },
  {
    "place_id": "ChIJG4Wlv3_yNIgRD72vwwni040",
    "name": "Park Place Pub",
    "street_address": "5719-5721 Bryant Street",
    "city": "Pittsburgh",
    "state": "PA",
    "zip_code": "15206",
    "latitude": 40.47628160000001,
    "longitude": -79.9208864,
    "website": null,
    "category": "Bar & Restaurant",
    "types": "bar, restaurant, food, point_of_interest, establishment"
  },
  {
    "place_id": "ChIJ3W48jHXxNIgRzYewBlf_lCA",
    "name": "Birmingham Bridge Tavern",
    "street_address": "2901 Sarah Street",
    "city": "Pittsburgh",
    "state": "PA",
    "zip_code": "15203",
    "latitude": 40.4245866,
    "longitude": -79.9645328,
    "website": "http://birminghambridgetavern.com/",
    "category": "Bar & Restaurant",
    "types": "bar, restaurant, food, point_of_interest, establishment"
  },
  {
    "place_id": "ChIJyQ0Jh3XyNIgRqa_YXoFXgkY",
    "name": "The Fire Side Public House",
    "street_address": "6290 Broad Street",
    "city": "Pittsburgh",
    "state": "PA",
    "zip_code": "15206",
    "latitude": 40.460424,
    "longitude": -79.919386,
    "website": "http://www.firesidepublichouse.com/",
    "category": "Bar & Restaurant",
    "types": "bar, restaurant, food, point_of_interest, establishment"
  },
  {
    "place_id": "ChIJ8bINel7xNIgRmDYa3l5HPyk",
    "name": "Shale's Cafe A Pittsburgh Bar",
    "street_address": "1208 Fifth Avenue",
    "city": "Pittsburgh",
    "state": "PA",
    "zip_code": "15219",
    "latitude": 40.4385583,
    "longitude": -79.98854829999999,
    "website": null,
    "category": "Bar & Restaurant",
    "types": "bar, restaurant, food, point_of_interest, establishment"
  },
  {
    "place_id": "ChIJh7LEcVbxNIgRlRM4uCzvQNQ",
    "name": "Redbeard's Sports Bar & Grill",
    "street_address": "144 6th Street",
    "city": "Pittsburgh",
    "state": "PA",
    "zip_code": "15222",
    "latitude": 40.4428879,
    "longitude": -80.0024002,
    "website": "http://www.redbeardspgh.com/",
    "category": "Bar & Restaurant",
    "types": "bar, restaurant, food, point_of_interest, establishment"
  },
  {
    "place_id": "ChIJu7QfWMPzNIgRRaou7cEJEUk",
    "name": "Mullaney's Harp & Fiddle Irish Pub",
    "street_address": "2329 Penn Avenue",
    "city": "Pittsburgh",
    "state": "PA",
    "zip_code": "15222",
    "latitude": 40.4534013,
    "longitude": -79.9808322,
    "website": "http://harpandfiddle.com/",
    "category": "Bar & Restaurant",
    "types": "bar, restaurant, food, point_of_interest, establishment"
  },
  {
    "place_id": "ChIJ66LSFVLyNIgRtZXizJSCCGk",
    "name": "New Amsterdam",
    "street_address": "4421 Butler Street",
    "city": "Pittsburgh",
    "state": "PA",
    "zip_code": "15201",
    "latitude": 40.472149,
    "longitude": -79.95953,
    "website": "http://www.newamsterdampgh.com/",
    "category": "Bar & Restaurant",
    "types": "night_club, bar, restaurant, food, point_of_interest, establishment"
  },
  {
    "place_id": "ChIJR1p9kFbyNIgRDZ210Bg9nvk",
    "name": "Stinky's Bar & Grill",
    "street_address": "4901 Hatfield Street",
    "city": "Pittsburgh",
    "state": "PA",
    "zip_code": "15201",
    "latitude": 40.4776845,
    "longitude": -79.95771669999999,
    "website": "http://www.stinkysbarandgrill.com/",
    "category": "Bar & Restaurant",
    "types": "bar, restaurant, food, point_of_interest, establishment"
  },
  {
    "place_id": "ChIJW2NhI0bzNIgRAbuC0NcGKwY",
    "name": "The Blue Goose Saloon",
    "street_address": "605 Mount Royal Boulevard",
    "city": "Pittsburgh",
    "state": "PA",
    "zip_code": "15223",
    "latitude": 40.5124236,
    "longitude": -79.95838619999999,
    "website": "http://www.thebluegoosesaloon.com/",
    "category": "Bar & Restaurant",
    "types": "restaurant, bar, food, point_of_interest, establishment"
  },
  {
    "place_id": "ChIJJYk8XXLzNIgRIZF7xOchKXs",
    "name": "Butler Street Derby",
    "street_address": "4203 Butler Street",
    "city": "Pittsburgh",
    "state": "PA",
    "zip_code": "15201",
    "latitude": 40.47041189999999,
    "longitude": -79.9606348,
    "website": "http://butlerstreetderby.com/",
    "category": "Bar & Restaurant",
    "types": "bar, restaurant, point_of_interest, food, establishment"
  },
  {
    "place_id": "ChIJI0ynzUTzNIgR_z8-SOmMckE",
    "name": "Cork Harbour Pub",
    "street_address": "181 43rd Street",
    "city": "Pittsburgh",
    "state": "PA",
    "zip_code": "15201",
    "latitude": 40.4712592,
    "longitude": -79.96087229999999,
    "website": "http://www.corkharbourpgh.com/",
    "category": "Bar & Restaurant",
    "types": "bar, restaurant, point_of_interest, food, establishment"
  },
  {
    "place_id": "ChIJa0X3e1fxNIgRbfQ4ponW1Z0",
    "name": "Ollie's Gastropub",
    "street_address": "535 Smithfield Street",
    "city": "Pittsburgh",
    "state": "PA",
    "zip_code": "15222",
    "latitude": 40.44106490000001,
    "longitude": -79.998139,
    "website": "https://embassysuites3.hilton.com/en/hotels/pennsylvania/embassy-suites-by-hilton-pittsburgh-downtown-PITSMES/dining/index.html",
    "category": "Bar & Restaurant",
    "types": "bar, restaurant, food, point_of_interest, establishment"
  },
  {
    "place_id": "ChIJf3_qIU7yNIgRV2wqYv_dOiI",
    "name": "Kelly's Korner",
    "street_address": "285 45th Street",
    "city": "Pittsburgh",
    "state": "PA",
    "zip_code": "15201",
    "latitude": 40.4706761,
    "longitude": -79.9569121,
    "website": null,
    "category": "Bar & Restaurant",
    "types": "bar, restaurant, food, point_of_interest, establishment"
  },
  {
    "place_id": "ChIJ75smXqnzNIgR1Vqf98Bd5vQ",
    "name": "Grant Bar Inc",
    "street_address": "114 Grant Avenue",
    "city": "Pittsburgh",
    "state": "PA",
    "zip_code": "15209",
    "latitude": 40.4782667,
    "longitude": -79.9697429,
    "website": "https://grantbar.top/",
    "category": "Bar & Restaurant",
    "types": "bar, restaurant, point_of_interest, food, establishment"
  },
  {
    "place_id": "ChIJUUsxHFPzNIgR7JI0P48xA4E",
    "name": "Caesars Alehouse & Eatery",
    "street_address": "623 North Avenue",
    "city": "Millvale",
    "state": "PA",
    "zip_code": "15209",
    "latitude": 40.4860543,
    "longitude": -79.97329839999999,
    "website": "http://www.caesarsalehouse.com/",
    "category": "Bar & Restaurant",
    "types": "bar, restaurant, food, point_of_interest, establishment"
  },
  {
    "place_id": "ChIJx8F6SBPuNIgR37zcJ7zXORk",
    "name": "Pub In the Park",
    "street_address": "7034 Blackhawk Street",
    "city": "Pittsburgh",
    "state": "PA",
    "zip_code": "15218",
    "latitude": 40.42138629999999,
    "longitude": -79.8975021,
    "website": "http://www.thepubinthepark.com/",
    "category": "Bar & Restaurant",
    "types": "bar, restaurant, food, point_of_interest, establishment"
  },
  {
    "place_id": "ChIJjx4DoCbyNIgRa4xgF5MtWX8",
    "name": "Union Grill Oakland",
    "street_address": "413 South Craig Street",
    "city": "Pittsburgh",
    "state": "PA",
    "zip_code": "15213",
    "latitude": 40.444802,
    "longitude": -79.94851799999999,
    "website": "https://www.uniongrilloakland.com/",
    "category": "Bar & Restaurant",
    "types": "bar, restaurant, food, point_of_interest, establishment"
  },
  {
    "place_id": "ChIJPcu-9wbzNIgRb9WEeyA2mGU",
    "name": "Sidelines Bar & Grill",
    "street_address": "621 Evergreen Avenue",
    "city": "Pittsburgh",
    "state": "PA",
    "zip_code": "15209",
    "latitude": 40.485491,
    "longitude": -79.97248599999999,
    "website": "http://www.sidelinesbarandgrill.com/",
    "category": "Bar & Restaurant",
    "types": "bar, restaurant, food, point_of_interest, establishment"
  },
  {
    "place_id": "ChIJldAGdt3zNIgRjGeERIxAoAE",
    "name": "Primanti Bros. Restaurant and Bar",
    "street_address": "46 18th Street",
    "city": "Pittsburgh",
    "state": "PA",
    "zip_code": "15222",
    "latitude": 40.4507188,
    "longitude": -79.9855812,
    "website": "https://primantibros.com/",
    "category": "Bar & Restaurant",
    "types": "bar, restaurant, food, point_of_interest, establishment"
  },
  {
    "place_id": "ChIJNVE5jpnzNIgRDWp7rqeTgfY",
    "name": "Bryant Street Tavern",
    "street_address": "5801 Bryant Street",
    "city": "Pittsburgh",
    "state": "PA",
    "zip_code": "15206",
    "latitude": 40.4761763,
    "longitude": -79.9205714,
    "website": "http://www.bryantstreettavern.com/?utm_source=google&utm_medium=wix_google_business_profile&utm_campaign=9546414384688904567",
    "category": "Restaurant",
    "types": "restaurant, food, point_of_interest, establishment"
  },
  {
    "place_id": "ChIJ2VE6onHxNIgRV-rRz5R8Eec",
    "name": "The Library on Carson",
    "street_address": "2302 East Carson Street",
    "city": "Pittsburgh",
    "state": "PA",
    "zip_code": "15203",
    "latitude": 40.42812869999999,
    "longitude": -79.9728506,
    "website": "https://www.thelibrarypgh.com/",
    "category": "Bar & Restaurant",
    "types": "bar, night_club, meal_takeaway, restaurant, food, point_of_interest, establishment"
  },
  {
    "place_id": "ChIJhf_eEmztNIgRtb3sUYxdgag",
    "name": "Dive Bar & Grille (Regent Square)",
    "street_address": "607 South Braddock Avenue",
    "city": "Pittsburgh",
    "state": "PA",
    "zip_code": "15221",
    "latitude": 40.4394009,
    "longitude": -79.89720779999999,
    "website": "https://www.divebarandgrille.com/",
    "category": "Restaurant",
    "types": "restaurant, food, point_of_interest, establishment"
  },
  {
    "place_id": "ChIJXVh0nfbwNIgRl86uf04Ukhs",
    "name": "Backdraft Bar and Grill",
    "street_address": "3049 Churchview Avenue",
    "city": "Pittsburgh",
    "state": "PA",
    "zip_code": "15227",
    "latitude": 40.38611890000001,
    "longitude": -79.9677768,
    "website": "https://backdraftbarandgrillpgh.com/",
    "category": "Bar & Restaurant",
    "types": "bar, restaurant, food, point_of_interest, establishment"
  },
  {
    "place_id": "ChIJBbyBxiX3NIgRttHs_8C7gbA",
    "name": "PROOF SPORTS BAR",
    "street_address": "734 Brookline Boulevard",
    "city": "Pittsburgh",
    "state": "PA",
    "zip_code": "15226",
    "latitude": 40.39397599999999,
    "longitude": -80.020731,
    "website": "https://proofbarpgh.wixsite.com/proofbarpgh",
    "category": "Bar & Restaurant",
    "types": "bar, restaurant, food, point_of_interest, establishment"
  },
  {
    "place_id": "ChIJvwEwzVfxNIgROGhy_5YvzPQ",
    "name": "Proper Brick Oven & Tap Room",
    "street_address": "139 7th Street",
    "city": "Pittsburgh",
    "state": "PA",
    "zip_code": "15222",
    "latitude": 40.4435631,
    "longitude": -80.0002063,
    "website": "https://properpgh.com/",
    "category": "Bar & Restaurant",
    "types": "restaurant, bar, food, point_of_interest, establishment"
  },
  {
    "place_id": "ChIJ05Zle6vzNIgR5d6-XIDBWbE",
    "name": "The PA Market",
    "street_address": "108 19th Street",
    "city": "Pittsburgh",
    "state": "PA",
    "zip_code": "15222",
    "latitude": 40.4508832,
    "longitude": -79.9849885,
    "website": "https://www.thepamarket.com/",
    "category": "Bar & Restaurant",
    "types": "restaurant, cafe, bar, food, store, point_of_interest, establishment"
  },
  {
    "place_id": "ChIJzYuYyxP3NIgRPhube21er90",
    "name": "Jamison's",
    "street_address": "3113 West Liberty Avenue",
    "city": "Pittsburgh",
    "state": "PA",
    "zip_code": "15216",
    "latitude": 40.390903,
    "longitude": -80.03926799999999,
    "website": null,
    "category": "Bar & Restaurant",
    "types": "night_club, bar, restaurant, point_of_interest, food, establishment"
  },
  {
    "place_id": "ChIJ1Vd4DgX3NIgRFCXOWfWXvOw",
    "name": "Coach's Bottleshop & Grille",
    "street_address": "3105 Banksville Road",
    "city": "Pittsburgh",
    "state": "PA",
    "zip_code": "15216",
    "latitude": 40.4002855,
    "longitude": -80.0430121,
    "website": "http://www.coachsbottleshopandgrille.com/",
    "category": "Bar & Restaurant",
    "types": "liquor_store, bar, store, restaurant, food, point_of_interest, establishment"
  },
  {
    "place_id": "ChIJWajYRm7xNIgR7zRgTaPbdrw",
    "name": "Jack's Bar",
    "street_address": "1117 East Carson Street",
    "city": "Pittsburgh",
    "state": "PA",
    "zip_code": "15203",
    "latitude": 40.4288589,
    "longitude": -79.9866309,
    "website": null,
    "category": "Bar & Restaurant",
    "types": "bar, restaurant, food, point_of_interest, establishment"
  },
  {
    "place_id": "ChIJrRaTrsnxNIgR9e4fo-RKDC4",
    "name": "Whiskey B's Bar and Kitchen (Market Square)",
    "street_address": "5 Market Square",
    "city": "Pittsburgh",
    "state": "PA",
    "zip_code": "15222",
    "latitude": 40.4402006,
    "longitude": -80.0023854,
    "website": "http://whiskeybs.com/",
    "category": "Bar & Restaurant",
    "types": "bar, night_club, restaurant, food, point_of_interest, establishment"
  },
  {
    "place_id": "ChIJrwpSeeLzNIgRbnjwmHTf43k",
    "name": "Bill's Bar & Burger",
    "street_address": "1001 Liberty Avenue",
    "city": "Pittsburgh",
    "state": "PA",
    "zip_code": "15222",
    "latitude": 40.4440451,
    "longitude": -79.9942672,
    "website": "https://www.billsbarandburger.com/location/bills-bar-and-burger-pittsburgh/",
    "category": "Bar & Restaurant",
    "types": "bar, restaurant, food, point_of_interest, establishment"
  },
  {
    "place_id": "ChIJle8t-VrvNIgRB9yOoQ5rlB0",
    "name": "Braddock Public House",
    "street_address": "1211 Braddock Avenue",
    "city": "Braddock",
    "state": "PA",
    "zip_code": "15104",
    "latitude": 40.3977638,
    "longitude": -79.86046019999999,
    "website": "https://www.braddockpublichouse.com/",
    "category": "Bar & Restaurant",
    "types": "bar, restaurant, food, point_of_interest, establishment"
  },
  {
    "place_id": "ChIJ0TkalrTzNIgR3WQ1VOvp8Jg",
    "name": "Burghers Brewing Company Lawrenceville Tap House",
    "street_address": "3601 Butler Street",
    "city": "Pittsburgh",
    "state": "PA",
    "zip_code": "15201",
    "latitude": 40.46550839999999,
    "longitude": -79.9653805,
    "website": "http://burgherspgh.com/",
    "category": "Bar & Restaurant",
    "types": "bar, restaurant, food, point_of_interest, establishment"
  },
  {
    "place_id": "ChIJK0aB_hDyNIgRZTfaR-B3Ja4",
    "name": "Shady Grove",
    "street_address": "5500 Walnut Street",
    "city": "Pittsburgh",
    "state": "PA",
    "zip_code": "15232",
    "latitude": 40.45090739999999,
    "longitude": -79.9335545,
    "website": "https://www.eatshady.com/",
    "category": "Restaurant",
    "types": "restaurant, point_of_interest, food, establishment"
  },
  {
    "place_id": "ChIJuc-YQWf1NIgRi3FYNbcPek0",
    "name": "Howard's Tavern",
    "street_address": "98 Center Avenue",
    "city": "Pittsburgh",
    "state": "PA",
    "zip_code": "15229",
    "latitude": 40.5112242,
    "longitude": -80.0274081,
    "website": "http://howardstavern.com/",
    "category": "Bar & Restaurant",
    "types": "bar, restaurant, point_of_interest, food, establishment"
  },
  {
    "place_id": "ChIJx00RR__5NIgRvbuuqO3iO0o",
    "name": "The Crafthouse Stage & Grill",
    "street_address": "5024 Curry Road",
    "city": "Pittsburgh",
    "state": "PA",
    "zip_code": "15236",
    "latitude": 40.349887,
    "longitude": -79.9962369,
    "website": "http://www.crafthousepgh.com/",
    "category": "Bar & Restaurant",
    "types": "bar, restaurant, food, point_of_interest, establishment"
  },
  {
    "place_id": "ChIJyz4o4Lj5NIgRS6VGeeQqons",
    "name": "The Village TapHouse",
    "street_address": "1778 North Highland Road",
    "city": "Pittsburgh",
    "state": "PA",
    "zip_code": "15241",
    "latitude": 40.3493795,
    "longitude": -80.05189879999999,
    "website": null,
    "category": "Bar & Restaurant",
    "types": "bar, restaurant, point_of_interest, food, establishment"
  },
  {
    "place_id": "ChIJ1_rslmT5NIgR30HWzTto7iE",
    "name": "Willow Station Restaurant and Bar",
    "street_address": "3841 Willow Avenue",
    "city": "Pittsburgh",
    "state": "PA",
    "zip_code": "15234",
    "latitude": 40.365113,
    "longitude": -80.0261797,
    "website": "https://www.thewillowstation.com/",
    "category": "Bar & Restaurant",
    "types": "bar, restaurant, food, point_of_interest, establishment"
  },
  {
    "place_id": "ChIJNeOetx_6NIgRvg7u51rodl8",
    "name": "The Garden Restaurant",
    "street_address": "4912 Gardenville Road",
    "city": "Pittsburgh",
    "state": "PA",
    "zip_code": "15236",
    "latitude": 40.34582409999999,
    "longitude": -80.00727239999999,
    "website": "http://thegardenrestaurant.net/",
    "category": "Bar & Restaurant",
    "types": "restaurant, bar, food, point_of_interest, establishment"
  },
  {
    "place_id": "ChIJwW2TOhvxNIgRjQgQNnvtL1g",
    "name": "Shiloh Gastro",
    "street_address": "123 Shiloh Street",
    "city": "Pittsburgh",
    "state": "PA",
    "zip_code": "15211",
    "latitude": 40.4309853,
    "longitude": -80.0070227,
    "website": "http://www.shilohgastro.com/",
    "category": "Restaurant",
    "types": "restaurant, food, point_of_interest, establishment"
  },
  {
    "place_id": "ChIJydl81uL3NIgRME-y9PqJtvE",
    "name": "Pittsburgh Bottleshop",
    "street_address": "Collier Town Square Drive",
    "city": "Bridgeville",
    "state": "PA",
    "zip_code": "15017",
    "latitude": 40.3825318,
    "longitude": -80.0955814,
    "website": "https://pghbottleshop.com/",
    "category": "Bar & Restaurant",
    "types": "bar, restaurant, food, point_of_interest, establishment"
  },
  {
    "place_id": "ChIJ2RRre0vxNIgRuxbJ4vUVihI",
    "name": "Coughlin's Law Kitchen and Ale House",
    "street_address": "10 Virginia Avenue",
    "city": "Pittsburgh",
    "state": "PA",
    "zip_code": "15211",
    "latitude": 40.4293283,
    "longitude": -80.0066342,
    "website": "https://www.eatatcoughlinslaw.com/",
    "category": "Bar & Restaurant",
    "types": "bar, restaurant, food, point_of_interest, establishment"
  },
  {
    "place_id": "ChIJN2q_Pu32NIgRkLq00CgD7ZA",
    "name": "The Alcove",
    "street_address": "875 Greentree Road",
    "city": "Pittsburgh",
    "state": "PA",
    "zip_code": "15220",
    "latitude": 40.42461120000001,
    "longitude": -80.0408305,
    "website": "https://www.thealcove-pgh.com/",
    "category": "Bar & Restaurant",
    "types": "bar, restaurant, food, point_of_interest, establishment"
  },
  {
    "place_id": "ChIJ7U-39OL5NIgRXhAqwNGOMGI",
    "name": "Chimera Brewing Company",
    "street_address": "3759 Library Road",
    "city": "Pittsburgh",
    "state": "PA",
    "zip_code": "15234",
    "latitude": 40.3642129,
    "longitude": -80.02244499999999,
    "website": "https://chimerabrewingpgh.com/",
    "category": "Bar & Restaurant",
    "types": "bar, restaurant, food, point_of_interest, establishment"
  },
  {
    "place_id": "ChIJq6B99JT5NIgROd9M3rMFPzU",
    "name": "DaDa\u2019s Bar & Grill",
    "street_address": "4962 Library Road",
    "city": "Bethel Park",
    "state": "PA",
    "zip_code": "15102",
    "latitude": 40.3433789,
    "longitude": -80.0272705,
    "website": "http://helmet-heads.lany.io/",
    "category": "Bar & Restaurant",
    "types": "bar, restaurant, food, point_of_interest, establishment"
  },
  {
    "place_id": "ChIJE816nkn5NIgRBggTcKYb2nQ",
    "name": "Castle Tavern South",
    "street_address": "6347 Library Road",
    "city": "Pittsburgh",
    "state": "PA",
    "zip_code": "15129",
    "latitude": 40.2911191,
    "longitude": -80.02851679999999,
    "website": "http://www.castletavernsouth.com/",
    "category": "Bar & Restaurant",
    "types": "bar, restaurant, food, point_of_interest, establishment"
  },
  {
    "place_id": "ChIJSV4liQb6NIgRWMc8ZNTbW0Q",
    "name": "Prior's Tap and Tavern",
    "street_address": "540 Weyman Road",
    "city": "Pittsburgh",
    "state": "PA",
    "zip_code": "15236",
    "latitude": 40.3594826,
    "longitude": -80.00092339999999,
    "website": null,
    "category": "Bar & Restaurant",
    "types": "bar, restaurant, point_of_interest, food, establishment"
  },
  {
    "place_id": "ChIJYVEWR-zwNIgRH1BSP9HLfqw",
    "name": "Fundaze Back Bar",
    "street_address": "2550 Brownsville Road",
    "city": "Pittsburgh",
    "state": "PA",
    "zip_code": "15129",
    "latitude": 40.2938385,
    "longitude": -79.99658199999999,
    "website": null,
    "category": "Bar & Restaurant",
    "types": "bar, restaurant, food, point_of_interest, establishment"
  },
  {
    "place_id": "ChIJ3VVVDU35NIgRh3vfwDDve5w",
    "name": "My Place",
    "street_address": "4113 Brownsville Road",
    "city": "Pittsburgh",
    "state": "PA",
    "zip_code": "15129",
    "latitude": 40.2865623,
    "longitude": -80.02141499999999,
    "website": null,
    "category": "Bar & Restaurant",
    "types": "bar, restaurant, food, point_of_interest, establishment"
  },
  {
    "place_id": "ChIJH5BTG873NIgR-lchGhMtJls",
    "name": "Time Out Sports Bar & Grill",
    "street_address": "300 Mount Lebanon Boulevard",
    "city": "Pittsburgh",
    "state": "PA",
    "zip_code": "15234",
    "latitude": 40.368978,
    "longitude": -80.0342719,
    "website": null,
    "category": "Bar & Restaurant",
    "types": "bar, restaurant, food, point_of_interest, establishment"
  },
  {
    "place_id": "ChIJO26j-kr4NIgRVTDUZAoUk-o",
    "name": "BJ's Restaurant & Brewhouse",
    "street_address": "1819 Washington Road",
    "city": "Pittsburgh",
    "state": "PA",
    "zip_code": "15241",
    "latitude": 40.3450492,
    "longitude": -80.0554569,
    "website": "https://www.bjsrestaurants.com/locations/pa/south-hills?utm_source=google&utm_medium=organic&utm_campaign=google_my_business",
    "category": "Bar & Restaurant",
    "types": "restaurant, bar, food, point_of_interest, establishment"
  },
  {
    "place_id": "ChIJX4aWlp_5NIgRBkptLhYy3i0",
    "name": "Lemonhead's Brightwood Grille",
    "street_address": "5317 Brightwood Road",
    "city": "Bethel Park",
    "state": "PA",
    "zip_code": "15102",
    "latitude": 40.327395,
    "longitude": -80.030103,
    "website": "http://lemonheadsgrille.com/",
    "category": "Bar & Restaurant",
    "types": "restaurant, bar, food, point_of_interest, establishment"
  },
  {
    "place_id": "ChIJLX3CK1P3NIgRLCxbSNy23qg",
    "name": "The Coal Mine",
    "street_address": "3160 Library Road",
    "city": "Castle Shannon",
    "state": "PA",
    "zip_code": "15234",
    "latitude": 40.371693,
    "longitude": -80.0090065,
    "website": "https://ilovethecoalmine.net/",
    "category": "Bar & Restaurant",
    "types": "bar, restaurant, food, point_of_interest, establishment"
  },
  {
    "place_id": "ChIJJwykOkj5NIgRhEASiE-O2QY",
    "name": "Trolley Stop Inn",
    "street_address": "6247 Library Road",
    "city": "Bethel Park",
    "state": "PA",
    "zip_code": "15102",
    "latitude": 40.2934281,
    "longitude": -80.03030660000002,
    "website": "https://www.trolleystopinn.com/",
    "category": "Bar & Restaurant",
    "types": "bar, restaurant, food, point_of_interest, establishment"
  },
  {
    "place_id": "ChIJLWxzwJD5NIgRyhd8ge3Zoc0",
    "name": "LEVEL 20 Restaurant, Bar, & Banquet",
    "street_address": "1033 Paxton Drive",
    "city": "Bethel Park",
    "state": "PA",
    "zip_code": "15102",
    "latitude": 40.33660049999999,
    "longitude": -80.02416439999999,
    "website": "http://www.level20lounge.com/",
    "category": "Bar & Restaurant",
    "types": "restaurant, bar, food, point_of_interest, establishment"
  },
  {
    "place_id": "ChIJy9jua835NIgRAZRZpuRpP3Y",
    "name": "The Yard",
    "street_address": "1500 Washington Road",
    "city": "Pittsburgh",
    "state": "PA",
    "zip_code": "15228",
    "latitude": 40.3570396,
    "longitude": -80.05134749999999,
    "website": "https://www.theyardpgh.com/",
    "category": "Bar & Restaurant",
    "types": "bar, restaurant, food, point_of_interest, establishment"
  },
  {
    "place_id": "ChIJOQV9pc35NIgRg5gdIPo6CtQ",
    "name": "Primanti Bros. Restaurant and Bar",
    "street_address": "1539 Washington Road",
    "city": "Pittsburgh",
    "state": "PA",
    "zip_code": "15228",
    "latitude": 40.3558106,
    "longitude": -80.0495104,
    "website": "https://primantibros.com/",
    "category": "Bar & Restaurant",
    "types": "bar, restaurant, food, point_of_interest, establishment"
  },
  {
    "place_id": "ChIJIYUTDLlVNIgRBkqgs_2nnnw",
    "name": "Juniper Grill - Peters Township",
    "street_address": "4000 Washington Road",
    "city": "Pittsburgh",
    "state": "PA",
    "zip_code": "15317",
    "latitude": 40.2683309,
    "longitude": -80.1293525,
    "website": "https://junipergrill.com/?y_source=1_MjQwODg1NjktNzE1LWxvY2F0aW9uLndlYnNpdGU%3D",
    "category": "Restaurant",
    "types": "restaurant, food, point_of_interest, establishment"
  },
  {
    "place_id": "ChIJpUFQ0LtVNIgRHgFcacRKZfI",
    "name": "Applebee's Grill + Bar",
    "street_address": "4039 Washington Road",
    "city": "McMurray",
    "state": "PA",
    "zip_code": "15317",
    "latitude": 40.2679806,
    "longitude": -80.12826040000002,
    "website": "https://restaurants.applebees.com/en-us/pa/mcmurray/4039-washington-road-88041?utm_source=google&utm_medium=organic&utm_campaign=google_my_business&utm_term=88041&utm_content=website",
    "category": "Bar & Restaurant",
    "types": "restaurant, bar, food, point_of_interest, establishment"
  },
  {
    "place_id": "ChIJGY22SbpVNIgRAYFrxZR5FK0",
    "name": "Capstone Grill",
    "street_address": "4050 Washington Road",
    "city": "Canonsburg",
    "state": "PA",
    "zip_code": "15317",
    "latitude": 40.2670936,
    "longitude": -80.12943260000002,
    "website": "http://thecapstonegrill.com/",
    "category": "Bar & Restaurant",
    "types": "restaurant, bar, food, point_of_interest, establishment"
  },
  {
    "place_id": "ChIJ79mlwa9VNIgRBta6ZKo0XBU",
    "name": "Grande Italian Restaurant",
    "street_address": "4205 Washington Road",
    "city": "McMurray",
    "state": "PA",
    "zip_code": "15317",
    "latitude": 40.261875,
    "longitude": -80.13381199999999,
    "website": "http://www.grandeitalianrestaurant.com/",
    "category": "Bar & Restaurant",
    "types": "meal_takeaway, night_club, bar, restaurant, food, point_of_interest, establishment"
  }
]