[
  {
    "place_id": "ChIJ4fAWDLuglVQRZWSJdYBYIjs",
    "name": "The Eastburn",
    "street_address": "1800 East Burnside Street",
    "city": "Portland",
    "state": "OR",
    "zip_code": "97214",
    "latitude": 45.5227065,
    "longitude": -122.6473215,
    "website": "http://theeastburn.com/",
    "category": "Bar & Restaurant",
    "types": "restaurant, bar, food, point_of_interest, establishment"
  },
  {
    "place_id": "ChIJRaiqsh0KlVQRaKZOkMww5v8",
    "name": "The Cheerful Bullpen",
    "street_address": "1730 Southwest Taylor Street",
    "city": "Portland",
    "state": "OR",
    "zip_code": "97205",
    "latitude": 45.5205906,
    "longitude": -122.6905492,
    "website": "http://www.cheerfulbullpen.com/",
    "category": "Bar & Restaurant",
    "types": "bar, restaurant, food, point_of_interest, establishment"
  },
  {
    "place_id": "ChIJkRjgVXSnlVQRv56kkQ4Z3-g",
    "name": "The Old Gold",
    "street_address": "2105 North Killingsworth Street",
    "city": "Portland",
    "state": "OR",
    "zip_code": "97217",
    "latitude": 45.5629018,
    "longitude": -122.6891739,
    "website": "http://drinkinoregon.com/",
    "category": "Bar & Restaurant",
    "types": "bar, restaurant, food, point_of_interest, establishment"
  },
  {
    "place_id": "ChIJzYieQPcJlVQRI1vxT3DEZzA",
    "name": "McMenamins Blue Moon Tavern & Grill",
    "street_address": "432 Northwest 21st Avenue",
    "city": "Portland",
    "state": "OR",
    "zip_code": "97209",
    "latitude": 45.5262247,
    "longitude": -122.6942738,
    "website": "https://www.mcmenamins.com/blue-moon-tavern-grill?utm_source=Google%20Maps&utm_medium=Website%20Button&utm_campaign=Blue%20Moon",
    "category": "Bar & Restaurant",
    "types": "bar, restaurant, food, point_of_interest, establishment"
  },
  {
    "place_id": "ChIJc6G1WRkKlVQR6JXJeieiDfc",
    "name": "Leaky Roof Gastro Pub",
    "street_address": "1538 Southwest Jefferson Street",
    "city": "Portland",
    "state": "OR",
    "zip_code": "97201",
    "latitude": 45.517455,
    "longitude": -122.6902764,
    "website": "http://www.theleakyroof.com/",
    "category": "Bar & Restaurant",
    "types": "restaurant, bar, food, point_of_interest, establishment"
  },
  {
    "place_id": "ChIJ3VGMj66glVQRsiyWm496sZE",
    "name": "Spirit of 77",
    "street_address": "500 Northeast Martin Luther King Junior Boulevard",
    "city": "Portland",
    "state": "OR",
    "zip_code": "97232",
    "latitude": 45.52674439999999,
    "longitude": -122.6613944,
    "website": "http://www.spiritof77bar.com/?utm_source=google-gmb-maps&utm_medium=gmb-website-button&utm_campaign=locl.io&utm_content=2f344349-6bfc-43f3-9ad5-728bba94bb65",
    "category": "Bar & Restaurant",
    "types": "bar, restaurant, food, point_of_interest, establishment"
  },
  {
    "place_id": "ChIJ_5nWaw8KlVQRns16GQMxuTQ",
    "name": "Paddy's",
    "street_address": "65 Southwest Yamhill Street",
    "city": "Portland",
    "state": "OR",
    "zip_code": "97204",
    "latitude": 45.5171301,
    "longitude": -122.6737971,
    "website": "http://paddys.com/?utm_source=google-gmb-maps&utm_medium=gmb-website-button&utm_campaign=locl.io&utm_content=1dca485b-6be3-457b-94ef-16c40947060f",
    "category": "Bar & Restaurant",
    "types": "bar, restaurant, food, point_of_interest, establishment"
  },
  {
    "place_id": "ChIJ-yjA8wEKlVQRTp0xs2pwp2o",
    "name": "Life Of Riley Tavern",
    "street_address": "300 Northwest 10th Avenue",
    "city": "Portland",
    "state": "OR",
    "zip_code": "97209",
    "latitude": 45.5252729,
    "longitude": -122.6809766,
    "website": "https://www.lifeofrileyportland.com/",
    "category": "Bar & Restaurant",
    "types": "bar, restaurant, food, point_of_interest, establishment"
  },
  {
    "place_id": "ChIJi3w4xwMKlVQRqYKaIGUe4Gg",
    "name": "Quality Bar",
    "street_address": "931 Southwest Oak Street",
    "city": "Portland",
    "state": "OR",
    "zip_code": "97205",
    "latitude": 45.522856,
    "longitude": -122.680705,
    "website": "https://sizzlepie.com/locations/quality-bar",
    "category": "Bar & Restaurant",
    "types": "meal_takeaway, bar, restaurant, point_of_interest, food, establishment"
  },
  {
    "place_id": "ChIJg0ILrBAKlVQR8VubUMrfQzQ",
    "name": "McMenamins Market Street Pub",
    "street_address": "1526 Southwest 10th Avenue",
    "city": "Portland",
    "state": "OR",
    "zip_code": "97201",
    "latitude": 45.51416219999999,
    "longitude": -122.685049,
    "website": "https://www.mcmenamins.com/market-street-pub?utm_source=Google%20Maps&utm_medium=Website%20Button&utm_campaign=Market%20Street",
    "category": "Bar & Restaurant",
    "types": "bar, restaurant, food, point_of_interest, establishment"
  },
  {
    "place_id": "ChIJJY5DP3anlVQRb3ngnO9dSDE",
    "name": "Greeley Avenue Bar & Grill",
    "street_address": "5421 North Greeley Avenue",
    "city": "Portland",
    "state": "OR",
    "zip_code": "97217",
    "latitude": 45.56248069999999,
    "longitude": -122.695876,
    "website": "http://www.greeleyavenue.com/",
    "category": "Bar & Restaurant",
    "types": "bar, store, restaurant, food, point_of_interest, establishment"
  },
  {
    "place_id": "ChIJL6x2avAJlVQRZaobJ0QOQE8",
    "name": "Nob Hill Bar and Grill",
    "street_address": "937 Northwest 23rd Avenue",
    "city": "Portland",
    "state": "OR",
    "zip_code": "97210",
    "latitude": 45.5296817,
    "longitude": -122.6988011,
    "website": "https://www.nobhillpdx.com/",
    "category": "Bar & Restaurant",
    "types": "bar, restaurant, food, point_of_interest, establishment"
  },
  {
    "place_id": "ChIJseikVPYJlVQRmqdDhdarfZ0",
    "name": "Kells Brewery",
    "street_address": "210 Northwest 21st Avenue",
    "city": "Portland",
    "state": "OR",
    "zip_code": "97209",
    "latitude": 45.5245064,
    "longitude": -122.6942117,
    "website": "http://kellsbrewpub.com/",
    "category": "Bar & Restaurant",
    "types": "restaurant, bar, point_of_interest, food, establishment"
  },
  {
    "place_id": "ChIJqZEg3v0JlVQR_mQLfJFVGeo",
    "name": "The Fields Bar & Grill",
    "street_address": "1139 Northwest 11th Avenue",
    "city": "Portland",
    "state": "OR",
    "zip_code": "97209",
    "latitude": 45.5313048,
    "longitude": -122.6826159,
    "website": "http://www.thefieldspdx.com/",
    "category": "Bar & Restaurant",
    "types": "restaurant, bar, lodging, food, point_of_interest, establishment"
  },
  {
    "place_id": "ChIJP1Gp6R4KlVQRbd4hZE7rx4M",
    "name": "Goose Hollow Inn",
    "street_address": "1927 Southwest Jefferson Street",
    "city": "Portland",
    "state": "OR",
    "zip_code": "97201",
    "latitude": 45.5184996,
    "longitude": -122.6938668,
    "website": "http://www.goosehollowinn.com/",
    "category": "Bar & Restaurant",
    "types": "bar, restaurant, food, point_of_interest, establishment"
  },
  {
    "place_id": "ChIJYXNYxfgJlVQRVtbMaPyTNME",
    "name": "Brix Tavern - Pearl",
    "street_address": "1338 Northwest Hoyt Street",
    "city": "Portland",
    "state": "OR",
    "zip_code": "97209",
    "latitude": 45.52710889999999,
    "longitude": -122.6848868,
    "website": "http://brixtavern.com/",
    "category": "Bar & Restaurant",
    "types": "bar, restaurant, point_of_interest, food, establishment"
  },
  {
    "place_id": "ChIJUadtXMQJlVQRiIFTAd8w9BY",
    "name": "Jerry's Tavern",
    "street_address": "3010 Northwest Nicolai Street",
    "city": "Portland",
    "state": "OR",
    "zip_code": "97210",
    "latitude": 45.5382202,
    "longitude": -122.7126793,
    "website": "https://instagram.com/jerrystavern",
    "category": "Bar & Restaurant",
    "types": "bar, restaurant, food, point_of_interest, establishment"
  },
  {
    "place_id": "ChIJzSCVRWMLlVQRiUjHkCZuQ0g",
    "name": "Bullard Tavern",
    "street_address": "813 Southwest Alder Street",
    "city": "Portland",
    "state": "OR",
    "zip_code": "97205",
    "latitude": 45.52045879999999,
    "longitude": -122.6805216,
    "website": "https://www.bullardpdx.com/",
    "category": "Restaurant",
    "types": "restaurant, point_of_interest, food, establishment"
  },
  {
    "place_id": "ChIJFWWLP_kJlVQR16zclvqXbrs",
    "name": "Yur's Bar & Grill",
    "street_address": "717 Northwest 16th Avenue",
    "city": "Portland",
    "state": "OR",
    "zip_code": "97209",
    "latitude": 45.5281729,
    "longitude": -122.6875815,
    "website": "http://yursbarandgrillportland.com/",
    "category": "Bar & Restaurant",
    "types": "bar, restaurant, food, point_of_interest, establishment"
  },
  {
    "place_id": "ChIJB8yvLfYJlVQRJk6GQKFMxpA",
    "name": "Kingston Sports Bar & Grill",
    "street_address": "2021 Southwest Morrison Street",
    "city": "Portland",
    "state": "OR",
    "zip_code": "97205",
    "latitude": 45.5230723,
    "longitude": -122.6927413,
    "website": "https://kingstonsportsbargrill.shop/",
    "category": "Bar & Restaurant",
    "types": "bar, restaurant, food, point_of_interest, establishment"
  },
  {
    "place_id": "ChIJU4OzoWynlVQRxlQMpGenSvA",
    "name": "Prost!",
    "street_address": "4237 North Mississippi Avenue",
    "city": "Portland",
    "state": "OR",
    "zip_code": "97217",
    "latitude": 45.55451569999999,
    "longitude": -122.6757358,
    "website": "http://prostportland.com/",
    "category": "Bar & Restaurant",
    "types": "bar, restaurant, food, point_of_interest, establishment"
  },
  {
    "place_id": "ChIJFZddOxmnlVQRuH5G9FwDEG8",
    "name": "Radio Room",
    "street_address": "1101 Northeast Alberta Street",
    "city": "Portland",
    "state": "OR",
    "zip_code": "97211",
    "latitude": 45.55928429999999,
    "longitude": -122.6542953,
    "website": "http://www.radioroompdx.com/",
    "category": "Bar & Restaurant",
    "types": "cafe, night_club, bar, store, restaurant, food, point_of_interest, establishment"
  },
  {
    "place_id": "ChIJ5ZbnkPgJlVQRzzSp1Cgaaww",
    "name": "10 Barrel Brewing Portland",
    "street_address": "1411 Northwest Flanders Street",
    "city": "Portland",
    "state": "OR",
    "zip_code": "97209",
    "latitude": 45.5259028,
    "longitude": -122.6854889,
    "website": "https://10barrel.com/pub/portland-brewery/",
    "category": "Bar & Restaurant",
    "types": "bar, restaurant, food, point_of_interest, establishment"
  },
  {
    "place_id": "ChIJadG2_MOmlVQRVf-TH0cINsA",
    "name": "NEPO 42",
    "street_address": "5403 Northeast 42nd Avenue",
    "city": "Portland",
    "state": "OR",
    "zip_code": "97218",
    "latitude": 45.5621607,
    "longitude": -122.6207645,
    "website": "http://www.nepo42.com/",
    "category": "Bar & Restaurant",
    "types": "bar, restaurant, food, point_of_interest, establishment"
  },
  {
    "place_id": "ChIJVShd54ihlVQRP858AwUU9LM",
    "name": "Steeplejack Brewing Company",
    "street_address": "2400 Northeast Broadway",
    "city": "Portland",
    "state": "OR",
    "zip_code": "97232",
    "latitude": 45.53490559999999,
    "longitude": -122.6407663,
    "website": "http://www.steeplejackbeer.com/",
    "category": "Bar & Restaurant",
    "types": "restaurant, bar, food, point_of_interest, establishment"
  },
  {
    "place_id": "ChIJVwSCGqeglVQR7NxbQKUascY",
    "name": "My Father's Place",
    "street_address": "523 Southeast Grand Avenue",
    "city": "Portland",
    "state": "OR",
    "zip_code": "97214",
    "latitude": 45.5188455,
    "longitude": -122.6608817,
    "website": "http://www.myfathersplacepdx.com/",
    "category": "Bar & Restaurant",
    "types": "bar, night_club, restaurant, food, point_of_interest, establishment"
  },
  {
    "place_id": "ChIJTftFnMqglVQRQpfJSCXY7qI",
    "name": "The Broadway Grill & Brewery",
    "street_address": "1700 Northeast Broadway",
    "city": "Portland",
    "state": "OR",
    "zip_code": "97232",
    "latitude": 45.5349108,
    "longitude": -122.6482146,
    "website": "http://drinkbeerhere.com/",
    "category": "Bar & Restaurant",
    "types": "bar, restaurant, food, point_of_interest, establishment"
  },
  {
    "place_id": "ChIJ6UnKghoKlVQRDec3N8_R2fE",
    "name": "Higgins",
    "street_address": "1239 Southwest Broadway",
    "city": "Portland",
    "state": "OR",
    "zip_code": "97205",
    "latitude": 45.515572,
    "longitude": -122.682,
    "website": "http://higginsportland.com/",
    "category": "Bar & Restaurant",
    "types": "bar, restaurant, food, point_of_interest, establishment"
  },
  {
    "place_id": "ChIJAWiIP7WglVQRzbt4YpXexjo",
    "name": "McMenamins Broadway Pub",
    "street_address": "1504 Northeast Broadway",
    "city": "Portland",
    "state": "OR",
    "zip_code": "97232",
    "latitude": 45.53477829999999,
    "longitude": -122.6503027,
    "website": "https://www.mcmenamins.com/broadway-pub?utm_source=Google%20Maps&utm_medium=Website%20Button&utm_campaign=Broadway%20Pub",
    "category": "Bar & Restaurant",
    "types": "bar, restaurant, food, point_of_interest, establishment"
  },
  {
    "place_id": "ChIJjcvOr7unlVQRHq-y2XCGX4c",
    "name": "Rose City Book Pub",
    "street_address": "1329 Northeast Fremont Street",
    "city": "Portland",
    "state": "OR",
    "zip_code": "97212",
    "latitude": 45.5483564,
    "longitude": -122.6520837,
    "website": "https://www.rosecitybookpub.com/",
    "category": "Bar & Restaurant",
    "types": "book_store, bar, store, restaurant, food, point_of_interest, establishment"
  },
  {
    "place_id": "ChIJZSXW_qWglVQRg00CFVsmBJ8",
    "name": "Rontoms",
    "street_address": "600 East Burnside Street",
    "city": "Portland",
    "state": "OR",
    "zip_code": "97214",
    "latitude": 45.5227385,
    "longitude": -122.6594745,
    "website": "http://www.rontoms.net/",
    "category": "Bar & Restaurant",
    "types": "bar, restaurant, point_of_interest, food, establishment"
  },
  {
    "place_id": "ChIJ9V3zu5-glVQRnSSqFIztMdA",
    "name": "CARTOPIA FOOD CARTS",
    "street_address": "1207 Southeast Hawthorne Boulevard",
    "city": "Portland",
    "state": "OR",
    "zip_code": "97214",
    "latitude": 45.5124351,
    "longitude": -122.6533959,
    "website": "http://www.cartopiafoodcarts.com/",
    "category": "Bar & Restaurant",
    "types": "bar, restaurant, food, point_of_interest, establishment"
  },
  {
    "place_id": "ChIJo7T7PAIKlVQRzFN3YCTy1jE",
    "name": "Deschutes Brewery Portland Public House",
    "street_address": "210 Northwest 11th Avenue",
    "city": "Portland",
    "state": "OR",
    "zip_code": "97209",
    "latitude": 45.5245778,
    "longitude": -122.6820218,
    "website": "https://www.deschutesbrewery.com/visit-us/portland-public-house/?y_source=1_MzI3NTk4OTQtNzE1LWxvY2F0aW9uLndlYnNpdGU%3D",
    "category": "Bar & Restaurant",
    "types": "bar, restaurant, food, point_of_interest, establishment"
  },
  {
    "place_id": "ChIJuRhRnVinlVQRUXDeyiWrP4I",
    "name": "Dockside Saloon & Restaurant",
    "street_address": "2047 Northwest Front Avenue",
    "city": "Portland",
    "state": "OR",
    "zip_code": "97209",
    "latitude": 45.537709,
    "longitude": -122.68851,
    "website": "http://www.docksidesaloon.com/",
    "category": "Bar & Restaurant",
    "types": "bar, restaurant, food, point_of_interest, establishment"
  },
  {
    "place_id": "ChIJE1ORKoIKlVQRRH7WmIJTTDc",
    "name": "C-Bar PDX",
    "street_address": "2886 Southeast Gladstone Street",
    "city": "Portland",
    "state": "OR",
    "zip_code": "97202",
    "latitude": 45.4931729,
    "longitude": -122.6358098,
    "website": "http://www.cbar.pub/",
    "category": "Bar & Restaurant",
    "types": "restaurant, bar, food, point_of_interest, establishment"
  },
  {
    "place_id": "ChIJI5RcSg6nlVQRqYCEzfJnQYo",
    "name": "McMenamins Chapel Pub",
    "street_address": "430 North Killingsworth Street",
    "city": "Portland",
    "state": "OR",
    "zip_code": "97217",
    "latitude": 45.5624895,
    "longitude": -122.6708772,
    "website": "https://www.mcmenamins.com/chapel-pub?utm_source=Google%20Maps&utm_medium=Website%20Button&utm_campaign=Chapel%20Pub",
    "category": "Bar & Restaurant",
    "types": "bar, restaurant, food, point_of_interest, establishment"
  },
  {
    "place_id": "ChIJEzz3GqeglVQRNvF-EzuCLm0",
    "name": "Slow Bar",
    "street_address": "533 Southeast Grand Avenue",
    "city": "Portland",
    "state": "OR",
    "zip_code": "97214",
    "latitude": 45.518772,
    "longitude": -122.6610478,
    "website": "http://www.slowbar.net/",
    "category": "Bar & Restaurant",
    "types": "bar, restaurant, food, point_of_interest, establishment"
  },
  {
    "place_id": "ChIJzZ22ArwLlVQRFXIUWwNiG5c",
    "name": "45th Street Pub & Grill",
    "street_address": "4511 Southwest Beaverton Hillsdale Highway",
    "city": "Portland",
    "state": "OR",
    "zip_code": "97221",
    "latitude": 45.48598199999999,
    "longitude": -122.72346,
    "website": "https://www.facebook.com/45thStreetPubAndGrill",
    "category": "Bar & Restaurant",
    "types": "bar, restaurant, food, point_of_interest, establishment"
  },
  {
    "place_id": "ChIJ9SXxAZKglVQR3WII-Y-kATs",
    "name": "Mulligan's Bar & Grill",
    "street_address": "3518 Southeast Hawthorne Boulevard",
    "city": "Portland",
    "state": "OR",
    "zip_code": "97214",
    "latitude": 45.511939,
    "longitude": -122.6282158,
    "website": null,
    "category": "Bar & Restaurant",
    "types": "bar, restaurant, food, point_of_interest, establishment"
  },
  {
    "place_id": "ChIJLYbLLgcKlVQRuap64pGoTf0",
    "name": "Dante's",
    "street_address": "350 West Burnside Street",
    "city": "Portland",
    "state": "OR",
    "zip_code": "97209",
    "latitude": 45.5229694,
    "longitude": -122.6737417,
    "website": "http://www.danteslive.com/",
    "category": "Bar & Restaurant",
    "types": "bar, restaurant, food, point_of_interest, establishment"
  },
  {
    "place_id": "ChIJxekZsUOglVQRbHDJJVexneQ",
    "name": "The Lodge Bar and Grill",
    "street_address": "6605 Southeast Powell Boulevard",
    "city": "Portland",
    "state": "OR",
    "zip_code": "97206",
    "latitude": 45.49760819999999,
    "longitude": -122.5954592,
    "website": null,
    "category": "Bar & Restaurant",
    "types": "bar, restaurant, food, point_of_interest, establishment"
  },
  {
    "place_id": "ChIJGyAxD-6glVQR3u4lA-3bmy4",
    "name": "Horse Brass Pub",
    "street_address": "4534 Southeast Belmont Street",
    "city": "Portland",
    "state": "OR",
    "zip_code": "97215",
    "latitude": 45.5164208,
    "longitude": -122.6154707,
    "website": "http://horsebrass.com/",
    "category": "Bar & Restaurant",
    "types": "bar, restaurant, food, point_of_interest, establishment"
  },
  {
    "place_id": "ChIJvWZ6IU6hlVQRHU50g5-PbuA",
    "name": "Park City Pub",
    "street_address": "8025 Northeast Sandy Boulevard",
    "city": "Portland",
    "state": "OR",
    "zip_code": "97213",
    "latitude": 45.5519816,
    "longitude": -122.5802193,
    "website": "https://parkcity.pub/",
    "category": "Bar & Restaurant",
    "types": "bar, store, restaurant, food, point_of_interest, establishment"
  },
  {
    "place_id": "ChIJtQM3w56glVQR5vy5of4QDE4",
    "name": "McMenamins Barley Mill Pub",
    "street_address": "1629 Southeast Hawthorne Boulevard",
    "city": "Portland",
    "state": "OR",
    "zip_code": "97214",
    "latitude": 45.5124225,
    "longitude": -122.6487821,
    "website": "https://www.mcmenamins.com/barley-mill-pub?utm_source=Google%20Maps&utm_medium=Website%20Button&utm_campaign=Barley%20Mill",
    "category": "Bar & Restaurant",
    "types": "bar, restaurant, food, point_of_interest, establishment"
  },
  {
    "place_id": "ChIJWcwY2nUKlVQRcXrtbTFORnk",
    "name": "Firkin Tavern",
    "street_address": "1937 Southeast 11th Avenue",
    "city": "Portland",
    "state": "OR",
    "zip_code": "97214",
    "latitude": 45.50877089999999,
    "longitude": -122.6548722,
    "website": "https://m.facebook.com/thefirkintavern",
    "category": "Bar & Restaurant",
    "types": "bar, restaurant, food, point_of_interest, establishment"
  },
  {
    "place_id": "ChIJO89iH-SglVQRCOJ6kjzWnFc",
    "name": "Tabor Tavern",
    "street_address": "5325 East Burnside Street",
    "city": "Portland",
    "state": "OR",
    "zip_code": "97215",
    "latitude": 45.5230014,
    "longitude": -122.6083716,
    "website": "http://www.tabortavern.com/",
    "category": "Bar & Restaurant",
    "types": "bar, restaurant, food, point_of_interest, establishment"
  },
  {
    "place_id": "ChIJo89E_b6glVQRZ-r6Erd1RK4",
    "name": "Holman's Bar & Grill",
    "street_address": "15 Southeast 28th Avenue",
    "city": "Portland",
    "state": "OR",
    "zip_code": "97214",
    "latitude": 45.5225407,
    "longitude": -122.6375437,
    "website": "http://www.holmanspdx.com/",
    "category": "Bar & Restaurant",
    "types": "bar, restaurant, food, point_of_interest, establishment"
  },
  {
    "place_id": "ChIJOyPr6BqhlVQR2Z1eheVo86I",
    "name": "Hour Glass Pub & Eatery",
    "street_address": "7401 Northeast Glisan Street",
    "city": "Portland",
    "state": "OR",
    "zip_code": "97213",
    "latitude": 45.52658839999999,
    "longitude": -122.5866089,
    "website": null,
    "category": "Bar & Restaurant",
    "types": "bar, restaurant, food, point_of_interest, establishment"
  },
  {
    "place_id": "ChIJc2HuR5OglVQRvhc7_cQdZCU",
    "name": "Triple Nickel Pub",
    "street_address": "3646 Southeast Belmont Street",
    "city": "Portland",
    "state": "OR",
    "zip_code": "97214",
    "latitude": 45.516361,
    "longitude": -122.6261342,
    "website": "https://triplenickelpub.com/",
    "category": "Bar & Restaurant",
    "types": "night_club, bar, restaurant, food, point_of_interest, establishment"
  },
  {
    "place_id": "ChIJWXe2tW6glVQRcb0QufwGwTA",
    "name": "Slingshot Lounge",
    "street_address": "5532 Southeast Center Street",
    "city": "Portland",
    "state": "OR",
    "zip_code": "97206",
    "latitude": 45.493679,
    "longitude": -122.605545,
    "website": "http://slingshotlounge.com/",
    "category": "Bar & Restaurant",
    "types": "bar, night_club, restaurant, food, point_of_interest, establishment"
  },
  {
    "place_id": "ChIJARsTdTOhlVQRS5Z-65AwD_c",
    "name": "Peter's Bar and Grill",
    "street_address": "5701 Northeast Fremont Street",
    "city": "Portland",
    "state": "OR",
    "zip_code": "97213",
    "latitude": 45.5483948,
    "longitude": -122.6044133,
    "website": "http://www.petersbarandgrill.com/",
    "category": "Bar & Restaurant",
    "types": "bar, restaurant, food, point_of_interest, establishment"
  },
  {
    "place_id": "ChIJ_RB5gZSglVQRZG5L-9SSi_0",
    "name": "Side Street",
    "street_address": "828 Southeast 34th Avenue",
    "city": "Portland",
    "state": "OR",
    "zip_code": "97214",
    "latitude": 45.5167681,
    "longitude": -122.6293914,
    "website": "http://www.sidestreetpdx.com/",
    "category": "Bar & Restaurant",
    "types": "bar, restaurant, food, point_of_interest, establishment"
  },
  {
    "place_id": "ChIJ06PONwUKlVQRi0d7AQ5v6AQ",
    "name": "HopCity Tavern + Market",
    "street_address": "921 Southwest 6th Avenue",
    "city": "Portland",
    "state": "OR",
    "zip_code": "97204",
    "latitude": 45.51753999999999,
    "longitude": -122.68002,
    "website": "https://www3.hilton.com/en/hotels/oregon/hilton-portland-downtown-PDXPHHH/dining/index.html?y_source=1_MTI0MjQ4MjgtNzE1LWxvY2F0aW9uLndlYnNpdGU=",
    "category": "Bar & Restaurant",
    "types": "restaurant, cafe, bar, food, point_of_interest, establishment"
  },
  {
    "place_id": "ChIJNw5q_AMKlVQR13BZSNPi39I",
    "name": "The Independent Sports Bar & Grill",
    "street_address": "225 Southwest Broadway",
    "city": "Portland",
    "state": "OR",
    "zip_code": "97205",
    "latitude": 45.5222419,
    "longitude": -122.6783587,
    "website": "https://www.independentpdx.com/?utm_source=google-gmb-maps&utm_medium=gmb-website-button&utm_campaign=locl.io&utm_content=2e1dea88-2527-4f25-8a30-a71ef4b155ae",
    "category": "Bar & Restaurant",
    "types": "bar, restaurant, food, point_of_interest, establishment"
  },
  {
    "place_id": "ChIJrckB5xIKlVQRj1xWWkyHlZ4",
    "name": "Portland Sports Bar & Grill",
    "street_address": "1811 South River Drive",
    "city": "Portland",
    "state": "OR",
    "zip_code": "97201",
    "latitude": 45.5090698,
    "longitude": -122.6738068,
    "website": "http://www.portlandsportsbarandgrill.com/",
    "category": "Bar & Restaurant",
    "types": "bar, restaurant, food, point_of_interest, establishment"
  },
  {
    "place_id": "ChIJpzG4GdOmlVQRAxosa4QdVKc",
    "name": "Mc Peets Portland Pub",
    "street_address": "4501 Northeast Fremont Street",
    "city": "Portland",
    "state": "OR",
    "zip_code": "97213",
    "latitude": 45.54844729999999,
    "longitude": -122.6169933,
    "website": "https://mcpeets.com/",
    "category": "Bar & Restaurant",
    "types": "bar, restaurant, food, point_of_interest, establishment"
  },
  {
    "place_id": "ChIJVWLY_b2nlVQRClzhENvDyE4",
    "name": "Mock Crest Tavern",
    "street_address": "3435 North Lombard Street",
    "city": "Portland",
    "state": "OR",
    "zip_code": "97217",
    "latitude": 45.577259,
    "longitude": -122.702404,
    "website": "http://www.mockcrest.com/",
    "category": "Bar & Restaurant",
    "types": "bar, restaurant, food, point_of_interest, store, establishment"
  },
  {
    "place_id": "ChIJ9Rr82ranlVQRdQQ16DNOOGA",
    "name": "Kenton Station Restaurant and Pub",
    "street_address": "8303 North Denver Avenue",
    "city": "Portland",
    "state": "OR",
    "zip_code": "97217",
    "latitude": 45.5832182,
    "longitude": -122.6870865,
    "website": "http://kentonstationportland.com/",
    "category": "Bar & Restaurant",
    "types": "restaurant, bar, food, point_of_interest, establishment"
  },
  {
    "place_id": "ChIJB9haRd2mlVQR2OxbkKOvndc",
    "name": "Concordia Ale House",
    "street_address": "3276 Northeast Killingsworth Street",
    "city": "Portland",
    "state": "OR",
    "zip_code": "97211",
    "latitude": 45.5625,
    "longitude": -122.6311111,
    "website": "http://concordiaalehousepdx.com/",
    "category": "Bar & Restaurant",
    "types": "bar, restaurant, food, point_of_interest, establishment"
  },
  {
    "place_id": "ChIJGzjzFxmnlVQRjtCplYH_tEc",
    "name": "Alberta Street Pub",
    "street_address": "1036 Northeast Alberta Street",
    "city": "Portland",
    "state": "OR",
    "zip_code": "97211",
    "latitude": 45.5589313,
    "longitude": -122.6548335,
    "website": "http://www.albertastreetpub.com/",
    "category": "Bar & Restaurant",
    "types": "bar, restaurant, food, point_of_interest, establishment"
  },
  {
    "place_id": "ChIJra1GXrynlVQRp44V9FTCeFE",
    "name": "Sweet Home Bar & Grill",
    "street_address": "2824 North Lombard Street",
    "city": "Portland",
    "state": "OR",
    "zip_code": "97217",
    "latitude": 45.5769483,
    "longitude": -122.696096,
    "website": "https://sweethomepdx.org/",
    "category": "Bar & Restaurant",
    "types": "bar, restaurant, food, point_of_interest, establishment"
  },
  {
    "place_id": "ChIJwy59OaenlVQRGkQbg6XjYP8",
    "name": "Nite Hawk",
    "street_address": "6423 North Interstate Avenue",
    "city": "Portland",
    "state": "OR",
    "zip_code": "97217",
    "latitude": 45.56944439999999,
    "longitude": -122.6825,
    "website": "http://thenitehawk.net/",
    "category": "Bar & Restaurant",
    "types": "bar, restaurant, point_of_interest, food, establishment"
  },
  {
    "place_id": "ChIJL0iMOAynlVQRuOtLNYXlTdk",
    "name": "Saraveza",
    "street_address": "1004 North Killingsworth Street",
    "city": "Portland",
    "state": "OR",
    "zip_code": "97217",
    "latitude": 45.5624639,
    "longitude": -122.6771944,
    "website": "http://www.saraveza.com/",
    "category": "Bar & Restaurant",
    "types": "liquor_store, bar, store, restaurant, food, point_of_interest, establishment"
  },
  {
    "place_id": "ChIJ2220D8WmlVQR7x0rrEN13t4",
    "name": "Spare Room Restaurant & Lounge",
    "street_address": "4830 Northeast 42nd Avenue",
    "city": "Portland",
    "state": "OR",
    "zip_code": "97218",
    "latitude": 45.5580882,
    "longitude": -122.6201405,
    "website": "http://www.spareroomrestaurantandlounge.com/",
    "category": "Bar & Restaurant",
    "types": "bar, restaurant, food, point_of_interest, establishment"
  },
  {
    "place_id": "ChIJ1fA5ywQKlVQRqoqlrghcX74",
    "name": "Virginia Cafe",
    "street_address": "820 Southwest 10th Avenue",
    "city": "Portland",
    "state": "OR",
    "zip_code": "97205",
    "latitude": 45.51888749999999,
    "longitude": -122.6824984,
    "website": "http://www.virginiacafepdx.com/",
    "category": "Bar & Restaurant",
    "types": "cafe, bar, restaurant, food, point_of_interest, establishment"
  },
  {
    "place_id": "ChIJe8P1AwMKlVQRhUubOgPTqmA",
    "name": "Jake's Famous Crawfish",
    "street_address": "401 Southwest 12th Avenue",
    "city": "Portland",
    "state": "OR",
    "zip_code": "97205",
    "latitude": 45.5225,
    "longitude": -122.68347,
    "website": "https://www.jakesfamous.com/",
    "category": "Bar & Restaurant",
    "types": "bar, restaurant, food, point_of_interest, establishment"
  },
  {
    "place_id": "ChIJI11Np-0LlVQRhyEQwqKmjtw",
    "name": "Dublin Pub",
    "street_address": "6821 Southwest Beaverton Hillsdale Highway",
    "city": "Portland",
    "state": "OR",
    "zip_code": "97225",
    "latitude": 45.48675530000001,
    "longitude": -122.7474441,
    "website": "http://www.dublinpubpdx.com/",
    "category": "Bar & Restaurant",
    "types": "bar, restaurant, food, point_of_interest, establishment"
  },
  {
    "place_id": "ChIJdbO_-PAJlVQRhWfdWLlIHHY",
    "name": "Fireside",
    "street_address": "801 Northwest 23rd Avenue",
    "city": "Portland",
    "state": "OR",
    "zip_code": "97210",
    "latitude": 45.5285622,
    "longitude": -122.6987615,
    "website": "https://pdxfireside.com/",
    "category": "Bar & Restaurant",
    "types": "bar, restaurant, food, point_of_interest, establishment"
  },
  {
    "place_id": "ChIJN9OJh-6nlVQRlWXFoanZYOo",
    "name": "Twilight Room",
    "street_address": "5242 North Lombard Street",
    "city": "Portland",
    "state": "OR",
    "zip_code": "97203",
    "latitude": 45.581769,
    "longitude": -122.7226521,
    "website": "http://thetwilightroom.com/",
    "category": "Bar & Restaurant",
    "types": "bar, restaurant, food, point_of_interest, establishment"
  },
  {
    "place_id": "ChIJTdJVdjmmlVQRxVS3_Sn-IRg",
    "name": "Ponderosa Lounge & Grill",
    "street_address": "10350 North Vancouver Way",
    "city": "Portland",
    "state": "OR",
    "zip_code": "97217",
    "latitude": 45.5973604,
    "longitude": -122.6687472,
    "website": "http://jubitz.com/ponderosa-lounge-country-bar/",
    "category": "Bar & Restaurant",
    "types": "bar, restaurant, food, point_of_interest, establishment"
  },
  {
    "place_id": "ChIJPfYHHOKnlVQRmJPIpegomEA",
    "name": "Over Easy Bar and Breakfast",
    "street_address": "6801 North Columbia Way",
    "city": "Portland",
    "state": "OR",
    "zip_code": "97203",
    "latitude": 45.5930862,
    "longitude": -122.7326808,
    "website": "https://overeasy.bar/",
    "category": "Bar & Restaurant",
    "types": "bar, restaurant, food, point_of_interest, establishment"
  },
  {
    "place_id": "ChIJR0-JXuynlVQR7A8PU6YqU40",
    "name": "Darcy's Restaurant & Bar",
    "street_address": "4808 North Lombard Street",
    "city": "Portland",
    "state": "OR",
    "zip_code": "97203",
    "latitude": 45.580304,
    "longitude": -122.7187004,
    "website": null,
    "category": "Bar & Restaurant",
    "types": "bar, restaurant, food, point_of_interest, establishment"
  },
  {
    "place_id": "ChIJS_AWdeKnlVQRbQVIm1E_OBA",
    "name": "McMenamins White Eagle Saloon",
    "street_address": "836 North Russell Street",
    "city": "Portland",
    "state": "OR",
    "zip_code": "97227",
    "latitude": 45.5407667,
    "longitude": -122.6754599,
    "website": "https://www.mcmenamins.com/white-eagle-saloon-hotel?utm_source=Google%20Maps&utm_medium=Website%20Button&utm_campaign=White%20Eagle",
    "category": "Bar & Restaurant",
    "types": "bar, restaurant, point_of_interest, food, establishment"
  },
  {
    "place_id": "ChIJFd93O3ShlVQRtIObkMwT5JU",
    "name": "Boss Hawgs Bar 'N' Grill",
    "street_address": "617 Northeast 102nd Avenue",
    "city": "Portland",
    "state": "OR",
    "zip_code": "97220",
    "latitude": 45.527127,
    "longitude": -122.5586651,
    "website": null,
    "category": "Bar & Restaurant",
    "types": "bar, restaurant, food, point_of_interest, establishment"
  },
  {
    "place_id": "ChIJ2Wbp3ZwLlVQRJAWs5GfyZD0",
    "name": "Taylor Street Tavern",
    "street_address": "808 Southwest Taylor Street",
    "city": "Portland",
    "state": "OR",
    "zip_code": "97205",
    "latitude": 45.51819640000001,
    "longitude": -122.6814864,
    "website": "http://taylorstreettavern.com/",
    "category": "Restaurant",
    "types": "restaurant, food, point_of_interest, establishment"
  },
  {
    "place_id": "ChIJh-IdgxYKlVQRm5Ia3991iWU",
    "name": "Cheerful Tortoise",
    "street_address": "1939 Southwest 6th Avenue",
    "city": "Portland",
    "state": "OR",
    "zip_code": "97201",
    "latitude": 45.509955,
    "longitude": -122.683843,
    "website": "http://www.cheerfultortoise.com/",
    "category": "Bar & Restaurant",
    "types": "night_club, bar, restaurant, food, point_of_interest, establishment"
  },
  {
    "place_id": "ChIJbbDcNL4LlVQRcaF7BzHDRqE",
    "name": "Clubhouse Bar and Grill",
    "street_address": "5134 Southwest Beaverton Hillsdale Highway",
    "city": "Portland",
    "state": "OR",
    "zip_code": "97221",
    "latitude": 45.48678470000001,
    "longitude": -122.7302145,
    "website": "http://www.clubhouseportland.com/",
    "category": "Bar & Restaurant",
    "types": "bar, restaurant, food, point_of_interest, establishment"
  },
  {
    "place_id": "ChIJdeDLO2kLlVQRQ2rMXr6dP-Q",
    "name": "High Horse",
    "street_address": "520 Southwest Broadway",
    "city": "Portland",
    "state": "OR",
    "zip_code": "97205",
    "latitude": 45.5203913,
    "longitude": -122.6788608,
    "website": "https://www.highhorsepdx.com/",
    "category": "Restaurant",
    "types": "restaurant, food, point_of_interest, establishment"
  },
  {
    "place_id": "ChIJdeB0mXMLlVQRgFTEHIUjiGs",
    "name": "The Ship Tavern",
    "street_address": "7827 Southwest 35th Avenue",
    "city": "Portland",
    "state": "OR",
    "zip_code": "97219",
    "latitude": 45.4677307,
    "longitude": -122.7130128,
    "website": "http://www.mvship.com/",
    "category": "Bar & Restaurant",
    "types": "bar, restaurant, food, point_of_interest, establishment"
  },
  {
    "place_id": "ChIJR3D-cuoKlVQRoE0E4B_p9Ek",
    "name": "Oaks Bottom Public House",
    "street_address": "1621 Southeast Bybee Boulevard",
    "city": "Portland",
    "state": "OR",
    "zip_code": "97202",
    "latitude": 45.47380679999999,
    "longitude": -122.6493234,
    "website": "http://theoakspubpdx.com/",
    "category": "Restaurant",
    "types": "restaurant, food, point_of_interest, establishment"
  },
  {
    "place_id": "ChIJccTfadkKlVQRVXQzMkbEWMs",
    "name": "The Muddy Rudder Public House",
    "street_address": "8105 Southeast 7th Avenue",
    "city": "Portland",
    "state": "OR",
    "zip_code": "97202",
    "latitude": 45.4641791,
    "longitude": -122.6592179,
    "website": "http://muddyrudderpdx.com/",
    "category": "Bar & Restaurant",
    "types": "bar, restaurant, food, point_of_interest, establishment"
  },
  {
    "place_id": "ChIJ1Th_BIkKlVQRFmcYq87lN5Y",
    "name": "Houndogs Bar & Grill",
    "street_address": "4463 Southeast Milwaukie Avenue",
    "city": "Portland",
    "state": "OR",
    "zip_code": "97202",
    "latitude": 45.4905858,
    "longitude": -122.6515833,
    "website": null,
    "category": "Bar & Restaurant",
    "types": "bar, restaurant, food, point_of_interest, establishment"
  },
  {
    "place_id": "ChIJje5-6nILlVQRaRTAcYhyo2k",
    "name": "Jimmy's Bar & Grill",
    "street_address": "3017 Southwest Multnomah Boulevard",
    "city": "Portland",
    "state": "OR",
    "zip_code": "97219",
    "latitude": 45.4666584,
    "longitude": -122.7082142,
    "website": null,
    "category": "Bar & Restaurant",
    "types": "bar, restaurant, food, point_of_interest, establishment"
  },
  {
    "place_id": "ChIJdwTUg5B0lVQRwQ4VLLXtik0",
    "name": "Firehouse Pub",
    "street_address": "23 A Avenue",
    "city": "Lake Oswego",
    "state": "OR",
    "zip_code": "97034",
    "latitude": 45.4195098,
    "longitude": -122.6633191,
    "website": null,
    "category": "Bar & Restaurant",
    "types": "bar, restaurant, food, point_of_interest, establishment"
  },
  {
    "place_id": "ChIJJRM1euMKlVQR20NqEAq3DKY",
    "name": "Buffalo Gap Saloon & Eatery: Restaurant & Bar",
    "street_address": "6835 South Macadam Avenue",
    "city": "Portland",
    "state": "OR",
    "zip_code": "97219",
    "latitude": 45.4745113,
    "longitude": -122.6718873,
    "website": "http://www.thebuffalogap.com/",
    "category": "Bar & Restaurant",
    "types": "bar, restaurant, food, point_of_interest, establishment"
  },
  {
    "place_id": "ChIJd-7qzox1lVQRm9opl9QV-1E",
    "name": "Duke's Public House",
    "street_address": "506 A Avenue",
    "city": "Lake Oswego",
    "state": "OR",
    "zip_code": "97034",
    "latitude": 45.4197233,
    "longitude": -122.6695129,
    "website": "http://dukesph.com/",
    "category": "Bar & Restaurant",
    "types": "restaurant, bar, food, point_of_interest, establishment"
  },
  {
    "place_id": "ChIJDXE1ugALlVQRXuQg1jWyYLQ",
    "name": "McMenamins Hillsdale Brewery & Public House",
    "street_address": "1505 Southwest Sunset Boulevard",
    "city": "Portland",
    "state": "OR",
    "zip_code": "97239",
    "latitude": 45.4791778,
    "longitude": -122.693708,
    "website": "https://www.mcmenamins.com/hillsdale-brewery-public-house?utm_source=Google%20Maps&utm_medium=Website%20Button&utm_campaign=Hillsdale",
    "category": "Bar & Restaurant",
    "types": "bar, restaurant, food, point_of_interest, establishment"
  },
  {
    "place_id": "ChIJMWTzu950lVQRpYo52mK9QwQ",
    "name": "River Roadhouse",
    "street_address": "11921 Southeast 22nd Avenue",
    "city": "Milwaukie",
    "state": "OR",
    "zip_code": "97222",
    "latitude": 45.43814179999999,
    "longitude": -122.6411986,
    "website": null,
    "category": "Bar & Restaurant",
    "types": "bar, restaurant, food, point_of_interest, establishment"
  },
  {
    "place_id": "ChIJx6nG0Bt1lVQRF_7ua8dsRmg",
    "name": "Jo's Saloon & Eatery",
    "street_address": "4400 Southeast International Way",
    "city": "Portland",
    "state": "OR",
    "zip_code": "97222",
    "latitude": 45.435862,
    "longitude": -122.6176876,
    "website": "https://www.jossaloon.net/",
    "category": "Bar & Restaurant",
    "types": "bar, restaurant, food, point_of_interest, establishment"
  },
  {
    "place_id": "ChIJr_heRvsKlVQRbM3SyUpQWY4",
    "name": "McMenamins Fulton Pub & Brewery",
    "street_address": "0618 Southwest Nebraska Street",
    "city": "Portland",
    "state": "OR",
    "zip_code": "97239",
    "latitude": 45.4770316,
    "longitude": -122.672752,
    "website": "https://www.mcmenamins.com/fulton-pub-brewery?utm_source=Google%20Maps&utm_medium=Website%20Button&utm_campaign=Fulton%20Pub",
    "category": "Bar & Restaurant",
    "types": "bar, restaurant, point_of_interest, food, establishment"
  },
  {
    "place_id": "ChIJO400m3MLlVQRDi3x9MmqV4c",
    "name": "Renner's Grill",
    "street_address": "7819 Southwest Capitol Highway",
    "city": "Portland",
    "state": "OR",
    "zip_code": "97219",
    "latitude": 45.4680444,
    "longitude": -122.7133,
    "website": null,
    "category": "Bar & Restaurant",
    "types": "night_club, bar, restaurant, food, point_of_interest, establishment"
  },
  {
    "place_id": "ChIJe3v5eNh0lVQRXL3w-ZPaSiI",
    "name": "Duffy's Pub",
    "street_address": "11050 Southeast 21st Avenue",
    "city": "Milwaukie",
    "state": "OR",
    "zip_code": "97222",
    "latitude": 45.44276669999999,
    "longitude": -122.6397073,
    "website": "http://www.duffyspdx.com/",
    "category": "Bar & Restaurant",
    "types": "bar, restaurant, food, point_of_interest, establishment"
  },
  {
    "place_id": "ChIJVVXJs9sKlVQRx_amF0Knxhg",
    "name": "The Dive Bar",
    "street_address": "1112 Southeast Tacoma Street",
    "city": "Portland",
    "state": "OR",
    "zip_code": "97202",
    "latitude": 45.4640507,
    "longitude": -122.6546311,
    "website": "https://www.facebook.com/thedivebarpdx/",
    "category": "Bar & Restaurant",
    "types": "bar, restaurant, food, point_of_interest, establishment"
  },
  {
    "place_id": "ChIJ93hrFW-glVQRLRXzkSxkSRs",
    "name": "Trap Restaurant",
    "street_address": "3805 Southeast 52nd Avenue",
    "city": "Portland",
    "state": "OR",
    "zip_code": "97206",
    "latitude": 45.495374,
    "longitude": -122.609197,
    "website": null,
    "category": "Bar & Restaurant",
    "types": "bar, restaurant, food, point_of_interest, establishment"
  },
  {
    "place_id": "ChIJz-505c-hlVQRZA9MhXQI1ZM",
    "name": "The Daily Planet",
    "street_address": "11312 Southeast Powell Boulevard",
    "city": "Portland",
    "state": "OR",
    "zip_code": "97266",
    "latitude": 45.4963865,
    "longitude": -122.546683,
    "website": "http://dailyplanetpdx.com/",
    "category": "Bar & Restaurant",
    "types": "bar, restaurant, food, point_of_interest, establishment"
  },
  {
    "place_id": "ChIJofijhNyhlVQR6uBV1jRQpcA",
    "name": "Powell Hurst Tavern",
    "street_address": "12344 Southeast Powell Boulevard",
    "city": "Portland",
    "state": "OR",
    "zip_code": "97236",
    "latitude": 45.4969444,
    "longitude": -122.5361111,
    "website": null,
    "category": "Bar & Restaurant",
    "types": "bar, restaurant, food, point_of_interest, establishment"
  },
  {
    "place_id": "ChIJORXiTSemlVQRgB2-xE-i-Nw",
    "name": "Anchor Bar",
    "street_address": "11915 North Center Avenue",
    "city": "Portland",
    "state": "OR",
    "zip_code": "97217",
    "latitude": 45.609322,
    "longitude": -122.680837,
    "website": "https://anchorbar.shop/",
    "category": "Bar & Restaurant",
    "types": "bar, restaurant, food, point_of_interest, establishment"
  },
  {
    "place_id": "ChIJgfrGhbaolVQRAvW-xZdAzAs",
    "name": "Tap Union Freehouse",
    "street_address": "1300 Washington Street",
    "city": "Vancouver",
    "state": "WA",
    "zip_code": "98660",
    "latitude": 45.63116970000001,
    "longitude": -122.6731067,
    "website": "http://www.tapunionfreehouse.com/",
    "category": "Bar & Restaurant",
    "types": "night_club, liquor_store, bar, store, restaurant, food, point_of_interest, establishment"
  },
  {
    "place_id": "ChIJgWyMGTCplVQROcGYRdycTpI",
    "name": "Waterfront Taphouse",
    "street_address": "801 Waterfront Way",
    "city": "Vancouver",
    "state": "WA",
    "zip_code": "98660",
    "latitude": 45.624257,
    "longitude": -122.6812514,
    "website": "https://thewaterfronttaphouse.com/",
    "category": "Bar & Restaurant",
    "types": "restaurant, bar, food, point_of_interest, establishment"
  },
  {
    "place_id": "ChIJz2VSdtWplVQR8euPvww9Ets",
    "name": "Penalties Sports Pub",
    "street_address": "115 East 7th Street",
    "city": "Vancouver",
    "state": "WA",
    "zip_code": "98660",
    "latitude": 45.6262836,
    "longitude": -122.6708024,
    "website": null,
    "category": "Bar & Restaurant",
    "types": "bar, restaurant, point_of_interest, food, establishment"
  },
  {
    "place_id": "ChIJg4gaSsiplVQRNbnD5bXhzK8",
    "name": "Jantzen Beach Bar & Grill",
    "street_address": "909 North Hayden Island Drive",
    "city": "Portland",
    "state": "OR",
    "zip_code": "97217",
    "latitude": 45.612798,
    "longitude": -122.6753903,
    "website": "http://www.jantzenbeachbarandgrill.com/",
    "category": "Restaurant",
    "types": "restaurant, food, point_of_interest, establishment"
  },
  {
    "place_id": "ChIJyzl7cvgHlVQRyEMH3Zkv_Cs",
    "name": "Your Inn Tavern",
    "street_address": "7004 North Catlin Avenue",
    "city": "Portland",
    "state": "OR",
    "zip_code": "97203",
    "latitude": 45.5937673,
    "longitude": -122.761736,
    "website": "https://www.facebook.com/YourInnTavern/",
    "category": "Bar & Restaurant",
    "types": "bar, restaurant, food, point_of_interest, establishment"
  },
  {
    "place_id": "ChIJmR4zyLWolVQRFGkgvwfU-0g",
    "name": "Brickhouse Bar & Grill",
    "street_address": "109 West 15th Street",
    "city": "Vancouver",
    "state": "WA",
    "zip_code": "98660",
    "latitude": 45.63225959999999,
    "longitude": -122.6718806,
    "website": "https://www.vancouverbrickhouse.com/",
    "category": "Bar & Restaurant",
    "types": "bar, restaurant, food, point_of_interest, establishment"
  },
  {
    "place_id": "ChIJXanzesqolVQRe2P9ru7bjxU",
    "name": "Shanahan's Pub & Grill",
    "street_address": "209 West McLoughlin Boulevard",
    "city": "Vancouver",
    "state": "WA",
    "zip_code": "98660",
    "latitude": 45.63460300000001,
    "longitude": -122.6730621,
    "website": "http://www.shanahanspubvancouver.com/",
    "category": "Bar & Restaurant",
    "types": "bar, restaurant, food, point_of_interest, establishment"
  },
  {
    "place_id": "ChIJa3LuCtmplVQRmLpoTpAXEHE",
    "name": "Uptown Barrel Room",
    "street_address": "2011 Main Street",
    "city": "Vancouver",
    "state": "WA",
    "zip_code": "98660",
    "latitude": 45.6371659,
    "longitude": -122.6712369,
    "website": "https://uptownbarrelroom.com/",
    "category": "Bar & Restaurant",
    "types": "bar, restaurant, food, point_of_interest, establishment"
  },
  {
    "place_id": "ChIJm4iTdoyjlVQRYUBKZ6TEg8I",
    "name": "Sidelines | Restaurant & Sports Bar",
    "street_address": "6001 Northeast Win Sivers Drive",
    "city": "Portland",
    "state": "OR",
    "zip_code": "97220",
    "latitude": 45.5664215,
    "longitude": -122.5381012,
    "website": "http://www.sidelinespdx.com/",
    "category": "Bar & Restaurant",
    "types": "bar, restaurant, food, point_of_interest, establishment"
  },
  {
    "place_id": "ChIJr19TxfOhlVQRxKEhwtr6i0o",
    "name": "Hi-Top",
    "street_address": "5015 Northeast Fremont Street",
    "city": "Portland",
    "state": "OR",
    "zip_code": "97213",
    "latitude": 45.5484164,
    "longitude": -122.6108139,
    "website": "https://www.hitoptavern.com/",
    "category": "Bar & Restaurant",
    "types": "bar, cafe, store, restaurant, food, point_of_interest, establishment"
  },
  {
    "place_id": "ChIJrQI_UFELlVQR_DGwZTPnz6Y",
    "name": "Backwoods Brewing Company",
    "street_address": "231 Northwest 11th Avenue",
    "city": "Portland",
    "state": "OR",
    "zip_code": "97209",
    "latitude": 45.5249517,
    "longitude": -122.6823334,
    "website": "https://www.backwoodsbrewingcompany.com/",
    "category": "Bar & Restaurant",
    "types": "bar, restaurant, food, point_of_interest, establishment"
  },
  {
    "place_id": "ChIJMUdi--QJlVQRBokaU3Tmm5E",
    "name": "Breakside Brewery - NW Slabtown",
    "street_address": "1570 Northwest 22nd Avenue",
    "city": "Portland",
    "state": "OR",
    "zip_code": "97210",
    "latitude": 45.5339757,
    "longitude": -122.6965071,
    "website": "https://www.breakside.com/",
    "category": "Bar & Restaurant",
    "types": "bar, restaurant, food, point_of_interest, establishment"
  },
  {
    "place_id": "ChIJ13tmmgcLlVQRZ8uKZswn8no",
    "name": "Sasquatch Brewing Co.",
    "street_address": "6440 Southwest Capitol Highway",
    "city": "Portland",
    "state": "OR",
    "zip_code": "97239",
    "latitude": 45.4776481,
    "longitude": -122.69891,
    "website": "http://www.sasquatchbrewery.com/",
    "category": "Bar & Restaurant",
    "types": "bar, restaurant, point_of_interest, food, establishment"
  }
]