[
  {
    "place_id": "ChIJN6O3t3FfrIkRO3hIls0zkpk",
    "name": "Whiskey Kitchen",
    "street_address": "201 West Martin Street",
    "city": "Raleigh",
    "state": "NC",
    "zip_code": "27601",
    "latitude": 35.776712,
    "longitude": -78.642141,
    "website": "https://www.whiskey.kitchen/",
    "category": "Restaurant",
    "types": "restaurant, food, point_of_interest, establishment"
  },
  {
    "place_id": "ChIJCxg6bmZfrIkRSWdBpk8FShU",
    "name": "Hibernian Irish Pub & Restaurant",
    "street_address": "311 Glenwood Avenue",
    "city": "Raleigh",
    "state": "NC",
    "zip_code": "27603",
    "latitude": 35.78472749999999,
    "longitude": -78.6475383,
    "website": "https://www.hibernianpub.com/",
    "category": "Bar & Restaurant",
    "types": "bar, restaurant, food, point_of_interest, establishment"
  },
  {
    "place_id": "ChIJm0GGhW1frIkREUvuQ2pvYbs",
    "name": "The London Bridge Pub",
    "street_address": "110 East Hargett Street",
    "city": "Raleigh",
    "state": "NC",
    "zip_code": "27601",
    "latitude": 35.778046,
    "longitude": -78.63788319999999,
    "website": "http://thebridgedtr.com/",
    "category": "Bar & Restaurant",
    "types": "bar, restaurant, food, point_of_interest, establishment"
  },
  {
    "place_id": "ChIJvRxtBUpfrIkRoNwgOaFVc9o",
    "name": "The Brass Tap",
    "street_address": "16 North West Street",
    "city": "Raleigh",
    "state": "NC",
    "zip_code": "27603",
    "latitude": 35.7811965,
    "longitude": -78.6457882,
    "website": "https://www.brasstapbeerbar.com/raleigh",
    "category": "Bar & Restaurant",
    "types": "bar, restaurant, food, point_of_interest, establishment"
  },
  {
    "place_id": "ChIJAZyy6mdfrIkRsHSZYRGu7XA",
    "name": "Raleigh Beer Garden",
    "street_address": "614 Glenwood Avenue",
    "city": "Raleigh",
    "state": "NC",
    "zip_code": "27603",
    "latitude": 35.78807620000001,
    "longitude": -78.6468743,
    "website": "http://theraleighbeergarden.com/",
    "category": "Bar & Restaurant",
    "types": "bar, restaurant, food, point_of_interest, establishment"
  },
  {
    "place_id": "ChIJnyieOYv1rIkRxrOwFp7CE4Y",
    "name": "Village Draft House",
    "street_address": "428 Daniels Street",
    "city": "Raleigh",
    "state": "NC",
    "zip_code": "27605",
    "latitude": 35.7898875,
    "longitude": -78.66075719999999,
    "website": "https://villagedrafthouse.com/",
    "category": "Bar & Restaurant",
    "types": "bar, restaurant, food, point_of_interest, establishment"
  },
  {
    "place_id": "ChIJR--u6Iv1rIkRoNd_-RenkTI",
    "name": "The Players Retreat",
    "street_address": "105 Oberlin Road",
    "city": "Raleigh",
    "state": "NC",
    "zip_code": "27605",
    "latitude": 35.78622399999999,
    "longitude": -78.66148299999999,
    "website": "http://www.playersretreat.com/",
    "category": "Bar & Restaurant",
    "types": "meal_takeaway, bar, restaurant, point_of_interest, food, establishment"
  },
  {
    "place_id": "ChIJrwtl821frIkRuLN_Pr0pfus",
    "name": "The Raleigh Times",
    "street_address": "14 East Hargett Street",
    "city": "Raleigh",
    "state": "NC",
    "zip_code": "27601",
    "latitude": 35.7780493,
    "longitude": -78.6386322,
    "website": "http://www.raleightimesbar.com/",
    "category": "Bar & Restaurant",
    "types": "bar, restaurant, food, point_of_interest, establishment"
  },
  {
    "place_id": "ChIJ3SOLkm9frIkRTdTl7dSs6Uw",
    "name": "Flying Saucer Draught Emporium",
    "street_address": "328 West Morgan Street",
    "city": "Raleigh",
    "state": "NC",
    "zip_code": "27601",
    "latitude": 35.7799437,
    "longitude": -78.6448157,
    "website": "http://www.beerknurd.com/locations/raleigh-flying-saucer",
    "category": "Bar & Restaurant",
    "types": "bar, restaurant, food, point_of_interest, establishment"
  },
  {
    "place_id": "ChIJZU0jYQGOrIkRsnRUP0QXdzM",
    "name": "My Way Tavern",
    "street_address": "522 Saint Marys Street",
    "city": "Raleigh",
    "state": "NC",
    "zip_code": "27605",
    "latitude": 35.78722249999999,
    "longitude": -78.65061539999999,
    "website": "http://www.mywaytavern.com/",
    "category": "Bar & Restaurant",
    "types": "bar, restaurant, food, point_of_interest, establishment"
  },
  {
    "place_id": "ChIJyZQok2VfrIkRQhmKJhMqIRI",
    "name": "Tobacco Road Sports Cafe & Brewery",
    "street_address": "505 West Jones Street",
    "city": "Raleigh",
    "state": "NC",
    "zip_code": "27603",
    "latitude": 35.7825681,
    "longitude": -78.64645639999999,
    "website": "http://www.tobaccoroadsportscafe.com/",
    "category": "Bar & Restaurant",
    "types": "cafe, bar, restaurant, food, point_of_interest, establishment"
  },
  {
    "place_id": "ChIJRV1u-jRfrIkRvjGmDC17-LU",
    "name": "High Park Bar & Grill",
    "street_address": "625 East Whitaker Mill Road",
    "city": "Raleigh",
    "state": "NC",
    "zip_code": "27608",
    "latitude": 35.80719320000001,
    "longitude": -78.6306642,
    "website": "http://www.highparkbarandgrill.com/",
    "category": "Bar & Restaurant",
    "types": "bar, restaurant, food, point_of_interest, establishment"
  },
  {
    "place_id": "ChIJz11IP1tfrIkRWhGxS61lv8s",
    "name": "Tin Roof",
    "street_address": "300 Glenwood Avenue",
    "city": "Raleigh",
    "state": "NC",
    "zip_code": "27603",
    "latitude": 35.7843133,
    "longitude": -78.64720539999999,
    "website": "https://www.tinroofraleigh.com/",
    "category": "Bar & Restaurant",
    "types": "bar, restaurant, food, point_of_interest, establishment"
  },
  {
    "place_id": "ChIJ3Q2vBnJfrIkR7K5rl54aduQ",
    "name": "The Big Easy NC",
    "street_address": "222 Fayetteville Street",
    "city": "Raleigh",
    "state": "NC",
    "zip_code": "27601",
    "latitude": 35.777596,
    "longitude": -78.6396299,
    "website": "http://www.bigeasync.com/",
    "category": "Bar & Restaurant",
    "types": "night_club, bar, restaurant, food, point_of_interest, establishment"
  },
  {
    "place_id": "ChIJ_dGrunpfrIkR59MjiIyAwHc",
    "name": "Trolley Pub Raleigh",
    "street_address": "323 West Davie Street",
    "city": "Raleigh",
    "state": "NC",
    "zip_code": "27601",
    "latitude": 35.7755673,
    "longitude": -78.6443901,
    "website": "https://trolleypub.com/raleigh",
    "category": "Bar & Restaurant",
    "types": "travel_agency, bar, restaurant, food, point_of_interest, establishment"
  },
  {
    "place_id": "ChIJX_lbgHpfrIkRqVA2MRnwvfk",
    "name": "Circa 1888",
    "street_address": "412 West Davie Street",
    "city": "Raleigh",
    "state": "NC",
    "zip_code": "27601",
    "latitude": 35.7759046,
    "longitude": -78.6456779,
    "website": null,
    "category": "Bar & Restaurant",
    "types": "bar, liquor_store, store, restaurant, food, point_of_interest, establishment"
  },
  {
    "place_id": "ChIJxcFYfHBfrIkRHc39S5CWxlI",
    "name": "Boxcar Bar + Arcade",
    "street_address": "330 West Davie Street",
    "city": "Raleigh",
    "state": "NC",
    "zip_code": "27601",
    "latitude": 35.7759584,
    "longitude": -78.64502209999999,
    "website": "https://theboxcarbar.com/raleigh/",
    "category": "Bar & Restaurant",
    "types": "bar, restaurant, food, point_of_interest, establishment"
  },
  {
    "place_id": "ChIJJXTvjo31rIkR0teDVk7mbIc",
    "name": "Mitch's Tavern",
    "street_address": "2426 Hillsborough Street",
    "city": "Raleigh",
    "state": "NC",
    "zip_code": "27607",
    "latitude": 35.7878932,
    "longitude": -78.6676848,
    "website": "http://www.mitchstavernraleigh.com/",
    "category": "Bar & Restaurant",
    "types": "bar, restaurant, food, point_of_interest, establishment"
  },
  {
    "place_id": "ChIJm1ChOHBfrIkRgF21fCRMZnI",
    "name": "Parkside Restaurant",
    "street_address": "301 West Martin Street",
    "city": "Raleigh",
    "state": "NC",
    "zip_code": "27601",
    "latitude": 35.77697849999999,
    "longitude": -78.6436997,
    "website": "https://parksiderestaurant.com/",
    "category": "Bar & Restaurant",
    "types": "bar, restaurant, food, point_of_interest, establishment"
  },
  {
    "place_id": "ChIJ63zx5tX1rIkR_2o27QX082Q",
    "name": "The Oak Raleigh",
    "street_address": "4035 Lake Boone Trail",
    "city": "Raleigh",
    "state": "NC",
    "zip_code": "27607",
    "latitude": 35.8151994,
    "longitude": -78.6970146,
    "website": "http://www.theoakraleigh.com/",
    "category": "Bar & Restaurant",
    "types": "restaurant, bar, food, point_of_interest, establishment"
  },
  {
    "place_id": "ChIJRYKEnMf1rIkR3kDZhDMA1CQ",
    "name": "Brickhouse Sports Bar & Grill",
    "street_address": "3801 Hillsborough Street",
    "city": "Raleigh",
    "state": "NC",
    "zip_code": "27607",
    "latitude": 35.7938317,
    "longitude": -78.6888287,
    "website": "http://brickhouse-nc.com/",
    "category": "Bar & Restaurant",
    "types": "night_club, bar, restaurant, food, point_of_interest, establishment"
  },
  {
    "place_id": "ChIJQ0KL5pj1rIkRxsgVAsDgz-Y",
    "name": "Sammy's Tap & Grill",
    "street_address": "2235 Avent Ferry Road",
    "city": "Raleigh",
    "state": "NC",
    "zip_code": "27606",
    "latitude": 35.777683,
    "longitude": -78.6772822,
    "website": "http://www.sammystapgrill.com/",
    "category": "Bar & Restaurant",
    "types": "restaurant, bar, food, point_of_interest, establishment"
  },
  {
    "place_id": "ChIJjfa6_0FfrIkRT_N4hF6aARw",
    "name": "Bad Daddy's Burger Bar",
    "street_address": "111 Seaboard Avenue",
    "city": "Raleigh",
    "state": "NC",
    "zip_code": "27604",
    "latitude": 35.7885478,
    "longitude": -78.63974979999999,
    "website": "https://www.baddaddysburgerbar.com/locations/bad-daddys-burger-bar-17",
    "category": "Bar & Restaurant",
    "types": "bar, restaurant, food, point_of_interest, establishment"
  },
  {
    "place_id": "ChIJ63zx5tX1rIkRL4fTysxVAuM",
    "name": "Buffalo Brothers of Lake Boone",
    "street_address": "4025 Lake Boone Trail",
    "city": "Raleigh",
    "state": "NC",
    "zip_code": "27607",
    "latitude": 35.8153792,
    "longitude": -78.69621389999999,
    "website": "http://www.buffbrothers.com/",
    "category": "Bar & Restaurant",
    "types": "bar, restaurant, food, point_of_interest, establishment"
  },
  {
    "place_id": "ChIJ8f5TWGVfrIkR8jPHaGp5Uo4",
    "name": "Morgan Street Food Hall",
    "street_address": "411 West Morgan Street",
    "city": "Raleigh",
    "state": "NC",
    "zip_code": "27603",
    "latitude": 35.7795722,
    "longitude": -78.6455861,
    "website": "http://www.morganfoodhall.com/",
    "category": "Restaurant",
    "types": "restaurant, food, point_of_interest, establishment"
  },
  {
    "place_id": "ChIJ57lP9m1frIkRKixViyzN2pA",
    "name": "The Anchor Bar",
    "street_address": "207 Fayetteville Street",
    "city": "Raleigh",
    "state": "NC",
    "zip_code": "27601",
    "latitude": 35.7779697,
    "longitude": -78.6390139,
    "website": "http://www.anchorraleigh.com/",
    "category": "Bar & Restaurant",
    "types": "bar, restaurant, food, point_of_interest, establishment"
  },
  {
    "place_id": "ChIJRR6zDkBfrIkRr52eKILnLmk",
    "name": "The Station at Person Street",
    "street_address": "701 North Person Street",
    "city": "Raleigh",
    "state": "NC",
    "zip_code": "27604",
    "latitude": 35.78913000000001,
    "longitude": -78.63452199999999,
    "website": "http://stationraleigh.com/",
    "category": "Bar & Restaurant",
    "types": "bar, restaurant, food, point_of_interest, establishment"
  },
  {
    "place_id": "ChIJWWSXZUBfrIkR1MhKp1H8zc4",
    "name": "Standard Beer + Food",
    "street_address": "205 East Franklin Street",
    "city": "Raleigh",
    "state": "NC",
    "zip_code": "27604",
    "latitude": 35.79032790000001,
    "longitude": -78.6351162,
    "website": "http://www.standardbeerandfood.com/",
    "category": "Bar & Restaurant",
    "types": "bar, restaurant, food, point_of_interest, establishment"
  },
  {
    "place_id": "ChIJHbpZ-8dfrIkRaO3vHES7UH4",
    "name": "High Rail Raleigh",
    "street_address": "11 Seaboard Avenue",
    "city": "Raleigh",
    "state": "NC",
    "zip_code": "27604",
    "latitude": 35.7883001,
    "longitude": -78.6393877,
    "website": "https://www.highrailraleigh.com/",
    "category": "Bar & Restaurant",
    "types": "bar, restaurant, food, point_of_interest, establishment"
  },
  {
    "place_id": "ChIJhxBLQTlfrIkRkL_n_VzVyQI",
    "name": "Highgarden",
    "street_address": "419 Glenwood Avenue",
    "city": "Raleigh",
    "state": "NC",
    "zip_code": "27603",
    "latitude": 35.78570150000001,
    "longitude": -78.6476308,
    "website": "https://highgardenraleigh.com/",
    "category": "Bar & Restaurant",
    "types": "bar, restaurant, food, point_of_interest, establishment"
  },
  {
    "place_id": "ChIJ17b5Ct1YrIkRoum2MD9QN0s",
    "name": "Bahama Breeze",
    "street_address": "3309 Wake Forest Road",
    "city": "Raleigh",
    "state": "NC",
    "zip_code": "27609",
    "latitude": 35.828083,
    "longitude": -78.620665,
    "website": "https://www.bahamabreeze.com/locations/nc/raleigh/raleigh/3005?cmpid=br:bb_ag:ie_ch:loc_ca:BBGMB_sn:gmb_gt:raleigh-nc-3005_pl:locurl_rd:1005",
    "category": "Bar & Restaurant",
    "types": "bar, meal_takeaway, restaurant, food, point_of_interest, establishment"
  },
  {
    "place_id": "ChIJwSzNPmZfrIkRhcJcQTFnyYg",
    "name": "Sullivan's Steakhouse",
    "street_address": "410 Glenwood Avenue",
    "city": "Raleigh",
    "state": "NC",
    "zip_code": "27603",
    "latitude": 35.7860998,
    "longitude": -78.6470628,
    "website": "https://sullivanssteakhouse.com/raleigh/?utm_source=GBPlisting&utm_medium=organic",
    "category": "Bar & Restaurant",
    "types": "bar, restaurant, food, point_of_interest, establishment"
  },
  {
    "place_id": "ChIJd3lnTIRfrIkRdA5YD6R_XXo",
    "name": "Wonderland Kitchen & Cocktails",
    "street_address": "222 Glenwood Avenue",
    "city": "Raleigh",
    "state": "NC",
    "zip_code": "27603",
    "latitude": 35.78404740000001,
    "longitude": -78.647234,
    "website": "http://we-are-wonderland.com/",
    "category": "Bar & Restaurant",
    "types": "night_club, bar, restaurant, food, point_of_interest, establishment"
  },
  {
    "place_id": "ChIJ1dbaU5FYrIkRKZ92HVjIRDE",
    "name": "Yard House",
    "street_address": "4208 Six Forks Road",
    "city": "Raleigh",
    "state": "NC",
    "zip_code": "27609",
    "latitude": 35.83721,
    "longitude": -78.63986,
    "website": "https://www.yardhouse.com/locations/nc/raleigh/raleigh-north-hills/8341?cmpid=br:yh_ag:ie_ch:loc_ca:YHGMB_sn:gmb_gt:raleigh-nc-8341_pl:locurl_rd:1039",
    "category": "Bar & Restaurant",
    "types": "meal_takeaway, bar, restaurant, point_of_interest, food, establishment"
  },
  {
    "place_id": "ChIJiQujVAtZrIkRz59U-JNpvlA",
    "name": "Village Tavern",
    "street_address": "4140 Lassiter Mill Road",
    "city": "Raleigh",
    "state": "NC",
    "zip_code": "27609",
    "latitude": 35.83769639999999,
    "longitude": -78.6443549,
    "website": "https://www.villagetavern.com/",
    "category": "Restaurant",
    "types": "restaurant, food, point_of_interest, establishment"
  },
  {
    "place_id": "ChIJsfCtOWRZrIkRlhf1FxdkQZE",
    "name": "STIR",
    "street_address": "4242 Six Forks Road",
    "city": "Raleigh",
    "state": "NC",
    "zip_code": "27609",
    "latitude": 35.8378012,
    "longitude": -78.64053090000002,
    "website": "https://stirraleigh.com/",
    "category": "Bar & Restaurant",
    "types": "bar, restaurant, food, point_of_interest, establishment"
  },
  {
    "place_id": "ChIJK7QtyUD2rIkRrX8ahHGiLVE",
    "name": "Crabtree Ale House",
    "street_address": "4325 Glenwood Avenue",
    "city": "Raleigh",
    "state": "NC",
    "zip_code": "27612",
    "latitude": 35.84062759999999,
    "longitude": -78.6814243,
    "website": "http://www.crabtreealehouse.com/",
    "category": "Bar & Restaurant",
    "types": "restaurant, bar, meal_takeaway, food, point_of_interest, establishment"
  },
  {
    "place_id": "ChIJQ1aQmf1YrIkRwI3BW24dUNM",
    "name": "Carolina Ale House - North Raleigh",
    "street_address": "4512 Falls of Neuse Road",
    "city": "Raleigh",
    "state": "NC",
    "zip_code": "27609",
    "latitude": 35.843008,
    "longitude": -78.61269,
    "website": "https://www.carolinaalehouse.com/locations/north-raleigh-nc",
    "category": "Bar & Restaurant",
    "types": "bar, restaurant, food, point_of_interest, establishment"
  },
  {
    "place_id": "ChIJcXAyeZRYrIkRTJVGpJ0OEp4",
    "name": "Level7 Rooftop",
    "street_address": "101 Park at North Hills Street",
    "city": "Raleigh",
    "state": "NC",
    "zip_code": "27609",
    "latitude": 35.838232,
    "longitude": -78.64029459999999,
    "website": "https://level7roofbar.com/?utm_source=google&utm_medium=organic&utm_campaign=business_listing",
    "category": "Bar & Restaurant",
    "types": "bar, restaurant, food, point_of_interest, establishment"
  },
  {
    "place_id": "ChIJP4gNczj2rIkRtt7Xh2dA-3k",
    "name": "Axis Restaurant & Bar",
    "street_address": "4700 Creedmoor Road",
    "city": "Raleigh",
    "state": "NC",
    "zip_code": "27612",
    "latitude": 35.8448137,
    "longitude": -78.6791262,
    "website": "http://embassysuites3.hilton.com/en/hotels/north-carolina/embassy-suites-by-hilton-raleigh-crabtree-RDUCMES/",
    "category": "Bar & Restaurant",
    "types": "bar, restaurant, food, point_of_interest, establishment"
  },
  {
    "place_id": "ChIJt9EJqj32rIkRVzrCGtQv3KY",
    "name": "Pub 4100",
    "street_address": "4100 Glenwood Avenue",
    "city": "Raleigh",
    "state": "NC",
    "zip_code": "27612",
    "latitude": 35.8370697,
    "longitude": -78.67075000000001,
    "website": "https://www.hilton.com/en/hotels/rduvldt-doubletree-raleigh-crabtree-valley/dining/",
    "category": "Bar & Restaurant",
    "types": "bar, restaurant, food, point_of_interest, establishment"
  },
  {
    "place_id": "ChIJFaUwEUj1rIkRIjpQAhypn-Y",
    "name": "Bru's Public House",
    "street_address": "5433 Wade Park Boulevard",
    "city": "Raleigh",
    "state": "NC",
    "zip_code": "27607",
    "latitude": 35.8072138,
    "longitude": -78.7303793,
    "website": "https://bruspublichouse.com/",
    "category": "Restaurant",
    "types": "restaurant, food, point_of_interest, establishment"
  },
  {
    "place_id": "ChIJ1xfz-6H0rIkRplnTj7JSRVg",
    "name": "Carolina Ale House - Cary",
    "street_address": "2240 Walnut Street",
    "city": "Cary",
    "state": "NC",
    "zip_code": "27518",
    "latitude": 35.7551469,
    "longitude": -78.741912,
    "website": "https://www.carolinaalehouse.com/locations/cary-nc",
    "category": "Bar & Restaurant",
    "types": "bar, restaurant, food, point_of_interest, establishment"
  },
  {
    "place_id": "ChIJNapQ7L_1rIkRJomElSv-u0o",
    "name": "The Local",
    "street_address": "1235 Hurricane Alley Way",
    "city": "Raleigh",
    "state": "NC",
    "zip_code": "27607",
    "latitude": 35.79891719999999,
    "longitude": -78.7253803,
    "website": "https://www.thelocalraleighnc.com/",
    "category": "Bar & Restaurant",
    "types": "bar, meal_takeaway, restaurant, food, point_of_interest, establishment"
  },
  {
    "place_id": "ChIJc0c5SmJYrIkRNnNBVjhkqws",
    "name": "The Bull & Bear",
    "street_address": "5442 Six Forks Road",
    "city": "Raleigh",
    "state": "NC",
    "zip_code": "27609",
    "latitude": 35.8554774,
    "longitude": -78.6402846,
    "website": "https://thebullandbearraleigh.com/",
    "category": "Bar & Restaurant",
    "types": "bar, restaurant, food, point_of_interest, establishment"
  },
  {
    "place_id": "ChIJ6fs26k5YrIkRctFl3eFiwqk",
    "name": "North Ridge Pub",
    "street_address": "6010 B Falls of Neuse Road",
    "city": "Raleigh",
    "state": "NC",
    "zip_code": "27609",
    "latitude": 35.8651521,
    "longitude": -78.6187976,
    "website": "http://www.northridgepub.com/",
    "category": "Bar & Restaurant",
    "types": "bar, restaurant, food, point_of_interest, establishment"
  },
  {
    "place_id": "ChIJh5aETqz3rIkRO-B_V1j6UmE",
    "name": "The Wandering Moose Tavern",
    "street_address": "2315 Lynn Road",
    "city": "Raleigh",
    "state": "NC",
    "zip_code": "27612",
    "latitude": 35.872624,
    "longitude": -78.6810901,
    "website": "https://wanderingmoosenc.com/",
    "category": "Bar & Restaurant",
    "types": "bar, restaurant, food, point_of_interest, establishment"
  },
  {
    "place_id": "ChIJ_c3DUE9YrIkRq103POraMLk",
    "name": "Saints & Scholars Pub",
    "street_address": "909 Spring Forest Road",
    "city": "Raleigh",
    "state": "NC",
    "zip_code": "27609",
    "latitude": 35.8676995,
    "longitude": -78.62298609999999,
    "website": "http://www.saintsandscholarspub.com/",
    "category": "Bar & Restaurant",
    "types": "liquor_store, bar, restaurant, food, point_of_interest, store, establishment"
  },
  {
    "place_id": "ChIJKwseKEparIkRMJnKVLiiyEk",
    "name": "O'Malley's Pub & Restaurant",
    "street_address": "5228 Hollyridge Drive",
    "city": "Raleigh",
    "state": "NC",
    "zip_code": "27612",
    "latitude": 35.853939,
    "longitude": -78.70048,
    "website": "http://www.facebook.com/omalleys.raleigh",
    "category": "Bar & Restaurant",
    "types": "bar, restaurant, food, point_of_interest, establishment"
  },
  {
    "place_id": "ChIJHXZxgRr3rIkR7zJ6kKoYWh8",
    "name": "Lynnwood Grill & Brewing Company",
    "street_address": "4821 Grove Barton Road",
    "city": "Raleigh",
    "state": "NC",
    "zip_code": "27613",
    "latitude": 35.8704609,
    "longitude": -78.71735439999999,
    "website": "http://www.lynnwoodgrill.com/",
    "category": "Bar & Restaurant",
    "types": "bar, restaurant, food, point_of_interest, establishment"
  },
  {
    "place_id": "ChIJeydSXBj2rIkRo4PDSx3_poc",
    "name": "Napa Bistro & Wine Bar - Glenwood Place",
    "street_address": "3705 Exchange Glenwood Place",
    "city": "Raleigh",
    "state": "NC",
    "zip_code": "27612",
    "latitude": 35.8322095,
    "longitude": -78.6656438,
    "website": "https://www.naparestaurantgroup.com/naparaleigh",
    "category": "Restaurant",
    "types": "restaurant, food, point_of_interest, establishment"
  },
  {
    "place_id": "ChIJc-KQwvz2rIkRm9clIBa0-QQ",
    "name": "Sharky's Place",
    "street_address": "5800 Duraleigh Road",
    "city": "Raleigh",
    "state": "NC",
    "zip_code": "27612",
    "latitude": 35.8571278,
    "longitude": -78.7116975,
    "website": "http://www.sharkysnc.com/",
    "category": "Bar & Restaurant",
    "types": "bar, restaurant, food, point_of_interest, establishment"
  },
  {
    "place_id": "ChIJ6fB-I_z3rIkRLYDpjdD4hXI",
    "name": "The Pickled Onion Restaurant & Bar",
    "street_address": "8511 Cantilever Way",
    "city": "Raleigh",
    "state": "NC",
    "zip_code": "27613",
    "latitude": 35.8844883,
    "longitude": -78.7377109,
    "website": "http://www.thepickledonionrestaurant2.com/",
    "category": "Bar & Restaurant",
    "types": "restaurant, bar, food, point_of_interest, establishment"
  },
  {
    "place_id": "ChIJo2ta44fwrIkRnk7uAL9eYZM",
    "name": "Trali Irish Pub & Restaurant",
    "street_address": "10370 Moncreiffe Road",
    "city": "Raleigh",
    "state": "NC",
    "zip_code": "27617",
    "latitude": 35.90033899999999,
    "longitude": -78.79223400000001,
    "website": "http://www.traliirishpub.com/",
    "category": "Bar & Restaurant",
    "types": "bar, restaurant, food, point_of_interest, establishment"
  },
  {
    "place_id": "ChIJHcqMq4PwrIkReLko3_S4iLI",
    "name": "Bar Louie - Brier Creek",
    "street_address": "8401 Brier Creek Parkway",
    "city": "Raleigh",
    "state": "NC",
    "zip_code": "27617",
    "latitude": 35.9072621,
    "longitude": -78.78481239999999,
    "website": "https://www.barlouie.com/locations/us/nc/raleigh/brier-creek?utm_source=google&utm_medium=gmb&utm_campaign=listings",
    "category": "Bar & Restaurant",
    "types": "night_club, bar, restaurant, food, point_of_interest, establishment"
  },
  {
    "place_id": "ChIJ-yoxdoPwrIkR_GTdDpGxW9A",
    "name": "Brier Creek Beer Garden",
    "street_address": "8521 Brier Creek Parkway",
    "city": "Raleigh",
    "state": "NC",
    "zip_code": "27617",
    "latitude": 35.9055688,
    "longitude": -78.78434179999999,
    "website": "http://www.briercreekbeergarden.com/",
    "category": "Bar & Restaurant",
    "types": "bar, restaurant, food, point_of_interest, establishment"
  },
  {
    "place_id": "ChIJpZSk4mT7rIkRJQEyvoo3Ovw",
    "name": "Bad Daddy's Burger Bar",
    "street_address": "4213 Corners Parkway",
    "city": "Raleigh",
    "state": "NC",
    "zip_code": "27617",
    "latitude": 35.91799700000001,
    "longitude": -78.7888368,
    "website": "https://www.baddaddysburgerbar.com/locations/bad-daddys-burger-bar-brier-creek",
    "category": "Bar & Restaurant",
    "types": "bar, restaurant, food, point_of_interest, establishment"
  },
  {
    "place_id": "ChIJEXpvJ7rxrIkRxlVtG66nj3A",
    "name": "The Goat Brier Creek",
    "street_address": "5600 Primary Drive",
    "city": "Durham",
    "state": "NC",
    "zip_code": "27703",
    "latitude": 35.894174,
    "longitude": -78.8211127,
    "website": "https://www.lcgoat.com/locations/brier-creek/",
    "category": "Bar & Restaurant",
    "types": "restaurant, bar, food, point_of_interest, establishment"
  },
  {
    "place_id": "ChIJR9Jc7Hn6rIkR_FV0H2qEsHI",
    "name": "Carolina Ale House - Brier Creek",
    "street_address": "7981 Skyland Ridge Parkway",
    "city": "Raleigh",
    "state": "NC",
    "zip_code": "27617",
    "latitude": 35.9144276,
    "longitude": -78.7827688,
    "website": "https://www.carolinaalehouse.com/locations/brier-creek-nc",
    "category": "Bar & Restaurant",
    "types": "bar, restaurant, food, point_of_interest, establishment"
  },
  {
    "place_id": "ChIJfa-9W3f6rIkRKczdylcDYAE",
    "name": "Wild Wing Cafe",
    "street_address": "7900 Brier Creek Parkway",
    "city": "Raleigh",
    "state": "NC",
    "zip_code": "27617",
    "latitude": 35.91408210000001,
    "longitude": -78.7812422,
    "website": "https://www.wildwingcafe.com/raleigh-nc",
    "category": "Restaurant",
    "types": "restaurant, point_of_interest, food, establishment"
  },
  {
    "place_id": "ChIJz8_WCsH6rIkRLPo0_TOnvgU",
    "name": "LongHorn Steakhouse",
    "street_address": "8121 Brier Creek Parkway",
    "city": "Raleigh",
    "state": "NC",
    "zip_code": "27617",
    "latitude": 35.90935899999999,
    "longitude": -78.783928,
    "website": "https://www.longhornsteakhouse.com/locations/nc/raleigh/raleigh-nc-near-glenwood-ave/5251?cmpid=br:lh_ag:ie_ch:loc_ca:LHGMB_sn:gmb_gt:raleigh-nc-5251_pl:locurl_rd:1203",
    "category": "Bar & Restaurant",
    "types": "meal_takeaway, bar, restaurant, food, point_of_interest, establishment"
  },
  {
    "place_id": "ChIJ5xP4lIPwrIkRv_wOhjwvawM",
    "name": "Brixx Wood Fired Pizza + Craft Bar",
    "street_address": "8511 Brier Creek Parkway",
    "city": "Raleigh",
    "state": "NC",
    "zip_code": "27617",
    "latitude": 35.9051551,
    "longitude": -78.7852731,
    "website": "https://brixxpizza.com/?y_source=1_MTUwMzMzNTUtNzE1LWxvY2F0aW9uLndlYnNpdGU%3D",
    "category": "Bar & Restaurant",
    "types": "bar, restaurant, point_of_interest, food, establishment"
  },
  {
    "place_id": "ChIJie7eU4LwrIkRUsciCHrCbwk",
    "name": "Chili's Grill & Bar",
    "street_address": "8341 Brier Creek Parkway",
    "city": "Raleigh",
    "state": "NC",
    "zip_code": "27617",
    "latitude": 35.907654,
    "longitude": -78.784685,
    "website": "https://www.chilis.com/locations/us/north-carolina/raleigh/brier-creek?utm_source=google&utm_medium=local&utm_campaign=Chilis",
    "category": "Bar & Restaurant",
    "types": "restaurant, bar, food, point_of_interest, establishment"
  },
  {
    "place_id": "ChIJS3AJH2pXrIkRFuKxB5ChLuI",
    "name": "River Pub",
    "street_address": "10940 Raven Ridge Road",
    "city": "Raleigh",
    "state": "NC",
    "zip_code": "27614",
    "latitude": 35.9076507,
    "longitude": -78.590271,
    "website": "https://riverpubraleigh.com/",
    "category": "Bar & Restaurant",
    "types": "bar, restaurant, point_of_interest, food, establishment"
  },
  {
    "place_id": "ChIJneCIcS5RrIkRR03kSQhrTCE",
    "name": "Wakefield Tavern",
    "street_address": "13200 Falls of Neuse Road",
    "city": "Raleigh",
    "state": "NC",
    "zip_code": "27614",
    "latitude": 35.94019299999999,
    "longitude": -78.560724,
    "website": "https://wakefieldtavernraleigh.com/",
    "category": "Bar & Restaurant",
    "types": "restaurant, bar, food, point_of_interest, establishment"
  },
  {
    "place_id": "ChIJZ-FlkydYrIkRzmh10fp3VuA",
    "name": "Hibernian Irish Pub and Restaurant",
    "street_address": "8021 Falls of Neuse Road",
    "city": "Raleigh",
    "state": "NC",
    "zip_code": "27615",
    "latitude": 35.8938237,
    "longitude": -78.6243222,
    "website": "http://hibernianpub.com/",
    "category": "Bar & Restaurant",
    "types": "bar, restaurant, food, point_of_interest, establishment"
  },
  {
    "place_id": "ChIJfRFuf4dXrIkR2tYPG03yOVQ",
    "name": "The Piper's Restaurant and Tavern",
    "street_address": "8304 Falls of Neuse Road",
    "city": "Raleigh",
    "state": "NC",
    "zip_code": "27615",
    "latitude": 35.8946554,
    "longitude": -78.6199427,
    "website": "https://www.thepiperstavern.com/",
    "category": "Bar & Restaurant",
    "types": "bar, restaurant, food, point_of_interest, establishment"
  },
  {
    "place_id": "ChIJJx79RwNZrIkRprojY7dmg1Y",
    "name": "El Patio Bar and Grill",
    "street_address": "7810 Target Circle",
    "city": "Raleigh",
    "state": "NC",
    "zip_code": "27616",
    "latitude": 35.8663881,
    "longitude": -78.57129309999999,
    "website": "https://elpatiobarandgrill.com/?fbclid=PAZXh0bgNhZW0CMTEAAaaZVkejR6WXJ42JLbxgH732Owvqdhudjk3MnaRtJzAYSnpxpa3nE-3GymM_aem_ECtgByqdVbLt_LYXs8SJSA",
    "category": "Bar & Restaurant",
    "types": "restaurant, night_club, bar, food, point_of_interest, establishment"
  },
  {
    "place_id": "ChIJk_tv565QrIkR9LROvGPiibk",
    "name": "Korner Pocket",
    "street_address": "8508 Capital Boulevard",
    "city": "Raleigh",
    "state": "NC",
    "zip_code": "27616",
    "latitude": 35.8953228,
    "longitude": -78.558148,
    "website": "https://www.facebook.com/KornerPocketSportsBar/",
    "category": "Bar & Restaurant",
    "types": "bar, restaurant, food, point_of_interest, establishment"
  },
  {
    "place_id": "ChIJk0ZxpNRXrIkR32MwBcMteG0",
    "name": "Local 919 Beer and Wine",
    "street_address": "1540 Dunn Road",
    "city": "Raleigh",
    "state": "NC",
    "zip_code": "27614",
    "latitude": 35.925339,
    "longitude": -78.58569,
    "website": "https://thelocal919.com/",
    "category": "Bar & Restaurant",
    "types": "liquor_store, bar, store, restaurant, food, point_of_interest, establishment"
  },
  {
    "place_id": "ChIJZYuLPnpXrIkRrCInRd1Gqrs",
    "name": "Bad Daddy's Burger Bar",
    "street_address": "9402 Falls of Neuse Road",
    "city": "Raleigh",
    "state": "NC",
    "zip_code": "27615",
    "latitude": 35.9018669,
    "longitude": -78.6039174,
    "website": "https://www.baddaddysburgerbar.com/locations/bad-daddys-burger-bar-21",
    "category": "Bar & Restaurant",
    "types": "bar, restaurant, food, point_of_interest, establishment"
  },
  {
    "place_id": "ChIJRwVSDMNRrIkRsrul-c4y2ug",
    "name": "Town Hall Burger & Beer",
    "street_address": "13100 Falls of Neuse Road",
    "city": "Raleigh",
    "state": "NC",
    "zip_code": "27614",
    "latitude": 35.9406941,
    "longitude": -78.56224379999999,
    "website": "https://www.townhallburgerandbeer.com/",
    "category": "Restaurant",
    "types": "restaurant, food, point_of_interest, establishment"
  },
  {
    "place_id": "ChIJYczMugD4rIkRdWNEcm1lWHc",
    "name": "Rudino's Rooftop",
    "street_address": "8800 Harvest Oaks Drive",
    "city": "Raleigh",
    "state": "NC",
    "zip_code": "27615",
    "latitude": 35.9025039,
    "longitude": -78.657608,
    "website": "http://rudinos.com/the-rooftop/",
    "category": "Bar & Restaurant",
    "types": "restaurant, bar, point_of_interest, food, establishment"
  },
  {
    "place_id": "ChIJ71OaSEBZrIkR1Qfqpmpw0o8",
    "name": "Brass Tap & Billiards",
    "street_address": "3316 Capital Boulevard",
    "city": "Raleigh",
    "state": "NC",
    "zip_code": "27604",
    "latitude": 35.8249911,
    "longitude": -78.5857067,
    "website": "http://brasstapbilliards.com/",
    "category": "Bar & Restaurant",
    "types": "bar, restaurant, point_of_interest, food, establishment"
  },
  {
    "place_id": "ChIJ4ZTKL2NfrIkR6Cq9jBPDurQ",
    "name": "Trophy Brewing & Pizza",
    "street_address": "827 West Morgan Street",
    "city": "Raleigh",
    "state": "NC",
    "zip_code": "27603",
    "latitude": 35.7796721,
    "longitude": -78.6534982,
    "website": "http://www.trophybrewing.com/",
    "category": "Bar & Restaurant",
    "types": "restaurant, bar, food, point_of_interest, establishment"
  },
  {
    "place_id": "ChIJJ-ZKnuJYrIkRxGLR3Fgcba4",
    "name": "Hooters",
    "street_address": "4206 Old Wake Forest Road",
    "city": "Raleigh",
    "state": "NC",
    "zip_code": "27609",
    "latitude": 35.83853999999999,
    "longitude": -78.61187620000001,
    "website": "https://www.hooters.com/locations/1008-raleigh?utm_medium=organic&utm_source=google&utm_campaign=gmb-carolinas-ne&utm_content=raleigh&utm_term=website-cta",
    "category": "Bar & Restaurant",
    "types": "meal_delivery, meal_takeaway, bar, restaurant, food, point_of_interest, establishment"
  },
  {
    "place_id": "ChIJWYvy-SBfrIkRzT7mYwk-7hY",
    "name": "Libations 317 & Su-Z's Asian Kitchen",
    "street_address": "317 West Morgan Street",
    "city": "Raleigh",
    "state": "NC",
    "zip_code": "27601",
    "latitude": 35.77963080000001,
    "longitude": -78.6436129,
    "website": "http://libations317.com/",
    "category": "Bar & Restaurant",
    "types": "bar, restaurant, food, point_of_interest, establishment"
  },
  {
    "place_id": "ChIJ-dHj4uVZrIkR4bc8vHtshZI",
    "name": "Wilson's Eatery",
    "street_address": "1053 East Whitaker Mill Road",
    "city": "Raleigh",
    "state": "NC",
    "zip_code": "27604",
    "latitude": 35.8076629,
    "longitude": -78.6221395,
    "website": "https://wilsonseatery.com/",
    "category": "Restaurant",
    "types": "restaurant, food, point_of_interest, establishment"
  },
  {
    "place_id": "ChIJPadTKCNZrIkRAJost3jslOg",
    "name": "Chido Taco Mercado Style Taqueria",
    "street_address": "2330 Bale Street",
    "city": "Raleigh",
    "state": "NC",
    "zip_code": "27608",
    "latitude": 35.813095,
    "longitude": -78.6270675,
    "website": "https://chidotaco.com/",
    "category": "Restaurant",
    "types": "restaurant, food, point_of_interest, establishment"
  },
  {
    "place_id": "ChIJo48Pe4b2rIkRSUlbTBHIM6g",
    "name": "Bella Monica",
    "street_address": "3121 Edwards Mill Road",
    "city": "Raleigh",
    "state": "NC",
    "zip_code": "27612",
    "latitude": 35.8251382,
    "longitude": -78.7074418,
    "website": "http://www.bellamonica.com/",
    "category": "Bar & Restaurant",
    "types": "bar, restaurant, food, point_of_interest, establishment"
  },
  {
    "place_id": "ChIJY2TF7GdfrIkRY0OVmU7Zbkw",
    "name": "MoJoe's Burger Joint",
    "street_address": "620 Glenwood Avenue",
    "city": "Raleigh",
    "state": "NC",
    "zip_code": "27603",
    "latitude": 35.7885466,
    "longitude": -78.6469771,
    "website": "http://mojoesburgerjoint.com/",
    "category": "Restaurant",
    "types": "restaurant, food, point_of_interest, establishment"
  },
  {
    "place_id": "ChIJB3qYUpBYrIkRYht-quWmaus",
    "name": "Bonefish Grill",
    "street_address": "4421 Six Forks Road",
    "city": "Raleigh",
    "state": "NC",
    "zip_code": "27609",
    "latitude": 35.8404341,
    "longitude": -78.64336949999999,
    "website": "https://locations.bonefishgrill.com/north-carolina/raleigh/4421-six-forks-road?y_source=1_MTU1MDI4MTQtNzE1LWxvY2F0aW9uLndlYnNpdGU%3D",
    "category": "Bar & Restaurant",
    "types": "bar, meal_takeaway, restaurant, food, point_of_interest, establishment"
  },
  {
    "place_id": "ChIJF-Oqk91frIkRRWzrxxDT7wo",
    "name": "House of Hops Craft Beer Shop - Midtown",
    "street_address": "2340 Bale Street",
    "city": "Raleigh",
    "state": "NC",
    "zip_code": "27608",
    "latitude": 35.8134218,
    "longitude": -78.627817,
    "website": "http://www.houseofhopsnc.com/",
    "category": "Bar & Restaurant",
    "types": "bar, liquor_store, store, restaurant, point_of_interest, food, establishment"
  },
  {
    "place_id": "ChIJmTP9lo31rIkRybbh3p_T6vo",
    "name": "Coco Bongo Mexican Express & Cantina",
    "street_address": "2400 Hillsborough Street",
    "city": "Raleigh",
    "state": "NC",
    "zip_code": "27607",
    "latitude": 35.787752,
    "longitude": -78.667042,
    "website": "http://cocobongonc.com/",
    "category": "Bar & Restaurant",
    "types": "bar, restaurant, food, point_of_interest, establishment"
  },
  {
    "place_id": "ChIJzda6aahZrIkRWd6thnvInao",
    "name": "Scooter's Bar & Grill",
    "street_address": "1911 Sego Court",
    "city": "Raleigh",
    "state": "NC",
    "zip_code": "27616",
    "latitude": 35.851517,
    "longitude": -78.6014841,
    "website": "http://www.scootersgrillandbarraleigh.com/",
    "category": "Bar & Restaurant",
    "types": "bar, restaurant, food, point_of_interest, establishment"
  },
  {
    "place_id": "ChIJx5xTP6b0rIkRTPWUkj21TS4",
    "name": "Craft Public House",
    "street_address": "1040 Tryon Village Drive",
    "city": "Cary",
    "state": "NC",
    "zip_code": "27518",
    "latitude": 35.7465387,
    "longitude": -78.7448488,
    "website": "http://www.craftpublichouse.com/?y_source=1_MzQ0MzAwMTktNzE1LWxvY2F0aW9uLndlYnNpdGU%3D",
    "category": "Bar & Restaurant",
    "types": "bar, restaurant, food, point_of_interest, establishment"
  },
  {
    "place_id": "ChIJmSqMJJfzrIkR6zgKrpJDkH0",
    "name": "Spirits Pub & Grub",
    "street_address": "701 East Chatham Street",
    "city": "Cary",
    "state": "NC",
    "zip_code": "27511",
    "latitude": 35.792042,
    "longitude": -78.7655697,
    "website": "http://www.spiritscary.com/",
    "category": "Bar & Restaurant",
    "types": "bar, restaurant, food, point_of_interest, establishment"
  },
  {
    "place_id": "ChIJ8dkqxNXzrIkRnNOplMv6nNI",
    "name": "The One Nine",
    "street_address": "4220 Northwest Cary Parkway",
    "city": "Cary",
    "state": "NC",
    "zip_code": "27513",
    "latitude": 35.7909071,
    "longitude": -78.827193,
    "website": "http://www.oneninebar.com/",
    "category": "Bar & Restaurant",
    "types": "bar, restaurant, food, point_of_interest, establishment"
  },
  {
    "place_id": "ChIJJQFx5F7yrIkRatCgn-f2HRY",
    "name": "The Corner Tavern and Grill",
    "street_address": "1301 Northwest Maynard Road",
    "city": "Cary",
    "state": "NC",
    "zip_code": "27513",
    "latitude": 35.7860667,
    "longitude": -78.8111715,
    "website": "http://www.cornertaverncary.com/",
    "category": "Bar & Restaurant",
    "types": "bar, night_club, restaurant, food, point_of_interest, establishment"
  },
  {
    "place_id": "ChIJsfqpdxbzrIkRv9IZF9yrCAs",
    "name": "The Cary Pub",
    "street_address": "6454 Tryon Road",
    "city": "Cary",
    "state": "NC",
    "zip_code": "27518",
    "latitude": 35.74568190000001,
    "longitude": -78.76227399999999,
    "website": "http://www.thecarypub.com/",
    "category": "Bar & Restaurant",
    "types": "bar, restaurant, food, point_of_interest, establishment"
  },
  {
    "place_id": "ChIJ3WGPMNbzrIkRXrsdRkIsTrE",
    "name": "The Parkway Tavern",
    "street_address": "982 High House Road",
    "city": "Cary",
    "state": "NC",
    "zip_code": "27513",
    "latitude": 35.7891496,
    "longitude": -78.8273876,
    "website": "http://www.theparkwaytavern.com/",
    "category": "Bar & Restaurant",
    "types": "restaurant, bar, food, point_of_interest, establishment"
  },
  {
    "place_id": "ChIJAXmjuKXzrIkRQunuE4OC4Cg",
    "name": "Crosstown Pub & Grill",
    "street_address": "154 East Chatham Street",
    "city": "Cary",
    "state": "NC",
    "zip_code": "27511",
    "latitude": 35.78719110000001,
    "longitude": -78.77962620000001,
    "website": "http://crosstowndowntown.com/",
    "category": "Bar & Restaurant",
    "types": "bar, restaurant, food, point_of_interest, establishment"
  },
  {
    "place_id": "ChIJJ7bhua_zrIkRNRkgSuD4SGM",
    "name": "Upper Deck Sports Pub",
    "street_address": "329 North Harrison Avenue",
    "city": "Cary",
    "state": "NC",
    "zip_code": "27513",
    "latitude": 35.789849,
    "longitude": -78.783907,
    "website": "http://www.upperdecksportspub.com/",
    "category": "Bar & Restaurant",
    "types": "bar, restaurant, food, point_of_interest, establishment"
  },
  {
    "place_id": "ChIJWfl1BnXzrIkR7kPOvbCw5nQ",
    "name": "Mac's Tavern",
    "street_address": "1014 Ryan Road",
    "city": "Cary",
    "state": "NC",
    "zip_code": "27511",
    "latitude": 35.7771422,
    "longitude": -78.7678581,
    "website": null,
    "category": "Bar & Restaurant",
    "types": "bar, restaurant, food, point_of_interest, establishment"
  },
  {
    "place_id": "ChIJrc3ZDqzzrIkRYuMsP0ZbhC0",
    "name": "Sports & Social Cary",
    "street_address": "301 Fenton Gateway Drive",
    "city": "Cary",
    "state": "NC",
    "zip_code": "27511",
    "latitude": 35.7799743,
    "longitude": -78.7571681,
    "website": "http://www.sportsandsocial.com/cary",
    "category": "Bar & Restaurant",
    "types": "restaurant, bar, food, point_of_interest, establishment"
  },
  {
    "place_id": "ChIJw-p8hV3xrIkReNjlquMfmeo",
    "name": "RallyPoint Sport Grill",
    "street_address": "837 Bass Pro Lane",
    "city": "Cary",
    "state": "NC",
    "zip_code": "27513",
    "latitude": 35.8312926,
    "longitude": -78.7702578,
    "website": "http://www.rallypointsportgrill.com/",
    "category": "Bar & Restaurant",
    "types": "restaurant, bar, food, point_of_interest, establishment"
  },
  {
    "place_id": "ChIJ0VYNt8fzrIkRz7F7oRnnnvM",
    "name": "The Big Easy Oven + Tap",
    "street_address": "231 Grande Heights Drive",
    "city": "Cary",
    "state": "NC",
    "zip_code": "27513",
    "latitude": 35.80376049999999,
    "longitude": -78.7810614,
    "website": "https://www.thebigeasyovenandtap.com/",
    "category": "Bar & Restaurant",
    "types": "bar, restaurant, food, point_of_interest, establishment"
  },
  {
    "place_id": "ChIJgY5PSQDzrIkRgIfh-FTmiIc",
    "name": "The Bark Bar",
    "street_address": "302 South Walker Street",
    "city": "Cary",
    "state": "NC",
    "zip_code": "27511",
    "latitude": 35.78467119999999,
    "longitude": -78.7788822,
    "website": "https://downtowncarypark.com/locations/the-bark-bar",
    "category": "Bar & Restaurant",
    "types": "bar, restaurant, food, point_of_interest, establishment"
  },
  {
    "place_id": "ChIJA5xhNO7yrIkRTOfLHiob9ls",
    "name": "Abbey Road Tavern & Grill",
    "street_address": "1195 West Chatham Street",
    "city": "Cary",
    "state": "NC",
    "zip_code": "27513",
    "latitude": 35.7706972,
    "longitude": -78.8069472,
    "website": "https://www.abbeyroadnc.com/",
    "category": "Bar & Restaurant",
    "types": "bar, restaurant, food, point_of_interest, establishment"
  },
  {
    "place_id": "ChIJgTqyBSrzrIkRW-Xe2dO47C8",
    "name": "The Agency Bar and Social",
    "street_address": "21 Fenton Main Street",
    "city": "Cary",
    "state": "NC",
    "zip_code": "27511",
    "latitude": 35.781897,
    "longitude": -78.7596265,
    "website": "https://www.agencybarandsocial.com/",
    "category": "Bar & Restaurant",
    "types": "bar, restaurant, food, point_of_interest, establishment"
  },
  {
    "place_id": "ChIJ5Q_hYJ_0rIkRKVOrq1fzqtM",
    "name": "BJ's Restaurant & Brewhouse",
    "street_address": "5707 Dillard Drive",
    "city": "Cary",
    "state": "NC",
    "zip_code": "27511",
    "latitude": 35.7556832,
    "longitude": -78.7437593,
    "website": "https://www.bjsrestaurants.com/locations/nc/cary?utm_source=google&utm_medium=organic&utm_campaign=google_my_business",
    "category": "Bar & Restaurant",
    "types": "restaurant, bar, point_of_interest, food, establishment"
  },
  {
    "place_id": "ChIJpcSGsOrzrIkR07tmLWZ70Lw",
    "name": "Hank's Downtown Dive",
    "street_address": "111 East Chatham Street",
    "city": "Cary",
    "state": "NC",
    "zip_code": "27511",
    "latitude": 35.78754039999999,
    "longitude": -78.7806811,
    "website": "https://www.hanksdowntowndive.com/",
    "category": "Restaurant",
    "types": "restaurant, food, point_of_interest, establishment"
  },
  {
    "place_id": "ChIJV1gDobzzrIkRX-mWZiYcPik",
    "name": "BottleDog Bites & Brews",
    "street_address": "8306 Chapel Hill Road",
    "city": "Cary",
    "state": "NC",
    "zip_code": "27513",
    "latitude": 35.792416,
    "longitude": -78.7761355,
    "website": "https://www.bottledogcary.com/",
    "category": "Bar & Restaurant",
    "types": "bar, liquor_store, store, restaurant, food, point_of_interest, establishment"
  },
  {
    "place_id": "ChIJwxDLK5HzrIkRsfF_QplcWXI",
    "name": "Scratch Kitchen & Taproom",
    "street_address": "160 East Cedar Street",
    "city": "Cary",
    "state": "NC",
    "zip_code": "27511",
    "latitude": 35.78795339999999,
    "longitude": -78.7790192,
    "website": "https://www.scratchkitchenandtaproom.com/",
    "category": "Restaurant",
    "types": "restaurant, food, point_of_interest, establishment"
  },
  {
    "place_id": "ChIJNz-OYLvzrIkRGa5lmSncqoI",
    "name": "Woody's Sports Tavern & Grill",
    "street_address": "8322 Chapel Hill Road",
    "city": "Cary",
    "state": "NC",
    "zip_code": "27513",
    "latitude": 35.7921281,
    "longitude": -78.7763986,
    "website": "https://www.woodysportstavern.com/",
    "category": "Bar & Restaurant",
    "types": "bar, restaurant, food, point_of_interest, establishment"
  },
  {
    "place_id": "ChIJ6YeE-j_yrIkRlV7JL6CbplM",
    "name": "Bad Daddy's Burger Bar",
    "street_address": "3300 Village Market Place",
    "city": "Morrisville",
    "state": "NC",
    "zip_code": "27560",
    "latitude": 35.8078928,
    "longitude": -78.81898609999999,
    "website": "https://www.baddaddysburgerbar.com/locations/bad-daddys-burger-bar-18",
    "category": "Bar & Restaurant",
    "types": "bar, restaurant, food, point_of_interest, establishment"
  },
  {
    "place_id": "ChIJ_VdGamPzrIkRXTyRA1ZaXoU",
    "name": "Buffalo Brothers Pizza & Wing Co.",
    "street_address": "1289 Kildaire Farm Road",
    "city": "Cary",
    "state": "NC",
    "zip_code": "27511",
    "latitude": 35.7619287,
    "longitude": -78.7818211,
    "website": "http://www.buffbrothers.com/",
    "category": "Bar & Restaurant",
    "types": "bar, restaurant, food, point_of_interest, establishment"
  },
  {
    "place_id": "ChIJ3-T-RYfzrIkR0Mv3ASNBDm8",
    "name": "RBF, Your Authentic Champagne Bar",
    "street_address": "210 East Chatham Street",
    "city": "Cary",
    "state": "NC",
    "zip_code": "27511",
    "latitude": 35.7873081,
    "longitude": -78.77750520000001,
    "website": "http://www.rbf.wine/",
    "category": "Bar & Restaurant",
    "types": "bar, restaurant, food, point_of_interest, establishment"
  },
  {
    "place_id": "ChIJeQ3UXrvzrIkR3OpujRy5pOk",
    "name": "Maximillians Grill & Wine Bar",
    "street_address": "8314 Chapel Hill Road",
    "city": "Cary",
    "state": "NC",
    "zip_code": "27513",
    "latitude": 35.7922979,
    "longitude": -78.77607300000001,
    "website": "http://www.maximilliansgrill.com/",
    "category": "Bar & Restaurant",
    "types": "bar, restaurant, food, point_of_interest, establishment"
  },
  {
    "place_id": "ChIJNWJz4z_yrIkRboOqHZY6_SA",
    "name": "Buffalo Wild Wings",
    "street_address": "1300 Village Market Place",
    "city": "Morrisville",
    "state": "NC",
    "zip_code": "27560",
    "latitude": 35.80604599999999,
    "longitude": -78.8147705,
    "website": "https://www.buffalowildwings.com/locations/us/nc/morrisville/1300-village-market-pl/sports-bar-835?utm_source=google%20my%20business&utm_medium=organic&utm_campaign=website%20link",
    "category": "Bar & Restaurant",
    "types": "meal_takeaway, bar, restaurant, food, point_of_interest, establishment"
  },
  {
    "place_id": "ChIJNZh_WRnzrIkRysPNNdhbd9M",
    "name": "Okja K-Pub & Restaurant",
    "street_address": "1080 Darrington Drive",
    "city": "Cary",
    "state": "NC",
    "zip_code": "27513",
    "latitude": 35.8005387,
    "longitude": -78.816985,
    "website": "https://www.okjanc.com/",
    "category": "Bar & Restaurant",
    "types": "bar, restaurant, food, point_of_interest, establishment"
  },
  {
    "place_id": "ChIJ48rFyVjyrIkRbPPkHsYf1Ng",
    "name": "Big Mikes BBQ Cary",
    "street_address": "1222 Northwest Maynard Road",
    "city": "Cary",
    "state": "NC",
    "zip_code": "27513",
    "latitude": 35.7846611,
    "longitude": -78.8093694,
    "website": "https://bigmikesbbqnc.com/",
    "category": "Restaurant",
    "types": "liquor_store, store, restaurant, food, point_of_interest, establishment"
  },
  {
    "place_id": "ChIJb764gBqNrIkR2DEk8B6rSp4",
    "name": "Back then Bar and Grill",
    "street_address": "107 Edinburgh South Drive",
    "city": "Cary",
    "state": "NC",
    "zip_code": "27511",
    "latitude": 35.736092,
    "longitude": -78.7982586,
    "website": "http://www.backthenbar.com/",
    "category": "Bar & Restaurant",
    "types": "restaurant, bar, food, point_of_interest, establishment"
  },
  {
    "place_id": "ChIJ2-8FggyTrIkRQPOal96w0GY",
    "name": "The Backyard Bar",
    "street_address": "2901 U.S. 64",
    "city": "Apex",
    "state": "NC",
    "zip_code": "27523",
    "latitude": 35.7450731,
    "longitude": -78.908292,
    "website": "https://www.thebackyardbarnc.com/",
    "category": "Bar & Restaurant",
    "types": "bar, restaurant, food, point_of_interest, establishment"
  },
  {
    "place_id": "ChIJB9xKr--TrIkRoxauNjRBPpo",
    "name": "TapStation",
    "street_address": "320 South Salem Street",
    "city": "Apex",
    "state": "NC",
    "zip_code": "27502",
    "latitude": 35.7274976,
    "longitude": -78.8542892,
    "website": "https://www.tapstationapex.com/",
    "category": "Bar & Restaurant",
    "types": "bar, restaurant, food, point_of_interest, establishment"
  },
  {
    "place_id": "ChIJL2J3eiuNrIkRTxE6uFo11R4",
    "name": "MacGregor Draft House",
    "street_address": "107 Edinburgh South Drive",
    "city": "Cary",
    "state": "NC",
    "zip_code": "27511",
    "latitude": 35.7370408,
    "longitude": -78.7983441,
    "website": "http://www.macgregordrafthouse.com/",
    "category": "Bar & Restaurant",
    "types": "bar, restaurant, food, point_of_interest, establishment"
  },
  {
    "place_id": "ChIJ3dPGXsmSrIkRG0slE2jVG4s",
    "name": "JD's Tavern",
    "street_address": "800 West Williams Street",
    "city": "Apex",
    "state": "NC",
    "zip_code": "27502",
    "latitude": 35.7392413,
    "longitude": -78.8642366,
    "website": "http://jdstavernapex.com/",
    "category": "Bar & Restaurant",
    "types": "bar, restaurant, food, point_of_interest, establishment"
  },
  {
    "place_id": "ChIJmwQZqirtrIkRbj7L4X-7CYw",
    "name": "LongHorn Steakhouse",
    "street_address": "1411 Beaver Creek Commons Drive",
    "city": "Apex",
    "state": "NC",
    "zip_code": "27502",
    "latitude": 35.74689499999999,
    "longitude": -78.88381,
    "website": "https://www.longhornsteakhouse.com/locations/nc/apex/apex-nc-near-us-hwy-64/5277?cmpid=br:lh_ag:ie_ch:loc_ca:LHGMB_sn:gmb_gt:apex-nc-5277_pl:locurl_rd:1229",
    "category": "Bar & Restaurant",
    "types": "bar, meal_takeaway, restaurant, food, point_of_interest, establishment"
  },
  {
    "place_id": "ChIJk0Lcab3trIkR38KkbelpeH4",
    "name": "Bottle Theory",
    "street_address": "3675 Green Level West Road",
    "city": "Apex",
    "state": "NC",
    "zip_code": "27523",
    "latitude": 35.7777283,
    "longitude": -78.9053579,
    "website": "https://apexbottletheory.com/",
    "category": "Bar & Restaurant",
    "types": "cafe, liquor_store, bar, store, restaurant, food, point_of_interest, establishment"
  },
  {
    "place_id": "ChIJl9hF2ICNrIkR1LzC7-vddwY",
    "name": "Gamers Geekery & Tavern",
    "street_address": "107 Edinburgh South Drive",
    "city": "Cary",
    "state": "NC",
    "zip_code": "27511",
    "latitude": 35.7364966,
    "longitude": -78.7984218,
    "website": "https://carygametavern.com/",
    "category": "Bar & Restaurant",
    "types": "restaurant, cafe, bar, store, food, point_of_interest, establishment"
  }
]