[
  {
    "place_id": "ChIJ2e_bdT0RsYkRXtAhGw4wSgk",
    "name": "Capital Ale House",
    "street_address": "619 East Main Street",
    "city": "Richmond",
    "state": "VA",
    "zip_code": "23219",
    "latitude": 37.5393861,
    "longitude": -77.4385655,
    "website": "http://www.capitalalehouse.com/",
    "category": "Restaurant",
    "types": "restaurant, food, point_of_interest, establishment"
  },
  {
    "place_id": "ChIJmb0wwTITsYkRBjN498GNJZ0",
    "name": "Riverside Tavern",
    "street_address": "5057 Forest Hill Avenue",
    "city": "Richmond",
    "state": "VA",
    "zip_code": "23225",
    "latitude": 37.5224119,
    "longitude": -77.4903399,
    "website": null,
    "category": "Restaurant",
    "types": "restaurant, food, point_of_interest, establishment"
  },
  {
    "place_id": "ChIJHWYQohkRsYkRgYdXct-3ltI",
    "name": "Southern Railway Taphouse",
    "street_address": "100 South 14th Street",
    "city": "Richmond",
    "state": "VA",
    "zip_code": "23219",
    "latitude": 37.5338978,
    "longitude": -77.4328003,
    "website": "http://srtaphouse.com/",
    "category": "Bar & Restaurant",
    "types": "bar, restaurant, food, point_of_interest, establishment"
  },
  {
    "place_id": "ChIJ8U8Xe-MQsYkRfWG2EOZU0T4",
    "name": "Poe's Pub",
    "street_address": "2706 East Main Street",
    "city": "Richmond",
    "state": "VA",
    "zip_code": "23223",
    "latitude": 37.5279021,
    "longitude": -77.4189844,
    "website": "https://www.poespubrva.com/",
    "category": "Bar & Restaurant",
    "types": "restaurant, bar, food, point_of_interest, establishment"
  },
  {
    "place_id": "ChIJQ0h_UjwRsYkRk5aSi8kOy-8",
    "name": "Penny Lane Pub",
    "street_address": "421 East Franklin Street",
    "city": "Richmond",
    "state": "VA",
    "zip_code": "23219",
    "latitude": 37.54108149999999,
    "longitude": -77.4394243,
    "website": "http://www.pennylanepub.com/",
    "category": "Bar & Restaurant",
    "types": "bar, restaurant, food, point_of_interest, establishment"
  },
  {
    "place_id": "ChIJ1bx9gjQSsYkRp184Wl_AmuM",
    "name": "O'Toole's Restaurant & Pub",
    "street_address": "4800 Forest Hill Avenue",
    "city": "Richmond",
    "state": "VA",
    "zip_code": "23225",
    "latitude": 37.52049699999999,
    "longitude": -77.487465,
    "website": "http://otoolesrestaurant.weebly.com/",
    "category": "Bar & Restaurant",
    "types": "bar, restaurant, food, point_of_interest, establishment"
  },
  {
    "place_id": "ChIJ-x69HP8TsYkRl8m4pHKzDeI",
    "name": "Sheppard Street Tavern",
    "street_address": "2922 Park Avenue",
    "city": "Richmond",
    "state": "VA",
    "zip_code": "23221",
    "latitude": 37.5609248,
    "longitude": -77.4737523,
    "website": "http://www.sheppardstreettavern.com/",
    "category": "Bar & Restaurant",
    "types": "bar, restaurant, food, point_of_interest, establishment"
  },
  {
    "place_id": "ChIJcREH44ARsYkRDC_YKtvkG1M",
    "name": "Fall Line Kitchen & Bar",
    "street_address": "500 East Broad Street",
    "city": "Richmond",
    "state": "VA",
    "zip_code": "23219",
    "latitude": 37.5431553,
    "longitude": -77.4365583,
    "website": "https://www.falllinerestaurant.com/?utm_source=google&utm_medium=organic&utm_campaign=business_listing",
    "category": "Bar & Restaurant",
    "types": "restaurant, bar, food, point_of_interest, establishment"
  },
  {
    "place_id": "ChIJs7vI2jQSsYkRSfXnuJcXGDU",
    "name": "The Locker Room Bar",
    "street_address": "5035B Forest Hill Avenue",
    "city": "Richmond",
    "state": "VA",
    "zip_code": "23225",
    "latitude": 37.5220522,
    "longitude": -77.4896282,
    "website": "https://www.facebook.com/RVALockerRoom/?ref=pages_you_manage",
    "category": "Bar & Restaurant",
    "types": "bar, restaurant, food, point_of_interest, establishment"
  },
  {
    "place_id": "ChIJOTa4MOMTsYkR0twzcmsC8bo",
    "name": "Social52 Kitchen & Craft Bar",
    "street_address": "2619 West Main Street",
    "city": "Richmond",
    "state": "VA",
    "zip_code": "23220",
    "latitude": 37.5520194,
    "longitude": -77.474246,
    "website": "http://www.social52rva.com/",
    "category": "Bar & Restaurant",
    "types": "bar, restaurant, food, point_of_interest, establishment"
  },
  {
    "place_id": "ChIJ42tOFFURsYkRauFCoO79FZ8",
    "name": "Gus' Bar & Grill",
    "street_address": "2701 West Broad Street",
    "city": "Richmond",
    "state": "VA",
    "zip_code": "23220",
    "latitude": 37.5612396,
    "longitude": -77.4684494,
    "website": "http://gusbarandgrill.com/",
    "category": "Bar & Restaurant",
    "types": "bar, restaurant, food, point_of_interest, establishment"
  },
  {
    "place_id": "ChIJn6Hkwx4RsYkRqNGAVETkDf4",
    "name": "Rosie Connolly's Pub Restaurant",
    "street_address": "1548 East Main Street",
    "city": "Richmond",
    "state": "VA",
    "zip_code": "23219",
    "latitude": 37.5340552,
    "longitude": -77.42859829999999,
    "website": "https://rosieconnollys.com/",
    "category": "Bar & Restaurant",
    "types": "bar, restaurant, food, point_of_interest, establishment"
  },
  {
    "place_id": "ChIJTeMIXIoVsYkRn7OK4tlpF_U",
    "name": "Parlay Bar & Lounge",
    "street_address": "3117 West Leigh Street",
    "city": "Richmond",
    "state": "VA",
    "zip_code": "23230",
    "latitude": 37.5675854,
    "longitude": -77.4716128,
    "website": "http://parlayrva.com/",
    "category": "Bar & Restaurant",
    "types": "restaurant, bar, food, point_of_interest, establishment"
  },
  {
    "place_id": "ChIJE_1uBxkRsYkRePq1ZldGMvM",
    "name": "Sin\u00e9 Irish Pub",
    "street_address": "1327 East Cary Street",
    "city": "Richmond",
    "state": "VA",
    "zip_code": "23219",
    "latitude": 37.5346943,
    "longitude": -77.4328555,
    "website": "http://www.sineirishpub.com/richmond",
    "category": "Bar & Restaurant",
    "types": "bar, restaurant, food, point_of_interest, establishment"
  },
  {
    "place_id": "ChIJ9U3sIOMTsYkRUASvryIOsgE",
    "name": "3 Monkeys Bar & Grill",
    "street_address": "2525 West Main Street",
    "city": "Richmond",
    "state": "VA",
    "zip_code": "23220",
    "latitude": 37.5515428,
    "longitude": -77.47316030000002,
    "website": "http://www.3monkeysfan.com/",
    "category": "Bar & Restaurant",
    "types": "bar, restaurant, food, point_of_interest, establishment"
  },
  {
    "place_id": "ChIJSVwckv0TsYkRtPQ7f_cNl0Y",
    "name": "Buddy's Place",
    "street_address": "600 North Sheppard Street",
    "city": "Richmond",
    "state": "VA",
    "zip_code": "23221",
    "latitude": 37.56048889999999,
    "longitude": -77.4744556,
    "website": "http://buddysplace.net/",
    "category": "Bar & Restaurant",
    "types": "bar, restaurant, food, point_of_interest, establishment"
  },
  {
    "place_id": "ChIJm3DwFuEQsYkRNM_43859ZdM",
    "name": "Patrick Henry's Pub & Grille",
    "street_address": "2300 East Broad Street",
    "city": "Richmond",
    "state": "VA",
    "zip_code": "23223",
    "latitude": 37.53280549999999,
    "longitude": -77.42034699999999,
    "website": "http://www.thephpub.com/",
    "category": "Bar & Restaurant",
    "types": "restaurant, bar, food, point_of_interest, establishment"
  },
  {
    "place_id": "ChIJM1U3kqoVsYkRFbwFkw1Qx-Y",
    "name": "Harry's at Hofheimer",
    "street_address": "2818 West Broad Street",
    "city": "Richmond",
    "state": "VA",
    "zip_code": "23230",
    "latitude": 37.56328059999999,
    "longitude": -77.4707616,
    "website": "http://www.harrysrva.com/",
    "category": "Bar & Restaurant",
    "types": "restaurant, bar, food, point_of_interest, establishment"
  },
  {
    "place_id": "ChIJ42MR1-QTsYkRDrLUt_wSekM",
    "name": "The Daily Kitchen & Bar",
    "street_address": "2934 West Cary Street",
    "city": "Richmond",
    "state": "VA",
    "zip_code": "23221",
    "latitude": 37.5525747,
    "longitude": -77.47864419999999,
    "website": "https://thedailykitchenandbar.com/",
    "category": "Restaurant",
    "types": "cafe, restaurant, food, point_of_interest, establishment"
  },
  {
    "place_id": "ChIJ65AR3OYQsYkRBeNe3bTRuVo",
    "name": "Liberty Public House",
    "street_address": "418a North 25th Street",
    "city": "Richmond",
    "state": "VA",
    "zip_code": "23223",
    "latitude": 37.5332784,
    "longitude": -77.4176262,
    "website": "http://www.lphrva.com/",
    "category": "Bar & Restaurant",
    "types": "bar, restaurant, food, point_of_interest, establishment"
  },
  {
    "place_id": "ChIJnX19DP0TsYkR2prOJ4eUZ6Q",
    "name": "McCormack's Whisky Grill",
    "street_address": "204 North Robinson Street",
    "city": "Richmond",
    "state": "VA",
    "zip_code": "23220",
    "latitude": 37.55473619999999,
    "longitude": -77.4718963,
    "website": "https://www.facebook.com/McCormacksWhiskeyGrill?mibextid=LQQJ4d",
    "category": "Bar & Restaurant",
    "types": "bar, restaurant, food, point_of_interest, establishment"
  },
  {
    "place_id": "ChIJH7xianARsYkRX3LAsvzFDxo",
    "name": "Stock Bistro & Bar",
    "street_address": "604 Hull Street",
    "city": "Richmond",
    "state": "VA",
    "zip_code": "23224",
    "latitude": 37.5237291,
    "longitude": -77.4391216,
    "website": "https://txtur.com/pages/stock-rva",
    "category": "Restaurant",
    "types": "restaurant, food, point_of_interest, establishment"
  },
  {
    "place_id": "ChIJ5X5VpPgTsYkRLQXPg54vyZ0",
    "name": "The Franklin Inn",
    "street_address": "Cleveland Street",
    "city": "Richmond",
    "state": "VA",
    "zip_code": "23221",
    "latitude": 37.5629922,
    "longitude": -77.4768284,
    "website": "http://www.thefranklinrva.com/",
    "category": "Bar & Restaurant",
    "types": "bar, restaurant, food, point_of_interest, establishment"
  },
  {
    "place_id": "ChIJOe8ffJsRsYkRqflHYnkHPxE",
    "name": "Westham Tavern",
    "street_address": "100 South 12th Street",
    "city": "Richmond",
    "state": "VA",
    "zip_code": "23219",
    "latitude": 37.5357502,
    "longitude": -77.4349648,
    "website": "https://www.omnihotels.com/hotels/richmond/dining?utm_source=gmblisting&utm_medium=organic",
    "category": "Bar & Restaurant",
    "types": "restaurant, bar, food, point_of_interest, establishment"
  },
  {
    "place_id": "ChIJEajkAzkRsYkRwIW9837-OF8",
    "name": "The Lobby Bar",
    "street_address": "201 West Broad Street",
    "city": "Richmond",
    "state": "VA",
    "zip_code": "23220",
    "latitude": 37.5464995,
    "longitude": -77.4440521,
    "website": "https://www.quirkhotels.com/hotels/richmond/dining-richmond-va/the-lobby-bar",
    "category": "Bar & Restaurant",
    "types": "bar, restaurant, food, point_of_interest, establishment"
  },
  {
    "place_id": "ChIJOygx9x0RsYkRjawn6Dp-ugA",
    "name": "Grandstaff & Stein",
    "street_address": "2113 East Main Street",
    "city": "Richmond",
    "state": "VA",
    "zip_code": "23223",
    "latitude": 37.5308056,
    "longitude": -77.42469439999999,
    "website": "https://www.grandstaffandstein.com/",
    "category": "Bar & Restaurant",
    "types": "bar, restaurant, point_of_interest, food, establishment"
  },
  {
    "place_id": "ChIJT2xo9ykSsYkRLavXzW7CwJk",
    "name": "Thirsty's RVA",
    "street_address": "3516 Forest Hill Avenue",
    "city": "Richmond",
    "state": "VA",
    "zip_code": "23225",
    "latitude": 37.51539829999999,
    "longitude": -77.4709627,
    "website": "https://www.instagram.com/thirstysrva?igsh=MzlzeDFhbTR5ZmV5",
    "category": "Bar & Restaurant",
    "types": "bar, restaurant, food, point_of_interest, establishment"
  },
  {
    "place_id": "ChIJVZC3meMTsYkRYEdTwGKUKyI",
    "name": "The Cask Cafe",
    "street_address": "206 South Robinson Street",
    "city": "Richmond",
    "state": "VA",
    "zip_code": "23220",
    "latitude": 37.5495749,
    "longitude": -77.47471449999999,
    "website": "https://www.caskrva.com/",
    "category": "Bar & Restaurant",
    "types": "bar, restaurant, food, point_of_interest, establishment"
  },
  {
    "place_id": "ChIJb9Tf6AwRsYkRnRY8KIxMU7o",
    "name": "Ironclad Sports Bar",
    "street_address": "924 McDonough Street",
    "city": "Richmond",
    "state": "VA",
    "zip_code": "23224",
    "latitude": 37.5253273,
    "longitude": -77.4457092,
    "website": "http://www.ironcladrva.com/",
    "category": "Bar & Restaurant",
    "types": "bar, restaurant, food, point_of_interest, establishment"
  },
  {
    "place_id": "ChIJvWhiDIATsYkRS-E02aDsd-Y",
    "name": "Ripple Ray's",
    "street_address": "3123 West Cary Street",
    "city": "Richmond",
    "state": "VA",
    "zip_code": "23221",
    "latitude": 37.55330379999999,
    "longitude": -77.4813128,
    "website": "https://www.ripplerays.com/",
    "category": "Bar & Restaurant",
    "types": "restaurant, bar, food, point_of_interest, establishment"
  },
  {
    "place_id": "ChIJF1hN6h4RsYkRTmghlWGWFWc",
    "name": "Havana 59 Downtown",
    "street_address": "16 North 17th Street",
    "city": "Richmond",
    "state": "VA",
    "zip_code": "23219",
    "latitude": 37.5343243,
    "longitude": -77.4283738,
    "website": "http://havana59.com/",
    "category": "Bar & Restaurant",
    "types": "restaurant, bar, food, point_of_interest, establishment"
  },
  {
    "place_id": "ChIJJ1FCrS4RsYkRTjKcsDzKOJg",
    "name": "Lillie Pearl",
    "street_address": "416 East Grace Street",
    "city": "Richmond",
    "state": "VA",
    "zip_code": "23219",
    "latitude": 37.5424512,
    "longitude": -77.438403,
    "website": "https://lilliepearlrva.com/",
    "category": "Restaurant",
    "types": "restaurant, food, point_of_interest, establishment"
  },
  {
    "place_id": "ChIJbeGMN-MTsYkRUC677YaOGOs",
    "name": "Bamboo Cafe",
    "street_address": "1 South Mulberry Street",
    "city": "Richmond",
    "state": "VA",
    "zip_code": "23220",
    "latitude": 37.552119,
    "longitude": -77.47435999999999,
    "website": "http://bamboocaferva.com/",
    "category": "Bar & Restaurant",
    "types": "restaurant, bar, point_of_interest, food, establishment"
  },
  {
    "place_id": "ChIJoRApZDkRsYkR1Siqld1fYmI",
    "name": "Tarrant's Cafe Downtown",
    "street_address": "1 West Broad Street",
    "city": "Richmond",
    "state": "VA",
    "zip_code": "23220",
    "latitude": 37.5454795,
    "longitude": -77.4422483,
    "website": "https://tarrantscaferva.com/",
    "category": "Restaurant",
    "types": "store, restaurant, food, point_of_interest, establishment"
  },
  {
    "place_id": "ChIJs7_MlDwRsYkR7LO1v8KizYg",
    "name": "Gather & Hem Bar",
    "street_address": "501 East Broad Street",
    "city": "Richmond",
    "state": "VA",
    "zip_code": "23219",
    "latitude": 37.5424914,
    "longitude": -77.4371511,
    "website": "https://www.hilton.com/en/hotels/ricrdhh-hilton-richmond-downtown/dining/?SEO_id=GMB--R-RICRDHH&y_source=1_MjY1ODk0MjEtNzE1LWxvY2F0aW9uLndlYnNpdGU%3D",
    "category": "Bar & Restaurant",
    "types": "bar, night_club, restaurant, food, point_of_interest, establishment"
  },
  {
    "place_id": "ChIJ-Q-yBQAUsYkRsDKmh0SNU0U",
    "name": "Historic Hofheimer Building",
    "street_address": "2818 West Broad Street",
    "city": "Richmond",
    "state": "VA",
    "zip_code": "23230",
    "latitude": 37.56328059999999,
    "longitude": -77.4707616,
    "website": "https://www.hofheimerbuilding.com/",
    "category": "Bar & Restaurant",
    "types": "restaurant, bar, food, point_of_interest, establishment"
  },
  {
    "place_id": "ChIJO0dmWB4RsYkRaTgy2rxw-58",
    "name": "Julep's New Southern Cuisine",
    "street_address": "420 East Grace Street",
    "city": "Richmond",
    "state": "VA",
    "zip_code": "23219",
    "latitude": 37.542337,
    "longitude": -77.438394,
    "website": "http://juleps.net/",
    "category": "Bar & Restaurant",
    "types": "bar, restaurant, food, point_of_interest, establishment"
  },
  {
    "place_id": "ChIJRXkmbQ0RsYkRKjB1U-DbyKc",
    "name": "Byrdhouse",
    "street_address": "301 West Franklin Street",
    "city": "Richmond",
    "state": "VA",
    "zip_code": "23220",
    "latitude": 37.54538779999999,
    "longitude": -77.4466698,
    "website": "https://www.graduatehotels.com/richmond/restaurant/byrd-house/?y_source=1_MTA2Njc4ODcwOC03MTUtbG9jYXRpb24ud2Vic2l0ZQ%3D%3D",
    "category": "Bar & Restaurant",
    "types": "restaurant, bar, food, point_of_interest, establishment"
  },
  {
    "place_id": "ChIJv76-wjkRsYkRbMpQauZHC40",
    "name": "GWARbar",
    "street_address": "217 West Clay Street",
    "city": "Richmond",
    "state": "VA",
    "zip_code": "23220",
    "latitude": 37.5487939,
    "longitude": -77.4430089,
    "website": "https://gwarbar.com/",
    "category": "Bar & Restaurant",
    "types": "bar, restaurant, food, point_of_interest, establishment"
  },
  {
    "place_id": "ChIJj6osp1sRsYkR_er7o3PgMcY",
    "name": "Home Team Grill",
    "street_address": "North Vine Street",
    "city": "Richmond",
    "state": "VA",
    "zip_code": "23220",
    "latitude": 37.54815749999999,
    "longitude": -77.46183789999999,
    "website": "http://hometeamgrill.com/",
    "category": "Bar & Restaurant",
    "types": "bar, restaurant, food, point_of_interest, establishment"
  },
  {
    "place_id": "ChIJiS53ugAVsYkR1r4kqdxEjg8",
    "name": "The Brass Tap",
    "street_address": "4901 Libbie Mill East Boulevard",
    "city": "Richmond",
    "state": "VA",
    "zip_code": "23230",
    "latitude": 37.5908117,
    "longitude": -77.4932986,
    "website": "https://www.brasstapbeerbar.com/richmond_va",
    "category": "Bar & Restaurant",
    "types": "bar, restaurant, food, point_of_interest, establishment"
  },
  {
    "place_id": "ChIJXS_qRyUVsYkRAOUz5ulcttA",
    "name": "Bar West",
    "street_address": "5811 Grove Avenue",
    "city": "Richmond",
    "state": "VA",
    "zip_code": "23226",
    "latitude": 37.5727715,
    "longitude": -77.5197041,
    "website": "http://barwest804.com/",
    "category": "Bar & Restaurant",
    "types": "bar, restaurant, food, point_of_interest, establishment"
  },
  {
    "place_id": "ChIJXauB_wgTsYkR2mZuNve7f4o",
    "name": "Rock Falls Tavern",
    "street_address": "2813 Hathaway Road",
    "city": "Richmond",
    "state": "VA",
    "zip_code": "23225",
    "latitude": 37.5383326,
    "longitude": -77.5184967,
    "website": "http://www.rockfallstavern.com/",
    "category": "Bar & Restaurant",
    "types": "bar, restaurant, food, point_of_interest, establishment"
  },
  {
    "place_id": "ChIJc36vhOwUsYkRyUo-EkX23HM",
    "name": "The Tavern",
    "street_address": "7110 Patterson Avenue",
    "city": "Richmond",
    "state": "VA",
    "zip_code": "23229",
    "latitude": 37.5926739,
    "longitude": -77.5327167,
    "website": "http://www.ilovethetavern.com/",
    "category": "Bar & Restaurant",
    "types": "bar, restaurant, food, point_of_interest, establishment"
  },
  {
    "place_id": "ChIJ6VFo2n8WsYkRGektkyLWPvk",
    "name": "Bryan Park Bar & Grill",
    "street_address": "5516 Lakeside Avenue",
    "city": "Richmond",
    "state": "VA",
    "zip_code": "23228",
    "latitude": 37.605002,
    "longitude": -77.467856,
    "website": "https://m.facebook.com/BryanParkBG/",
    "category": "Bar & Restaurant",
    "types": "bar, restaurant, food, point_of_interest, establishment"
  },
  {
    "place_id": "ChIJ2VZSu54VsYkRJeDgxyFMsjM",
    "name": "Crafted",
    "street_address": "4900-151 Libbie Mill East Boulevard",
    "city": "Richmond",
    "state": "VA",
    "zip_code": "23230",
    "latitude": 37.59118600000001,
    "longitude": -77.49410739999999,
    "website": "http://craftedrva.com/",
    "category": "Restaurant",
    "types": "restaurant, food, point_of_interest, establishment"
  },
  {
    "place_id": "ChIJdZHdSy8XsYkRrtZuNVJtYks",
    "name": "Toast, New American Gastropub @ Scott\u2019s Walk",
    "street_address": "3038 North Arthur Ashe Boulevard",
    "city": "Richmond",
    "state": "VA",
    "zip_code": "23230",
    "latitude": 37.573425,
    "longitude": -77.4651416,
    "website": "https://www.toastrva.com/",
    "category": "Bar & Restaurant",
    "types": "restaurant, bar, food, point_of_interest, establishment"
  },
  {
    "place_id": "ChIJN27TVwUTsYkRuC1tF26dwak",
    "name": "Burtons Grill & Bar",
    "street_address": "3520 West Cary Street",
    "city": "Richmond",
    "state": "VA",
    "zip_code": "23221",
    "latitude": 37.5557319,
    "longitude": -77.4873471,
    "website": "https://burtonsgrill.com/locations/va/richmond/",
    "category": "Bar & Restaurant",
    "types": "bar, restaurant, food, point_of_interest, establishment"
  },
  {
    "place_id": "ChIJGbz8QE4RsYkRxT4XL4L1Ods",
    "name": "The Camel",
    "street_address": "1621 West Broad Street",
    "city": "Richmond",
    "state": "VA",
    "zip_code": "23220",
    "latitude": 37.5543677,
    "longitude": -77.4571497,
    "website": "http://www.thecamel.org/",
    "category": "Bar & Restaurant",
    "types": "bar, restaurant, food, point_of_interest, establishment"
  },
  {
    "place_id": "ChIJNZh4EWYasYkRCCYv_1txeL8",
    "name": "Bubba's Bar & Grill",
    "street_address": "4000 Williamsburg Road",
    "city": "Richmond",
    "state": "VA",
    "zip_code": "23231",
    "latitude": 37.5186156,
    "longitude": -77.36022849999999,
    "website": "https://www.facebook.com/Bubbasrestaurantandlounge/",
    "category": "Bar & Restaurant",
    "types": "bar, restaurant, food, point_of_interest, establishment"
  },
  {
    "place_id": "ChIJD0oOQecQsYkRs6kxvDG0BFU",
    "name": "Union Market",
    "street_address": "2306 Jefferson Avenue",
    "city": "Richmond",
    "state": "VA",
    "zip_code": "23223",
    "latitude": 37.5351002,
    "longitude": -77.4179506,
    "website": "http://unionmarketrva.com/",
    "category": "Bar & Restaurant",
    "types": "restaurant, convenience_store, liquor_store, bar, store, food, point_of_interest, establishment"
  },
  {
    "place_id": "ChIJPz7fVBkRsYkRz-d0v-I4S_0",
    "name": "Bottoms Up Pizza",
    "street_address": "1700 Dock Street",
    "city": "Richmond",
    "state": "VA",
    "zip_code": "23223",
    "latitude": 37.53232909999999,
    "longitude": -77.42940469999999,
    "website": "http://bottomsuppizza.com/",
    "category": "Restaurant",
    "types": "restaurant, food, point_of_interest, establishment"
  },
  {
    "place_id": "ChIJG6UYMz8RsYkRTHDLIqVguAk",
    "name": "Lemaire",
    "street_address": "101 West Franklin Street",
    "city": "Richmond",
    "state": "VA",
    "zip_code": "23220",
    "latitude": 37.5447382,
    "longitude": -77.44515179999999,
    "website": "http://www.lemairerestaurant.com/",
    "category": "Bar & Restaurant",
    "types": "bar, restaurant, food, point_of_interest, establishment"
  },
  {
    "place_id": "ChIJf1_BuA0RsYkRr_2Z8sQna3Y",
    "name": "Legend Brewing Co",
    "street_address": "321 West 7th Street",
    "city": "Richmond",
    "state": "VA",
    "zip_code": "23224",
    "latitude": 37.52667520000001,
    "longitude": -77.44304609999999,
    "website": "http://www.legendbrewing.com/",
    "category": "Bar & Restaurant",
    "types": "bar, restaurant, food, point_of_interest, establishment"
  },
  {
    "place_id": "ChIJG-yZVMwTsYkRfsNLxSDmUa8",
    "name": "Pizza & Beer of Richmond",
    "street_address": "2553 West Cary Street",
    "city": "Richmond",
    "state": "VA",
    "zip_code": "23220",
    "latitude": 37.5505217,
    "longitude": -77.4735494,
    "website": "https://www.pbrva.com/",
    "category": "Bar & Restaurant",
    "types": "bar, restaurant, food, point_of_interest, establishment"
  },
  {
    "place_id": "ChIJ-2RlLeQQsYkRiqahahFic0w",
    "name": "The Hill Cafe",
    "street_address": "2800 East Broad Street",
    "city": "Richmond",
    "state": "VA",
    "zip_code": "23223",
    "latitude": 37.53007799999999,
    "longitude": -77.4157895,
    "website": "https://thehillcafe.com/",
    "category": "Restaurant",
    "types": "cafe, restaurant, food, point_of_interest, establishment"
  },
  {
    "place_id": "ChIJm_kjURsRsYkRpGXHEn1mQZw",
    "name": "Pig and Brew",
    "street_address": "1313 Hull Street",
    "city": "Richmond",
    "state": "VA",
    "zip_code": "23224",
    "latitude": 37.5202764,
    "longitude": -77.4453903,
    "website": "http://www.pigandbrew.com/",
    "category": "Bar & Restaurant",
    "types": "bar, restaurant, food, point_of_interest, establishment"
  },
  {
    "place_id": "ChIJaxx7dTQRsYkRsZDKtfUqDEk",
    "name": "Cobra Cabana",
    "street_address": "901 West Marshall Street",
    "city": "Richmond",
    "state": "VA",
    "zip_code": "23220",
    "latitude": 37.5509642,
    "longitude": -77.4489545,
    "website": "https://cobracabanarva.square.site/",
    "category": "Bar & Restaurant",
    "types": "restaurant, bar, food, point_of_interest, establishment"
  },
  {
    "place_id": "ChIJhd9SQgAUsYkRj-seDhXVxPo",
    "name": "Three Notch'd Brewing Company - Richmond",
    "street_address": "2930 West Broad Street",
    "city": "Richmond",
    "state": "VA",
    "zip_code": "23230",
    "latitude": 37.56444419999999,
    "longitude": -77.4722681,
    "website": "https://threenotchdbrewing.com/pages/rva?utm_source=google&utm_medium=organic&utm_campaign=gmb",
    "category": "Bar & Restaurant",
    "types": "bar, restaurant, food, point_of_interest, establishment"
  },
  {
    "place_id": "ChIJq3QqWAEUsYkRBTfM2dZAqkA",
    "name": "The Veil Brewing Co. - Scott\u2019s Addition",
    "street_address": "1509B Belleville Street",
    "city": "Richmond",
    "state": "VA",
    "zip_code": "23230",
    "latitude": 37.5714928,
    "longitude": -77.47485089999999,
    "website": "http://www.theveilbrewing.com/rva-sa",
    "category": "Bar & Restaurant",
    "types": "bar, restaurant, food, point_of_interest, establishment"
  },
  {
    "place_id": "ChIJa7xGkEUVsYkRtHT8blWahTE",
    "name": "Bingo Beer Co",
    "street_address": "2900 West Broad Street",
    "city": "Richmond",
    "state": "VA",
    "zip_code": "23230",
    "latitude": 37.5635614,
    "longitude": -77.4715446,
    "website": "http://www.bingorva.com/",
    "category": "Bar & Restaurant",
    "types": "bar, restaurant, food, point_of_interest, establishment"
  },
  {
    "place_id": "ChIJw0BUtwMUsYkRF9cE7_LFPH4",
    "name": "Tazza Kitchen Scott's Addition",
    "street_address": "1500 Roseneath Road",
    "city": "Richmond",
    "state": "VA",
    "zip_code": "23230",
    "latitude": 37.5702249,
    "longitude": -77.4735834,
    "website": "https://www.tazzakitchen.com/location/scottsaddition",
    "category": "Bar & Restaurant",
    "types": "bar, restaurant, food, point_of_interest, establishment"
  },
  {
    "place_id": "ChIJ4_k0VVgRsYkR0pGR7VMEGOU",
    "name": "The Sidewalk Cafe",
    "street_address": "2101 West Main Street",
    "city": "Richmond",
    "state": "VA",
    "zip_code": "23220",
    "latitude": 37.5495132,
    "longitude": -77.4673143,
    "website": "http://www.sidewalkinthefan.com/",
    "category": "Restaurant",
    "types": "restaurant, food, point_of_interest, establishment"
  },
  {
    "place_id": "ChIJs1rucVgRsYkRQwnQP3S5da8",
    "name": "My Noodle & Bar",
    "street_address": "1600 Monument Avenue",
    "city": "Richmond",
    "state": "VA",
    "zip_code": "23220",
    "latitude": 37.5528412,
    "longitude": -77.4579153,
    "website": "https://my-noodle-bar.com/",
    "category": "Bar & Restaurant",
    "types": "bar, restaurant, food, point_of_interest, establishment"
  },
  {
    "place_id": "ChIJi9YWz1MRsYkRFFYlcDd-xbw",
    "name": "The Savory Grain",
    "street_address": "2043 West Broad Street",
    "city": "Richmond",
    "state": "VA",
    "zip_code": "23220",
    "latitude": 37.5575167,
    "longitude": -77.4622333,
    "website": "https://www.thesavorygrain.com/",
    "category": "Restaurant",
    "types": "restaurant, point_of_interest, food, establishment"
  },
  {
    "place_id": "ChIJ_48rJf4UsYkR1EYBndNcBxU",
    "name": "TGI Fridays",
    "street_address": "7023 West Broad Street",
    "city": "Richmond",
    "state": "VA",
    "zip_code": "23294",
    "latitude": 37.6095077,
    "longitude": -77.519639,
    "website": "https://locations.tgifridays.com/va/richmond/7023-w-broad-st.html",
    "category": "Bar & Restaurant",
    "types": "restaurant, bar, food, point_of_interest, establishment"
  },
  {
    "place_id": "ChIJhYHLWmgSsYkR6zqj80Kws00",
    "name": "Pop's Bar and Grill",
    "street_address": "210 Giant Drive",
    "city": "Richmond",
    "state": "VA",
    "zip_code": "23224",
    "latitude": 37.5015764,
    "longitude": -77.5027296,
    "website": "http://popsrva.com/",
    "category": "Bar & Restaurant",
    "types": "bar, restaurant, food, point_of_interest, establishment"
  },
  {
    "place_id": "ChIJ0zYgMsUWsYkRPuPXFMbGzDg",
    "name": "Fuzzy Cactus",
    "street_address": "221 West Brookland Park Boulevard",
    "city": "Richmond",
    "state": "VA",
    "zip_code": "23222",
    "latitude": 37.5714854,
    "longitude": -77.4361233,
    "website": "https://fuzzycactusrva.com/",
    "category": "Bar & Restaurant",
    "types": "restaurant, bar, food, point_of_interest, establishment"
  },
  {
    "place_id": "ChIJP4NanOcQsYkRfmKTqIJn0Xk",
    "name": "The Roosevelt",
    "street_address": "623 North 25th Street",
    "city": "Richmond",
    "state": "VA",
    "zip_code": "23223",
    "latitude": 37.53489700000001,
    "longitude": -77.41541889999999,
    "website": "http://rooseveltrva.com/",
    "category": "Restaurant",
    "types": "restaurant, food, point_of_interest, establishment"
  },
  {
    "place_id": "ChIJByWg09oWsYkRXCkdemrYUZA",
    "name": "Harlym Blue\u2019Z",
    "street_address": "210 West Brookland Park Boulevard",
    "city": "Richmond",
    "state": "VA",
    "zip_code": "23222",
    "latitude": 37.57177609999999,
    "longitude": -77.4355944,
    "website": "https://www.harlymbluezrva.com/",
    "category": "Bar & Restaurant",
    "types": "restaurant, bar, food, point_of_interest, establishment"
  },
  {
    "place_id": "ChIJJxBKGZIRsYkRDVVfdV3_Uvo",
    "name": "Bar Solita",
    "street_address": "123 West Broad Street",
    "city": "Richmond",
    "state": "VA",
    "zip_code": "23220",
    "latitude": 37.5464232,
    "longitude": -77.4438033,
    "website": "http://barsolita.com/",
    "category": "Restaurant",
    "types": "restaurant, food, point_of_interest, establishment"
  },
  {
    "place_id": "ChIJNxVWXx4RsYkRLQ_Oca-y2hI",
    "name": "McCormack's Irish Pub",
    "street_address": "12 North 18th Street",
    "city": "Richmond",
    "state": "VA",
    "zip_code": "23223",
    "latitude": 37.53354879999999,
    "longitude": -77.4271735,
    "website": "https://www.facebook.com/macspub",
    "category": "Bar & Restaurant",
    "types": "bar, restaurant, food, point_of_interest, establishment"
  },
  {
    "place_id": "ChIJN-z8c1kRsYkRxVcQGsWkj3M",
    "name": "My District",
    "street_address": "1911 West Main Street",
    "city": "Richmond",
    "state": "VA",
    "zip_code": "23220",
    "latitude": 37.5487665,
    "longitude": -77.46559649999999,
    "website": null,
    "category": "Bar & Restaurant",
    "types": "bar, restaurant, point_of_interest, food, establishment"
  },
  {
    "place_id": "ChIJ42jR8-ITsYkRKS6yow8U7Pw",
    "name": "City Beach",
    "street_address": "2416 West Cary Street",
    "city": "Richmond",
    "state": "VA",
    "zip_code": "23220",
    "latitude": 37.5503235,
    "longitude": -77.4719701,
    "website": "https://www.beachhousebar.us/",
    "category": "Bar & Restaurant",
    "types": "bar, restaurant, food, point_of_interest, establishment"
  },
  {
    "place_id": "ChIJA4RPcTMSsYkRynmnVgwI3l8",
    "name": "Little Nickel",
    "street_address": "4702 Forest Hill Avenue",
    "city": "Richmond",
    "state": "VA",
    "zip_code": "23225",
    "latitude": 37.5202622,
    "longitude": -77.4864418,
    "website": "https://littlenickel.co/",
    "category": "Restaurant",
    "types": "restaurant, food, point_of_interest, establishment"
  },
  {
    "place_id": "ChIJ7-LNkRIWsYkRffgrYVXvyTQ",
    "name": "Another Round",
    "street_address": "7515 Brook Road",
    "city": "Richmond",
    "state": "VA",
    "zip_code": "23227",
    "latitude": 37.6262798,
    "longitude": -77.457923,
    "website": "https://m.facebook.com/AnotherRoundBarandGrillRVA/",
    "category": "Bar & Restaurant",
    "types": "bar, restaurant, point_of_interest, food, establishment"
  },
  {
    "place_id": "ChIJx5o_kpEWsYkRHAPjRNXlD5E",
    "name": "Northside Grille",
    "street_address": "1217 Bellevue Avenue",
    "city": "Richmond",
    "state": "VA",
    "zip_code": "23227",
    "latitude": 37.59078049999999,
    "longitude": -77.45318979999999,
    "website": "https://m.facebook.com/northsidegrillebellevue",
    "category": "Bar & Restaurant",
    "types": "meal_takeaway, bar, restaurant, food, point_of_interest, establishment"
  },
  {
    "place_id": "ChIJeQzeJm1rsYkRf_vhKEkZGAU",
    "name": "Twin Hickory Tavern",
    "street_address": "1420 North Parham Road",
    "city": "Henrico",
    "state": "VA",
    "zip_code": "23229",
    "latitude": 37.6017699,
    "longitude": -77.5672655,
    "website": "http://www.twinhickorytavern.com/",
    "category": "Restaurant",
    "types": "restaurant, food, point_of_interest, establishment"
  },
  {
    "place_id": "ChIJX_i-0TNrsYkRNJisBi94_yk",
    "name": "McCormack's Big Whisky Grill",
    "street_address": "1420 North Parham Road",
    "city": "Richmond",
    "state": "VA",
    "zip_code": "23229",
    "latitude": 37.601212,
    "longitude": -77.5664762,
    "website": "http://www.bigwhiskygrill.com/",
    "category": "Bar & Restaurant",
    "types": "bar, restaurant, food, point_of_interest, establishment"
  },
  {
    "place_id": "ChIJOW_dUwlqsYkREh-S1HVaVpI",
    "name": "The Daily Kitchen & Bar",
    "street_address": "12201 West Broad Street",
    "city": "Short Pump",
    "state": "VA",
    "zip_code": "23233",
    "latitude": 37.6595614,
    "longitude": -77.636551,
    "website": "https://thedailykitchenandbar.com/",
    "category": "Restaurant",
    "types": "restaurant, food, point_of_interest, establishment"
  },
  {
    "place_id": "ChIJmVJ0Ur1qsYkRoCjTshMZBaY",
    "name": "Capital Ale House",
    "street_address": "4024 Cox Road",
    "city": "Glen Allen",
    "state": "VA",
    "zip_code": "23060",
    "latitude": 37.6483889,
    "longitude": -77.5837949,
    "website": "http://www.capitalalehouse.com/",
    "category": "Bar & Restaurant",
    "types": "restaurant, bar, food, point_of_interest, establishment"
  },
  {
    "place_id": "ChIJ1UOJhGZqsYkRyBP7ltqiJJg",
    "name": "Pour House",
    "street_address": "3438 Pump Road",
    "city": "Short Pump",
    "state": "VA",
    "zip_code": "23233",
    "latitude": 37.6482031,
    "longitude": -77.61602540000001,
    "website": "http://www.shortpumppourhouse.com/",
    "category": "Bar & Restaurant",
    "types": "bar, restaurant, food, point_of_interest, establishment"
  },
  {
    "place_id": "ChIJPV_pVShrsYkRw7mv90QG82k",
    "name": "Park Lane Tavern of RVA Short Pump",
    "street_address": "2251 Old Brick Road",
    "city": "Glen Allen",
    "state": "VA",
    "zip_code": "23060",
    "latitude": 37.6473289,
    "longitude": -77.601783,
    "website": "http://www.parklanetavern.com/",
    "category": "Restaurant",
    "types": "restaurant, point_of_interest, food, establishment"
  },
  {
    "place_id": "ChIJI7Db70NDsYkRzWKG9bCgDyU",
    "name": "Industrial Taphouse West",
    "street_address": "12912 Plaza Drive",
    "city": "Henrico",
    "state": "VA",
    "zip_code": "23233",
    "latitude": 37.67374969999999,
    "longitude": -77.6748633,
    "website": "https://www.industrialtaphouse.com/",
    "category": "Restaurant",
    "types": "restaurant, food, point_of_interest, establishment"
  },
  {
    "place_id": "ChIJJ-ygUnBqsYkRni49HGMt1BI",
    "name": "Cooper's Hawk Winery & Restaurant- Richmond, VA",
    "street_address": "11792 West Broad Street",
    "city": "Richmond",
    "state": "VA",
    "zip_code": "23233",
    "latitude": 37.6542667,
    "longitude": -77.62184049999999,
    "website": "https://chwinery.com/locations/virginia/richmond",
    "category": "Bar & Restaurant",
    "types": "bar, restaurant, food, point_of_interest, establishment"
  },
  {
    "place_id": "ChIJyyZzDTdrsYkRYnhUh3tKCLE",
    "name": "Wood and Iron | Game Day Restaurant and Bar",
    "street_address": "12288 West Broad Street",
    "city": "Henrico",
    "state": "VA",
    "zip_code": "23233",
    "latitude": 37.662292,
    "longitude": -77.6396018,
    "website": "https://woodandirongameday.com/short-pump/",
    "category": "Restaurant",
    "types": "restaurant, food, point_of_interest, establishment"
  },
  {
    "place_id": "ChIJU7RKmHBqsYkRc66GJ1HUIoY",
    "name": "Firebirds Wood Fired Grill",
    "street_address": "11800 West Broad Street",
    "city": "Richmond",
    "state": "VA",
    "zip_code": "23233",
    "latitude": 37.6568014,
    "longitude": -77.6192157,
    "website": "https://firebirdsrestaurants.com/richmond-short-pump",
    "category": "Restaurant",
    "types": "restaurant, food, point_of_interest, establishment"
  },
  {
    "place_id": "ChIJwcwzq0FAsYkRc1Qf6N3DogY",
    "name": "Sedona Taphouse",
    "street_address": "5312 Wyndham Forest Drive",
    "city": "Glen Allen",
    "state": "VA",
    "zip_code": "23059",
    "latitude": 37.68289459999999,
    "longitude": -77.5875397,
    "website": "https://sedonataphouse.com/locations/glen-allen-va/",
    "category": "Bar & Restaurant",
    "types": "bar, restaurant, food, point_of_interest, establishment"
  },
  {
    "place_id": "ChIJm_M2pnxqsYkRcQ2ys-30oS4",
    "name": "World of Beer",
    "street_address": "11600 West Broad Street",
    "city": "Richmond",
    "state": "VA",
    "zip_code": "23233",
    "latitude": 37.6521759,
    "longitude": -77.61323209999999,
    "website": "https://worldofbeer.com/Locations/Richmond",
    "category": "Bar & Restaurant",
    "types": "bar, restaurant, food, point_of_interest, establishment"
  },
  {
    "place_id": "ChIJs8ygeWxrsYkRA6PVvUwUTkQ",
    "name": "MPM Tiki & Sports Bar",
    "street_address": "2451 Old Brick Road",
    "city": "Glen Allen",
    "state": "VA",
    "zip_code": "23060",
    "latitude": 37.6482407,
    "longitude": -77.60462199999999,
    "website": null,
    "category": "Restaurant",
    "types": "restaurant, food, point_of_interest, establishment"
  },
  {
    "place_id": "ChIJX0P06ytBsYkR9EPqoVhQ6RE",
    "name": "Twin Hickory Tavern",
    "street_address": "11351 Nuckols Road",
    "city": "Glen Allen",
    "state": "VA",
    "zip_code": "23059",
    "latitude": 37.6811782,
    "longitude": -77.59055219999999,
    "website": "https://twinhickorytavern.com/",
    "category": "Restaurant",
    "types": "restaurant, food, point_of_interest, establishment"
  },
  {
    "place_id": "ChIJ_bQ6AphqsYkRzMrO9h7iUpA",
    "name": "The Beach House",
    "street_address": "4040 Cox Road",
    "city": "Glen Allen",
    "state": "VA",
    "zip_code": "23060",
    "latitude": 37.64872080000001,
    "longitude": -77.58550389999999,
    "website": "http://www.beachhousebar.us/",
    "category": "Bar & Restaurant",
    "types": "bar, restaurant, food, point_of_interest, establishment"
  },
  {
    "place_id": "ChIJwWVEBrtqsYkRqrerM8pAkHs",
    "name": "The Bistro",
    "street_address": "3950 Westerre Parkway",
    "city": "Henrico",
    "state": "VA",
    "zip_code": "23233",
    "latitude": 37.6451628,
    "longitude": -77.57668319999999,
    "website": "https://www.marriott.com/hotels/hotel-information/restaurant/ricnw-courtyard-richmond-northwest-short-pump/?scid=f2ae0541-1279-4f24-b197-a979c79310b0",
    "category": "Restaurant",
    "types": "restaurant, food, point_of_interest, establishment"
  },
  {
    "place_id": "ChIJh98hJQBrsYkR-D3pnY6R_iQ",
    "name": "Ford's Garage Short Pump",
    "street_address": "11275 West Broad Street",
    "city": "Glen Allen",
    "state": "VA",
    "zip_code": "23060",
    "latitude": 37.6492878,
    "longitude": -77.6039818,
    "website": "https://fordsgarageusa.com/locations/richmond/",
    "category": "Bar & Restaurant",
    "types": "bar, restaurant, food, point_of_interest, establishment"
  },
  {
    "place_id": "ChIJ0VxsunBqsYkRTGzx3qU4o6k",
    "name": "The Boathouse at Short Pump Town Center",
    "street_address": "11800 West Broad Street",
    "city": "Richmond",
    "state": "VA",
    "zip_code": "23233",
    "latitude": 37.6567328,
    "longitude": -77.6183787,
    "website": "https://www.theboathouse.com/",
    "category": "Bar & Restaurant",
    "types": "meal_takeaway, bar, restaurant, food, point_of_interest, establishment"
  },
  {
    "place_id": "ChIJoeV6k5RqsYkRTKJHrbUHfhw",
    "name": "Tarrant's West",
    "street_address": "11129 Three Chopt Road",
    "city": "Richmond",
    "state": "VA",
    "zip_code": "23233",
    "latitude": 37.6400615,
    "longitude": -77.5893626,
    "website": "http://tarrantswest.com/",
    "category": "Restaurant",
    "types": "restaurant, food, point_of_interest, establishment"
  },
  {
    "place_id": "ChIJ-TsMSqtrsYkRb5qMJZhhGqc",
    "name": "Glory Days Grill",
    "street_address": "10466 Ridgefield Parkway",
    "city": "Richmond",
    "state": "VA",
    "zip_code": "23233",
    "latitude": 37.620888,
    "longitude": -77.61259,
    "website": "https://www.glorydaysgrill.com/",
    "category": "Bar & Restaurant",
    "types": "meal_takeaway, bar, restaurant, food, point_of_interest, establishment"
  },
  {
    "place_id": "ChIJiXEETHNqsYkRkbJdi0pPzh4",
    "name": "BJ's Restaurant & Brewhouse",
    "street_address": "12010 West Broad Street",
    "city": "Henrico",
    "state": "VA",
    "zip_code": "23233",
    "latitude": 37.6577097,
    "longitude": -77.62931449999999,
    "website": "https://www.bjsrestaurants.com/locations/va/richmond?utm_source=google&utm_medium=organic&utm_campaign=google_my_business",
    "category": "Bar & Restaurant",
    "types": "restaurant, bar, food, point_of_interest, establishment"
  },
  {
    "place_id": "ChIJZTK86n1rsYkRndBPNKooe1I",
    "name": "Cocky Rooster",
    "street_address": "12171 West Broad Street",
    "city": "Short Pump",
    "state": "VA",
    "zip_code": "23233",
    "latitude": 37.65912029999999,
    "longitude": -77.6362192,
    "website": "http://cocky-rooster.com/",
    "category": "Restaurant",
    "types": "restaurant, food, point_of_interest, establishment"
  },
  {
    "place_id": "ChIJk-9P5ohqsYkRoyRVcD22pPw",
    "name": "Mona Lounge and Cigar Bar",
    "street_address": "2442 Old Brick Road",
    "city": "Glen Allen",
    "state": "VA",
    "zip_code": "23060",
    "latitude": 37.6484746,
    "longitude": -77.603706,
    "website": "https://monaloungecigarbar.com/",
    "category": "Bar & Restaurant",
    "types": "night_club, bar, restaurant, food, point_of_interest, store, establishment"
  },
  {
    "place_id": "ChIJSbRWIb1qsYkRzMdyaa92vfE",
    "name": "Silver Diner",
    "street_address": "10890 West Broad Street",
    "city": "Glen Allen",
    "state": "VA",
    "zip_code": "23060",
    "latitude": 37.647429,
    "longitude": -77.58211,
    "website": "http://www.silverdiner.com/",
    "category": "Restaurant",
    "types": "restaurant, point_of_interest, food, establishment"
  },
  {
    "place_id": "ChIJRasWjHRqsYkRsvRikYH2-eo",
    "name": "Shula's American Kitchen, Richmond, VA",
    "street_address": "12042 West Broad Street",
    "city": "Richmond",
    "state": "VA",
    "zip_code": "23233",
    "latitude": 37.6592974,
    "longitude": -77.6282231,
    "website": "https://donshula.com/richmond-va/",
    "category": "Bar & Restaurant",
    "types": "bar, restaurant, food, point_of_interest, establishment"
  },
  {
    "place_id": "ChIJKRFviAdDsYkRoX-s0MWqQAg",
    "name": "Sports Page Bar and Grille Goochland",
    "street_address": "36 Broad Street Road",
    "city": "Manakin-Sabot",
    "state": "VA",
    "zip_code": "23103",
    "latitude": 37.6713669,
    "longitude": -77.68170549999999,
    "website": "http://www.sportspagegoochland.com/",
    "category": "Bar & Restaurant",
    "types": "bar, restaurant, food, point_of_interest, establishment"
  },
  {
    "place_id": "ChIJcSTFqWJqsYkR72M5ngXGnPY",
    "name": "LongHorn Steakhouse",
    "street_address": "11311 West Broad Street",
    "city": "Glen Allen",
    "state": "VA",
    "zip_code": "23060",
    "latitude": 37.64962499999999,
    "longitude": -77.605656,
    "website": "https://www.longhornsteakhouse.com/locations/va/glen-allen/glen-allen-short-pump/5309?cmpid=br:lh_ag:ie_ch:loc_ca:LHGMB_sn:gmb_gt:glen-allen-va-5309_pl:locurl_rd:1258",
    "category": "Bar & Restaurant",
    "types": "bar, meal_takeaway, restaurant, food, point_of_interest, establishment"
  },
  {
    "place_id": "ChIJ3bIesYhqsYkRsZAJ1EK4TgU",
    "name": "Bonefish Grill",
    "street_address": "11251 West Broad Street",
    "city": "Glen Allen",
    "state": "VA",
    "zip_code": "23060",
    "latitude": 37.6490274,
    "longitude": -77.6025159,
    "website": "https://locations.bonefishgrill.com/virginia/glen-allen/11251-west-broad-street?y_source=1_MTU1MDI4MjktNzE1LWxvY2F0aW9uLndlYnNpdGU%3D",
    "category": "Bar & Restaurant",
    "types": "meal_takeaway, bar, restaurant, food, point_of_interest, establishment"
  },
  {
    "place_id": "ChIJOw7Y4gtqsYkR259v59tjrCE",
    "name": "Red Salt Chophouse and Sushi",
    "street_address": "12221 West Broad Street",
    "city": "Short Pump",
    "state": "VA",
    "zip_code": "23233",
    "latitude": 37.6591498,
    "longitude": -77.636898,
    "website": "https://www.redsaltrva.com/",
    "category": "Restaurant",
    "types": "restaurant, food, point_of_interest, establishment"
  },
  {
    "place_id": "ChIJG2FrPnNqsYkR4PCRreP_8Zw",
    "name": "Genghis Grill",
    "street_address": "11849 West Broad Street",
    "city": "Richmond",
    "state": "VA",
    "zip_code": "23233",
    "latitude": 37.65378949999999,
    "longitude": -77.62342939999999,
    "website": "https://locations.genghisgrill.com/va/richmond/genghis-grill-2705.html",
    "category": "Bar & Restaurant",
    "types": "restaurant, bar, food, point_of_interest, establishment"
  },
  {
    "place_id": "ChIJ-6JqX2pqsYkR0sKscRLA7u4",
    "name": "Vinny's Italian Grill and Pizza",
    "street_address": "3434 Lauderdale Drive",
    "city": "Richmond",
    "state": "VA",
    "zip_code": "23233",
    "latitude": 37.6440926,
    "longitude": -77.6289733,
    "website": "http://vinnysinshortpump.com/",
    "category": "Restaurant",
    "types": "restaurant, food, point_of_interest, establishment"
  },
  {
    "place_id": "ChIJsQsYdnFqsYkR_c-79_LOQJ0",
    "name": "Red Robin Gourmet Burgers and Brews",
    "street_address": "11748 West Broad Street",
    "city": "Richmond",
    "state": "VA",
    "zip_code": "23233",
    "latitude": 37.6552363,
    "longitude": -77.6240394,
    "website": "https://www.redrobin.com/locations/va/richmond/short-pump-tc-99?store_id=99&store_type=corporate&utm_campaign=local-business-listing&utm_content=website-link&utm_medium=organic-seach&utm_source=google-business-profile",
    "category": "Bar & Restaurant",
    "types": "restaurant, meal_takeaway, bar, food, point_of_interest, establishment"
  },
  {
    "place_id": "ChIJbxC50OZrsYkRj50PMiUrseM",
    "name": "Mi Jalisco Mexican Restaurant",
    "street_address": "10482 Ridgefield Parkway",
    "city": "Henrico",
    "state": "VA",
    "zip_code": "23233",
    "latitude": 37.6206357,
    "longitude": -77.61334389999999,
    "website": "https://mijaliscomexicanfamilyrestaurantva.com/",
    "category": "Restaurant",
    "types": "restaurant, food, point_of_interest, establishment"
  },
  {
    "place_id": "ChIJcXLKyHFqsYkRuGyj4EeXdPU",
    "name": "Olive Garden Italian Restaurant",
    "street_address": "11829 West Broad Street",
    "city": "Richmond",
    "state": "VA",
    "zip_code": "23233",
    "latitude": 37.6532305,
    "longitude": -77.62217559999999,
    "website": "https://www.olivegarden.com/locations/va/richmond/short-pump/1896?cmpid=br:og_ag:ie_ch:loc_ca:OGGMB_sn:gmb_gt:richmond-va-1896_pl:locurl_rd:1736",
    "category": "Bar & Restaurant",
    "types": "meal_takeaway, bar, restaurant, food, point_of_interest, establishment"
  }
]