[
  {
    "place_id": "ChIJvfnvahDUmoARgnl4Cp104GY",
    "name": "Kick'n Mule Restaurant and Sports Bar",
    "street_address": "2901 West Capitol Avenue",
    "city": "West Sacramento",
    "state": "CA",
    "zip_code": "95691",
    "latitude": 38.5789622,
    "longitude": -121.5496398,
    "website": "https://www.kicknmule.com/",
    "category": "Bar & Restaurant",
    "types": "restaurant, bar, food, point_of_interest, establishment"
  },
  {
    "place_id": "ChIJ1R40RvPXmoARY4cH3p4IzBg",
    "name": "The Midway",
    "street_address": "330 3rd Street",
    "city": "West Sacramento",
    "state": "CA",
    "zip_code": "95605",
    "latitude": 38.58758589999999,
    "longitude": -121.5106058,
    "website": "http://themidwaywestsac.com/",
    "category": "Restaurant",
    "types": "restaurant, food, point_of_interest, establishment"
  },
  {
    "place_id": "ChIJRRUc3s7TmoARC6oFNW7KtZE",
    "name": "West Sac Sports Bar & Grill",
    "street_address": "3340 Jefferson Boulevard",
    "city": "West Sacramento",
    "state": "CA",
    "zip_code": "95691",
    "latitude": 38.53644999999999,
    "longitude": -121.55293,
    "website": null,
    "category": "Bar & Restaurant",
    "types": "bar, restaurant, food, point_of_interest, establishment"
  },
  {
    "place_id": "ChIJ7zpNnSbRmoARAiqNyQgMpYo",
    "name": "Fox & Goose Public House",
    "street_address": "1001 R Street",
    "city": "Sacramento",
    "state": "CA",
    "zip_code": "95811",
    "latitude": 38.5715893,
    "longitude": -121.4969745,
    "website": "http://www.foxandgoose.com/",
    "category": "Bar & Restaurant",
    "types": "restaurant, bar, food, point_of_interest, establishment"
  },
  {
    "place_id": "ChIJccvptLbWmoARjrpWneQimrc",
    "name": "Caps Bar and Grill",
    "street_address": "900 West Capitol Avenue",
    "city": "West Sacramento",
    "state": "CA",
    "zip_code": "95691",
    "latitude": 38.5829102,
    "longitude": -121.5197509,
    "website": "https://capitol-bowl.com/caps-bar-grill/",
    "category": "Bar & Restaurant",
    "types": "bar, restaurant, food, point_of_interest, establishment"
  },
  {
    "place_id": "ChIJgdDKft_QmoARxYnnbBIrwHI",
    "name": "Iron Horse Tavern - R St. Sacramento",
    "street_address": "1800 15th Street",
    "city": "Sacramento",
    "state": "CA",
    "zip_code": "95811",
    "latitude": 38.5695579,
    "longitude": -121.4906877,
    "website": "http://www.ironhorsetavern.net/",
    "category": "Bar & Restaurant",
    "types": "bar, restaurant, food, point_of_interest, establishment"
  },
  {
    "place_id": "ChIJIzOrD0rRmoARPdc7a534dDo",
    "name": "Drake's: The Barn",
    "street_address": "985 Riverfront Street",
    "city": "West Sacramento",
    "state": "CA",
    "zip_code": "95691",
    "latitude": 38.574851,
    "longitude": -121.514729,
    "website": "https://drinkdrakes.com/places/the-barn/",
    "category": "Bar & Restaurant",
    "types": "bar, restaurant, food, point_of_interest, establishment"
  },
  {
    "place_id": "ChIJGUCeKNfQmoARfmgBztDmDU4",
    "name": "MoJo's Local Tap & Kitchen",
    "street_address": "1431 I Street",
    "city": "Sacramento",
    "state": "CA",
    "zip_code": "95814",
    "latitude": 38.5798994,
    "longitude": -121.4863308,
    "website": "https://www.mojoslocal.com/?y_source=1_ODc5MDYzMTktNzE1LWxvY2F0aW9uLndlYnNpdGU%3D",
    "category": "Bar & Restaurant",
    "types": "bar, restaurant, food, point_of_interest, establishment"
  },
  {
    "place_id": "ChIJC6RVkwLUmoAR9PGpF56bMi0",
    "name": "Lighthouse Bar & Grill",
    "street_address": "2125 West Capitol Avenue",
    "city": "West Sacramento",
    "state": "CA",
    "zip_code": "95691",
    "latitude": 38.57959809999999,
    "longitude": -121.53847,
    "website": null,
    "category": "Bar & Restaurant",
    "types": "night_club, bar, restaurant, food, point_of_interest, establishment"
  },
  {
    "place_id": "ChIJpRjkCd3QmoAR0yl0nNY1RxI",
    "name": "Old Tavern Bar & Grill",
    "street_address": "1510 20th Street",
    "city": "Sacramento",
    "state": "CA",
    "zip_code": "95811",
    "latitude": 38.5709065,
    "longitude": -121.4827106,
    "website": null,
    "category": "Bar & Restaurant",
    "types": "restaurant, bar, food, point_of_interest, establishment"
  },
  {
    "place_id": "ChIJI8mNXzDRmoARPm_bx0UW2IU",
    "name": "Midtown Gastrobar",
    "street_address": "1616 J Street",
    "city": "Sacramento",
    "state": "CA",
    "zip_code": "95814",
    "latitude": 38.5777327,
    "longitude": -121.4845869,
    "website": "https://www.midtowngastrobar.com/",
    "category": "Restaurant",
    "types": "restaurant, point_of_interest, food, establishment"
  },
  {
    "place_id": "ChIJwWBVNMPQmoAREfJ3a-Yk9UE",
    "name": "Kupros Craft House",
    "street_address": "1217 21st Street",
    "city": "Sacramento",
    "state": "CA",
    "zip_code": "95811",
    "latitude": 38.5734472,
    "longitude": -121.4795518,
    "website": "https://www.kuproscrafthouse.com/",
    "category": "Bar & Restaurant",
    "types": "bar, restaurant, point_of_interest, food, establishment"
  },
  {
    "place_id": "ChIJBUDkgd7bmoAR2RgddJvDI2o",
    "name": "University of Beer - East Sacramento",
    "street_address": "5090 Folsom Boulevard",
    "city": "Sacramento",
    "state": "CA",
    "zip_code": "95819",
    "latitude": 38.5600535,
    "longitude": -121.4440104,
    "website": "https://www.theuob.com/?y_source=1_OTIxNDA5MDYtNzE1LWxvY2F0aW9uLndlYnNpdGU%3D",
    "category": "Bar & Restaurant",
    "types": "restaurant, bar, point_of_interest, food, establishment"
  },
  {
    "place_id": "ChIJuzRc2cPRmoAR5v2IcoSgRcg",
    "name": "Yard House",
    "street_address": "405 K Street",
    "city": "Sacramento",
    "state": "CA",
    "zip_code": "95814",
    "latitude": 38.5814025,
    "longitude": -121.5015503,
    "website": "https://www.yardhouse.com/locations/ca/sacramento/sacramento-downtown-commons/8379?cmpid=br:yh_ag:ie_ch:loc_ca:YHGMB_sn:gmb_gt:sacramento-ca-8379_pl:locurl_rd:1074",
    "category": "Bar & Restaurant",
    "types": "meal_takeaway, bar, restaurant, point_of_interest, food, establishment"
  },
  {
    "place_id": "ChIJCeIsvt3QmoAResDNl0RQyJM",
    "name": "The Zebra Club",
    "street_address": "1900 P Street",
    "city": "Sacramento",
    "state": "CA",
    "zip_code": "95811",
    "latitude": 38.5702147,
    "longitude": -121.4839752,
    "website": "https://www.zebraclubbarsacramento.com/",
    "category": "Bar & Restaurant",
    "types": "bar, restaurant, food, point_of_interest, establishment"
  },
  {
    "place_id": "ChIJlQqYG83WmoARlZUOJoCIS2Q",
    "name": "Brannan Manor Restaurant & Spirits",
    "street_address": "106 J Street",
    "city": "Sacramento",
    "state": "CA",
    "zip_code": "95814",
    "latitude": 38.5833239,
    "longitude": -121.5050932,
    "website": "http://brannanmanor.com/",
    "category": "Bar & Restaurant",
    "types": "restaurant, bar, food, point_of_interest, establishment"
  },
  {
    "place_id": "ChIJUX1sBSvRmoARIle7NC7sf9s",
    "name": "Tom's Watch Bar",
    "street_address": "414 K Street",
    "city": "Sacramento",
    "state": "CA",
    "zip_code": "95814",
    "latitude": 38.5808011,
    "longitude": -121.5006331,
    "website": "https://tomswatchbar.com/sacramento/",
    "category": "Bar & Restaurant",
    "types": "bar, restaurant, food, point_of_interest, establishment"
  },
  {
    "place_id": "ChIJl9zvyyHUmoAR_n2MKCnUUuI",
    "name": "Cornerstone Cafe & Bar",
    "street_address": "1617 Sacramento Avenue",
    "city": "West Sacramento",
    "state": "CA",
    "zip_code": "95605",
    "latitude": 38.5907082,
    "longitude": -121.5400925,
    "website": "https://www.eatcornerstone.net/",
    "category": "Bar & Restaurant",
    "types": "cafe, bar, restaurant, food, point_of_interest, establishment"
  },
  {
    "place_id": "ChIJtaxkMdvQmoARA8Diy_MifCo",
    "name": "LowBrau",
    "street_address": "1050 20th Street",
    "city": "Sacramento",
    "state": "CA",
    "zip_code": "95811",
    "latitude": 38.5758075,
    "longitude": -121.4804924,
    "website": "http://www.lowbrausacramento.com/",
    "category": "Bar & Restaurant",
    "types": "bar, restaurant, point_of_interest, food, establishment"
  },
  {
    "place_id": "ChIJDTaQcN_QmoAR0QG8t2fyxGs",
    "name": "Cafe Bernardo - R15",
    "street_address": "1431 R Street",
    "city": "Sacramento",
    "state": "CA",
    "zip_code": "95814",
    "latitude": 38.569914,
    "longitude": -121.490506,
    "website": "https://cafebernardo.com/",
    "category": "Bar & Restaurant",
    "types": "bar, cafe, store, restaurant, food, point_of_interest, establishment"
  },
  {
    "place_id": "ChIJX6eH9xHRmoARx9U47fbKoJ0",
    "name": "Citizen Capitol Craft House",
    "street_address": "1201 J Street",
    "city": "Sacramento",
    "state": "CA",
    "zip_code": "95814",
    "latitude": 38.5798113,
    "longitude": -121.4903811,
    "website": "https://citizensactown.com/",
    "category": "Bar & Restaurant",
    "types": "bar, restaurant, food, point_of_interest, establishment"
  },
  {
    "place_id": "ChIJi65tndvQmoARZLj4kMKTUbU",
    "name": "319 Broderick",
    "street_address": "319 6th Street",
    "city": "West Sacramento",
    "state": "CA",
    "zip_code": "95605",
    "latitude": 38.5882245,
    "longitude": -121.5140309,
    "website": "https://319broderick.com/",
    "category": "Restaurant",
    "types": "restaurant, food, point_of_interest, establishment"
  },
  {
    "place_id": "ChIJ3yGuycPQmoARdO7IUAE0Qdg",
    "name": "The Golden Bear",
    "street_address": "2326 K Street",
    "city": "Sacramento",
    "state": "CA",
    "zip_code": "95816",
    "latitude": 38.5740316,
    "longitude": -121.4754852,
    "website": "http://www.goldenbear916.com/",
    "category": "Bar & Restaurant",
    "types": "bar, restaurant, food, point_of_interest, establishment"
  },
  {
    "place_id": "ChIJo8Qg1d_QmoAR38M5iaiXBW8",
    "name": "Hook and Ladder Manufacturing Company",
    "street_address": "1630 S Street",
    "city": "Sacramento",
    "state": "CA",
    "zip_code": "95811",
    "latitude": 38.5677233,
    "longitude": -121.4885314,
    "website": "http://hookandladder916.com/",
    "category": "Bar & Restaurant",
    "types": "restaurant, bar, food, point_of_interest, establishment"
  },
  {
    "place_id": "ChIJn_sXX1XRmoARHExOWXZ8vVI",
    "name": "Tipsy Putt",
    "street_address": "630 K Street",
    "city": "Sacramento",
    "state": "CA",
    "zip_code": "95814",
    "latitude": 38.5802579,
    "longitude": -121.4983607,
    "website": "https://tipsyputt.com/",
    "category": "Bar & Restaurant",
    "types": "bar, restaurant, food, point_of_interest, establishment"
  },
  {
    "place_id": "ChIJnwrpE63XmoARs9y_LHnRbvc",
    "name": "Bear & Crown",
    "street_address": "1022 2nd Street",
    "city": "Sacramento",
    "state": "CA",
    "zip_code": "95814",
    "latitude": 38.5825828,
    "longitude": -121.5046589,
    "website": "http://bearandcrown.com/",
    "category": "Bar & Restaurant",
    "types": "restaurant, bar, food, point_of_interest, establishment"
  },
  {
    "place_id": "ChIJLXCUV8XTmoARk8qI49XGrbE",
    "name": "Lenise's Cafe",
    "street_address": "3150 Jefferson Boulevard",
    "city": "West Sacramento",
    "state": "CA",
    "zip_code": "95691",
    "latitude": 38.540282,
    "longitude": -121.5492654,
    "website": "http://lenisescafe.com/",
    "category": "Restaurant",
    "types": "cafe, restaurant, point_of_interest, food, establishment"
  },
  {
    "place_id": "ChIJN_hNAdvQmoARqwIthYBKN5o",
    "name": "The Porch Restaurant & Bar",
    "street_address": "1815 K Street",
    "city": "Sacramento",
    "state": "CA",
    "zip_code": "95811",
    "latitude": 38.5763928,
    "longitude": -121.4823573,
    "website": "http://www.theporchrestaurantandbar.com/",
    "category": "Bar & Restaurant",
    "types": "bar, restaurant, food, point_of_interest, establishment"
  },
  {
    "place_id": "ChIJ392czy3RmoARtEQe7xNGN1Q",
    "name": "House Kitchen & Bar",
    "street_address": "555 Capitol Mall",
    "city": "Sacramento",
    "state": "CA",
    "zip_code": "95814",
    "latitude": 38.5789664,
    "longitude": -121.5008467,
    "website": "https://www.housekitchenandbar.com/",
    "category": "Bar & Restaurant",
    "types": "bar, restaurant, food, point_of_interest, establishment"
  },
  {
    "place_id": "ChIJKYa49rnRmoAR6fWzK9Oridw",
    "name": "Four Palms",
    "street_address": "1308 28th Street",
    "city": "Sacramento",
    "state": "CA",
    "zip_code": "95816",
    "latitude": 38.5701548,
    "longitude": -121.471122,
    "website": "https://www.fortsutterhotel.com/dine/",
    "category": "Bar & Restaurant",
    "types": "bar, restaurant, point_of_interest, food, establishment"
  },
  {
    "place_id": "ChIJYZq7Yd_QmoARKZtLfKrRGmw",
    "name": "Burgers and Brew",
    "street_address": "1409 R Street",
    "city": "Sacramento",
    "state": "CA",
    "zip_code": "95811",
    "latitude": 38.5699956,
    "longitude": -121.4911197,
    "website": "https://www.burgersnbrew.com/",
    "category": "Bar & Restaurant",
    "types": "bar, restaurant, food, point_of_interest, establishment"
  },
  {
    "place_id": "ChIJF2hJmW_RmoARUIpwtDMHfpQ",
    "name": "Bawk! by Urban Roots",
    "street_address": "1409 R Street",
    "city": "Sacramento",
    "state": "CA",
    "zip_code": "95811",
    "latitude": 38.570137,
    "longitude": -121.4912736,
    "website": "https://www.bawkfriedchicken.com/",
    "category": "Bar & Restaurant",
    "types": "restaurant, cafe, bar, meal_takeaway, food, point_of_interest, establishment"
  },
  {
    "place_id": "ChIJD7IR59nQmoAR2WL6020-PJQ",
    "name": "Capitol Garage",
    "street_address": "1500 K Street",
    "city": "Sacramento",
    "state": "CA",
    "zip_code": "95814",
    "latitude": 38.5772154,
    "longitude": -121.4869374,
    "website": "https://www.capitolgarage.com/",
    "category": "Restaurant",
    "types": "restaurant, food, point_of_interest, establishment"
  },
  {
    "place_id": "ChIJ-UavctrQmoARYtnqXzPadPU",
    "name": "Goldfield Trading Post",
    "street_address": "1630 J Street",
    "city": "Sacramento",
    "state": "CA",
    "zip_code": "95814",
    "latitude": 38.5776916,
    "longitude": -121.4841491,
    "website": "http://www.goldfieldtradingpost.com/",
    "category": "Bar & Restaurant",
    "types": "bar, restaurant, food, point_of_interest, establishment"
  },
  {
    "place_id": "ChIJa0qc5t7QmoARf-yQ6OkFfro",
    "name": "Orchid Thai Restaurant & Bar",
    "street_address": "1609 16th Street",
    "city": "Sacramento",
    "state": "CA",
    "zip_code": "95814",
    "latitude": 38.5711114,
    "longitude": -121.4880233,
    "website": "http://www.orchidthai916.com/",
    "category": "Bar & Restaurant",
    "types": "bar, restaurant, food, point_of_interest, establishment"
  },
  {
    "place_id": "ChIJLxT5jh7amoAR_Dul8m86_x4",
    "name": "BJ's Restaurant & Brewhouse",
    "street_address": "1689 Arden Way",
    "city": "Sacramento",
    "state": "CA",
    "zip_code": "95815",
    "latitude": 38.6014255,
    "longitude": -121.4279142,
    "website": "https://www.bjsrestaurants.com/locations/ca/arden-fair?utm_source=google&utm_medium=organic&utm_campaign=google_my_business",
    "category": "Bar & Restaurant",
    "types": "restaurant, bar, food, point_of_interest, establishment"
  },
  {
    "place_id": "ChIJxd1oC-bamoARHpVxO3_fxM4",
    "name": "Stingers",
    "street_address": "7890 La Riviera Drive",
    "city": "Sacramento",
    "state": "CA",
    "zip_code": "95826",
    "latitude": 38.5574268,
    "longitude": -121.4099041,
    "website": "https://stingerssportspub.com/",
    "category": "Bar & Restaurant",
    "types": "bar, restaurant, food, point_of_interest, establishment"
  },
  {
    "place_id": "ChIJUUP-FdjRmoARQBkK0Zl0lVg",
    "name": "Prelude Kitchen & Bar",
    "street_address": "1117 11th Street",
    "city": "Sacramento",
    "state": "CA",
    "zip_code": "95814",
    "latitude": 38.57812759999999,
    "longitude": -121.492791,
    "website": "https://preluderestaurant.com/?y_source=1_OTEwMTI1MzAtNzE1LWxvY2F0aW9uLndlYnNpdGU%3D",
    "category": "Bar & Restaurant",
    "types": "restaurant, bar, food, point_of_interest, establishment"
  },
  {
    "place_id": "ChIJkweDAsQpm4ARvVeHvSB6uMU",
    "name": "The Hub Eats & Drinks",
    "street_address": "4740 Natomas Boulevard",
    "city": "Sacramento",
    "state": "CA",
    "zip_code": "95835",
    "latitude": 38.65930729999999,
    "longitude": -121.5116409,
    "website": null,
    "category": "Restaurant",
    "types": "restaurant, food, point_of_interest, establishment"
  },
  {
    "place_id": "ChIJkaq17jfWmoAR_gUdlcfWRpM",
    "name": "BJ's Restaurant & Brewhouse",
    "street_address": "3531 North Freeway Boulevard",
    "city": "Sacramento",
    "state": "CA",
    "zip_code": "95834",
    "latitude": 38.64007050000001,
    "longitude": -121.5018035,
    "website": "https://www.bjsrestaurants.com/locations/ca/natomas?utm_source=google&utm_medium=organic&utm_campaign=google_my_business",
    "category": "Bar & Restaurant",
    "types": "restaurant, bar, food, point_of_interest, establishment"
  },
  {
    "place_id": "ChIJv1nQ60XWmoARv4rOQzlK-JI",
    "name": "Applebee's Grill + Bar",
    "street_address": "3601 Truxel Road",
    "city": "Sacramento",
    "state": "CA",
    "zip_code": "95833",
    "latitude": 38.6331324,
    "longitude": -121.5039677,
    "website": "https://restaurants.applebees.com/en-us/ca/sacramento/3601-truxel-rd.-76064?utm_source=google&utm_medium=organic&utm_campaign=google_my_business&utm_term=76064&utm_content=website",
    "category": "Bar & Restaurant",
    "types": "restaurant, bar, food, point_of_interest, establishment"
  },
  {
    "place_id": "ChIJwygELSbWmoARwa7gW5VrmUo",
    "name": "Frends Brewhouse",
    "street_address": "4571 Gateway Park Boulevard",
    "city": "Sacramento",
    "state": "CA",
    "zip_code": "95834",
    "latitude": 38.6556228,
    "longitude": -121.5032578,
    "website": "https://frendsbrewhouse.com/",
    "category": "Bar & Restaurant",
    "types": "restaurant, bar, food, point_of_interest, establishment"
  },
  {
    "place_id": "ChIJP6j7x0nWmoARNykrIfRoPRc",
    "name": "Buffalo Wild Wings",
    "street_address": "3600 North Freeway Boulevard",
    "city": "Sacramento",
    "state": "CA",
    "zip_code": "95834",
    "latitude": 38.6391686,
    "longitude": -121.4991265,
    "website": "https://www.buffalowildwings.com/locations/us/ca/sacramento/3600-n-freeway-blvd/sports-bar-887?utm_source=google%20my%20business&utm_medium=organic&utm_campaign=website%20link",
    "category": "Bar & Restaurant",
    "types": "meal_takeaway, bar, restaurant, food, point_of_interest, establishment"
  },
  {
    "place_id": "ChIJWSF8w9bQmoARK2CVh1APoaU",
    "name": "Oshima Sushi Sports Bar",
    "street_address": "2071 Natomas Crossing Drive",
    "city": "Sacramento",
    "state": "CA",
    "zip_code": "95834",
    "latitude": 38.64097,
    "longitude": -121.5091176,
    "website": "http://www.thefugulounge.com/",
    "category": "Bar & Restaurant",
    "types": "bar, restaurant, food, point_of_interest, establishment"
  },
  {
    "place_id": "ChIJ9TFF8kXXmoARweLT3FgxjNU",
    "name": "Stoney's Rockin Rodeo",
    "street_address": "1320 Del Paso Boulevard",
    "city": "Sacramento",
    "state": "CA",
    "zip_code": "95815",
    "latitude": 38.6046575,
    "longitude": -121.4616605,
    "website": "http://www.stoneyinn.com/",
    "category": "Bar & Restaurant",
    "types": "restaurant, bar, food, point_of_interest, establishment"
  },
  {
    "place_id": "ChIJedJpUPzNmoARgYT5p1mgTnM",
    "name": "Crawdads on the River",
    "street_address": "1375 Garden Highway",
    "city": "Sacramento",
    "state": "CA",
    "zip_code": "95833",
    "latitude": 38.60396679999999,
    "longitude": -121.5174257,
    "website": "http://www.saccrawdads.com/",
    "category": "Restaurant",
    "types": "restaurant, point_of_interest, food, establishment"
  },
  {
    "place_id": "ChIJXVl_90fWmoARE3bvKnKFLpk",
    "name": "Poke Fix",
    "street_address": "3880 Truxel Road",
    "city": "Sacramento",
    "state": "CA",
    "zip_code": "95834",
    "latitude": 38.638771,
    "longitude": -121.5033933,
    "website": "http://www.thepokefix.com/",
    "category": "Restaurant",
    "types": "restaurant, food, point_of_interest, establishment"
  },
  {
    "place_id": "ChIJEaMUStwpm4ARRtVyWdfEhc4",
    "name": "Bella Bru Cafe",
    "street_address": "4680 Natomas Boulevard",
    "city": "Sacramento",
    "state": "CA",
    "zip_code": "95835",
    "latitude": 38.6583225,
    "longitude": -121.5113441,
    "website": "http://bellabrucafe.com/",
    "category": "Bar & Restaurant",
    "types": "cafe, bakery, bar, restaurant, food, point_of_interest, store, establishment"
  },
  {
    "place_id": "ChIJJ8B2IQC5moAR3u7gacYmikU",
    "name": "32 Brews Street",
    "street_address": "1 Sky River Parkway",
    "city": "Elk Grove",
    "state": "CA",
    "zip_code": "95757",
    "latitude": 38.3798952,
    "longitude": -121.3701856,
    "website": "https://www.skyriver.com/dining-and-drinks/32-brews-street/",
    "category": "Bar & Restaurant",
    "types": "bar, restaurant, food, point_of_interest, establishment"
  },
  {
    "place_id": "ChIJs3ivckTHmoARC8K1rgrXIRM",
    "name": "Elk Grove Sports Bar & Grill",
    "street_address": "9661 Elk Grove Florin Road",
    "city": "Elk Grove",
    "state": "CA",
    "zip_code": "95624",
    "latitude": 38.4065704,
    "longitude": -121.3707352,
    "website": "https://m.facebook.com/egsporty/",
    "category": "Bar & Restaurant",
    "types": "bar, restaurant, food, point_of_interest, establishment"
  },
  {
    "place_id": "ChIJEaAvd77HmoAR7oxd-K23mdA",
    "name": "Prost Beer Hall",
    "street_address": "9085 Elk Grove Boulevard",
    "city": "Elk Grove",
    "state": "CA",
    "zip_code": "95624",
    "latitude": 38.4092149,
    "longitude": -121.3633374,
    "website": "http://prostbeerhalleg.com/",
    "category": "Restaurant",
    "types": "restaurant, point_of_interest, food, establishment"
  },
  {
    "place_id": "ChIJ024XBADHmoAREm0zEyaSWH8",
    "name": "BJ's Restaurant & Brewhouse",
    "street_address": "9237 Laguna Springs Drive",
    "city": "Elk Grove",
    "state": "CA",
    "zip_code": "95758",
    "latitude": 38.42274570000001,
    "longitude": -121.3993109,
    "website": "https://www.bjsrestaurants.com/locations/ca/elk-grove?utm_source=google&utm_medium=organic&utm_campaign=google_my_business",
    "category": "Bar & Restaurant",
    "types": "restaurant, bar, point_of_interest, food, establishment"
  },
  {
    "place_id": "ChIJ5yoD9P7GmoAR3G1jIarbAiw",
    "name": "Applebee's Grill + Bar",
    "street_address": "9105 East Stockton Boulevard",
    "city": "Elk Grove",
    "state": "CA",
    "zip_code": "95624",
    "latitude": 38.4268744,
    "longitude": -121.3959462,
    "website": "https://restaurants.applebees.com/en-us/ca/elk-grove/9105-e-stockton-blvd-76058?utm_source=google&utm_medium=organic&utm_campaign=google_my_business&utm_term=76058&utm_content=website",
    "category": "Bar & Restaurant",
    "types": "restaurant, bar, food, point_of_interest, establishment"
  },
  {
    "place_id": "ChIJ5dKgiUPHmoARF7kXAjPGogc",
    "name": "Old Town Pizza and Tap House",
    "street_address": "9677 Elk Grove Florin Road",
    "city": "Elk Grove",
    "state": "CA",
    "zip_code": "95624",
    "latitude": 38.40614679999999,
    "longitude": -121.3706889,
    "website": "http://www.otpmenu.com/",
    "category": "Bar & Restaurant",
    "types": "restaurant, bar, food, point_of_interest, establishment"
  },
  {
    "place_id": "ChIJKxqZGorHmoARDb2GsJtAdkQ",
    "name": "Chasons Crab Stadium",
    "street_address": "8839 Sheldon Road",
    "city": "Elk Grove",
    "state": "CA",
    "zip_code": "95624",
    "latitude": 38.4384682,
    "longitude": -121.3735064,
    "website": "https://crabstadium.com/",
    "category": "Restaurant",
    "types": "restaurant, point_of_interest, food, establishment"
  },
  {
    "place_id": "ChIJy5LwHlTHmoARXCPTZscQi8g",
    "name": "Z Town - Asian Gastro Bar",
    "street_address": "8409 Elk Grove Florin Road",
    "city": "Elk Grove",
    "state": "CA",
    "zip_code": "95624",
    "latitude": 38.4521098,
    "longitude": -121.3697554,
    "website": "https://ztown.us/",
    "category": "Restaurant",
    "types": "restaurant, food, point_of_interest, establishment"
  },
  {
    "place_id": "ChIJ-cTVKUXHmoARxfYAEaFesC8",
    "name": "Pig Latin",
    "street_address": "9631 East Stockton Boulevard",
    "city": "Elk Grove",
    "state": "CA",
    "zip_code": "95624",
    "latitude": 38.4074691,
    "longitude": -121.3842913,
    "website": "https://www.piglatineg.com/",
    "category": "Bar & Restaurant",
    "types": "bar, restaurant, food, point_of_interest, establishment"
  },
  {
    "place_id": "ChIJLRNMl0bHmoARzK6qPVjwSAQ",
    "name": "Ocean Fish & Chips",
    "street_address": "8944 Elk Grove Boulevard",
    "city": "Elk Grove",
    "state": "CA",
    "zip_code": "95624",
    "latitude": 38.40878530000001,
    "longitude": -121.3695725,
    "website": null,
    "category": "Restaurant",
    "types": "restaurant, food, point_of_interest, establishment"
  },
  {
    "place_id": "ChIJG5tbVlXGmoARzPt54BbLiGw",
    "name": "Romano's Macaroni Grill",
    "street_address": "8295 Laguna Boulevard",
    "city": "Elk Grove",
    "state": "CA",
    "zip_code": "95758",
    "latitude": 38.4232458,
    "longitude": -121.4005247,
    "website": "https://www.macaronigrill.com/locations/location?id=1734",
    "category": "Bar & Restaurant",
    "types": "bar, restaurant, food, point_of_interest, establishment"
  },
  {
    "place_id": "ChIJMS-zvqrHmoARVFH4yBmzO-s",
    "name": "Bonchon Elk Grove",
    "street_address": "8246 Laguna Boulevard",
    "city": "Elk Grove",
    "state": "CA",
    "zip_code": "95758",
    "latitude": 38.42211249999999,
    "longitude": -121.4010207,
    "website": "https://www.bonchon.com/locations/ll/us/ca/elk-grove/8246-laguna-blvd",
    "category": "Restaurant",
    "types": "meal_takeaway, restaurant, food, point_of_interest, establishment"
  },
  {
    "place_id": "ChIJbeJfBf7GmoARsF_pXu2iy-Q",
    "name": "Kobe Steak & Sushi",
    "street_address": "9134 East Stockton Boulevard",
    "city": "Elk Grove",
    "state": "CA",
    "zip_code": "95624",
    "latitude": 38.4250462,
    "longitude": -121.3947881,
    "website": "https://www.kobesteaksushica.com/",
    "category": "Restaurant",
    "types": "restaurant, food, point_of_interest, establishment"
  },
  {
    "place_id": "ChIJP_2vN5_HmoARgEY2ys68bdM",
    "name": "Olive Garden Italian Restaurant",
    "street_address": "7480 Elk Grove Boulevard",
    "city": "Elk Grove",
    "state": "CA",
    "zip_code": "95757",
    "latitude": 38.4078848,
    "longitude": -121.4167957,
    "website": "https://www.olivegarden.com/locations/ca/elk-grove/elk-grove/6437?cmpid=br:og_ag:ie_ch:loc_ca:OGGMB_sn:gmb_gt:elk-grove-ca-6437_pl:locurl_rd:1867",
    "category": "Bar & Restaurant",
    "types": "bar, meal_takeaway, restaurant, food, point_of_interest, establishment"
  },
  {
    "place_id": "ChIJubG5WVTHmoAR2NiWzwTdurA",
    "name": "Waterman Brewing Company",
    "street_address": "9824 Dino Drive",
    "city": "Elk Grove",
    "state": "CA",
    "zip_code": "95624",
    "latitude": 38.4003448,
    "longitude": -121.357376,
    "website": "http://watermanbrewing.com/",
    "category": "Bar & Restaurant",
    "types": "bar, restaurant, food, point_of_interest, establishment"
  },
  {
    "place_id": "ChIJC8FhlEbHmoARXjU5uW9RlRY",
    "name": "Boulevard Bistro",
    "street_address": "8941 Elk Grove Boulevard",
    "city": "Elk Grove",
    "state": "CA",
    "zip_code": "95624",
    "latitude": 38.4092593,
    "longitude": -121.3696201,
    "website": "http://blvdbistro.com/",
    "category": "Restaurant",
    "types": "restaurant, point_of_interest, food, establishment"
  },
  {
    "place_id": "ChIJhbg2l__GmoARmVb4MrtJyGs",
    "name": "Mimi's Cafe",
    "street_address": "9195 West Stockton Boulevard",
    "city": "Elk Grove",
    "state": "CA",
    "zip_code": "95758",
    "latitude": 38.42365639999999,
    "longitude": -121.399803,
    "website": "https://www.mimiscafe.com/locations/elk-grove/",
    "category": "Bar & Restaurant",
    "types": "cafe, bakery, restaurant, bar, food, store, point_of_interest, establishment"
  },
  {
    "place_id": "ChIJj8uj_kXHmoARUftdBRkqiFQ",
    "name": "Brick House Restaurant & Catering",
    "street_address": "9027 Elk Grove Boulevard",
    "city": "Elk Grove",
    "state": "CA",
    "zip_code": "95624",
    "latitude": 38.4091267,
    "longitude": -121.3658443,
    "website": "http://www.brickhousedining.com/",
    "category": "Bar & Restaurant",
    "types": "bar, restaurant, food, point_of_interest, establishment"
  },
  {
    "place_id": "ChIJC4fub9Ehm4ARy1C2F5-evFA",
    "name": "Yard House",
    "street_address": "1166 Roseville Parkway",
    "city": "Roseville",
    "state": "CA",
    "zip_code": "95678",
    "latitude": 38.76887,
    "longitude": -121.270022,
    "website": "https://www.yardhouse.com/locations/ca/roseville/roseville-the-fountains/8331?cmpid=br:yh_ag:ie_ch:loc_ca:YHGMB_sn:gmb_gt:roseville-ca-8331_pl:locurl_rd:1029",
    "category": "Bar & Restaurant",
    "types": "meal_takeaway, bar, restaurant, food, point_of_interest, establishment"
  },
  {
    "place_id": "ChIJIaS0BEggm4ARfwVxV23CQW0",
    "name": "Bar 101 Eats & Drinks",
    "street_address": "101 Main Street",
    "city": "Roseville",
    "state": "CA",
    "zip_code": "95678",
    "latitude": 38.7518389,
    "longitude": -121.2854778,
    "website": "https://www.bar101roseville.com/",
    "category": "Restaurant",
    "types": "restaurant, food, point_of_interest, establishment"
  },
  {
    "place_id": "ChIJzUQ0Xjggm4AReLvJCV7Tf5A",
    "name": "The Monk's Cellar",
    "street_address": "240 Vernon Street",
    "city": "Roseville",
    "state": "CA",
    "zip_code": "95678",
    "latitude": 38.7493028,
    "longitude": -121.2838653,
    "website": "http://monkscellar.com/",
    "category": "Bar & Restaurant",
    "types": "bar, restaurant, food, point_of_interest, establishment"
  },
  {
    "place_id": "ChIJScsvSeUfm4ARGy5pX2u9Mm4",
    "name": "University of Beer - Roseville",
    "street_address": "1516 Eureka Road",
    "city": "Roseville",
    "state": "CA",
    "zip_code": "95661",
    "latitude": 38.7487103,
    "longitude": -121.2485601,
    "website": "https://www.theuob.com/?y_source=1_Mjc3ODc0OTgtNzE1LWxvY2F0aW9uLndlYnNpdGU%3D",
    "category": "Bar & Restaurant",
    "types": "restaurant, bar, food, point_of_interest, establishment"
  },
  {
    "place_id": "ChIJafKR1Vohm4ARMLaSodKYkyQ",
    "name": "Goose Port Public House",
    "street_address": "316 Vernon Street",
    "city": "Roseville",
    "state": "CA",
    "zip_code": "95678",
    "latitude": 38.748904,
    "longitude": -121.2844565,
    "website": "http://www.gooseport.com/",
    "category": "Bar & Restaurant",
    "types": "restaurant, bar, food, point_of_interest, establishment"
  },
  {
    "place_id": "ChIJ7djfIR8gm4AReM5bsOLdbJ0",
    "name": "Mandango's Sports Bar & Grill",
    "street_address": "106 North Sunrise Avenue",
    "city": "Roseville",
    "state": "CA",
    "zip_code": "95661",
    "latitude": 38.7447903,
    "longitude": -121.2670154,
    "website": null,
    "category": "Bar & Restaurant",
    "types": "bar, restaurant, food, point_of_interest, establishment"
  },
  {
    "place_id": "ChIJGctfRt3fmoARjER0OMdqJmQ",
    "name": "Corner Pocket Sports Bar",
    "street_address": "7777 Sunrise Boulevard",
    "city": "Citrus Heights",
    "state": "CA",
    "zip_code": "95610",
    "latitude": 38.7061672,
    "longitude": -121.2731805,
    "website": "http://www.cornerpocketsportsbar.com/",
    "category": "Bar & Restaurant",
    "types": "bar, restaurant, food, point_of_interest, establishment"
  },
  {
    "place_id": "ChIJRcFkFzggm4ARTJCFs0930UI",
    "name": "The Boxing Donkey Irish Pub & Restaurant",
    "street_address": "300 Lincoln Street",
    "city": "Roseville",
    "state": "CA",
    "zip_code": "95678",
    "latitude": 38.751216,
    "longitude": -121.2843457,
    "website": "http://theboxingdonkey.com/",
    "category": "Bar & Restaurant",
    "types": "restaurant, bar, point_of_interest, food, establishment"
  },
  {
    "place_id": "ChIJgbCONCIgm4ARsaZ8QeE_K4Y",
    "name": "Almond Tree Grill & Lounge",
    "street_address": "214 Harding Boulevard",
    "city": "Roseville",
    "state": "CA",
    "zip_code": "95678",
    "latitude": 38.7486111,
    "longitude": -121.2694472,
    "website": "https://almondtreelounge.com/",
    "category": "Bar & Restaurant",
    "types": "night_club, bar, restaurant, food, point_of_interest, establishment"
  },
  {
    "place_id": "ChIJo27Oa9cfm4ARuYKqQMNm_H0",
    "name": "House of Oliver",
    "street_address": "3992 Douglas Boulevard",
    "city": "Roseville",
    "state": "CA",
    "zip_code": "95661",
    "latitude": 38.7432966,
    "longitude": -121.2272005,
    "website": "https://www.houseofoliver.com/",
    "category": "Bar & Restaurant",
    "types": "restaurant, night_club, bar, food, point_of_interest, establishment"
  },
  {
    "place_id": "ChIJKZdfKcUhm4AR5s6GJokMcaI",
    "name": "Lazy Dog Restaurant & Bar",
    "street_address": "238 Gibson Drive",
    "city": "Roseville",
    "state": "CA",
    "zip_code": "95678",
    "latitude": 38.774718,
    "longitude": -121.2740777,
    "website": "https://www.lazydogrestaurants.com/locations/roseville-ca",
    "category": "Bar & Restaurant",
    "types": "bar, restaurant, food, point_of_interest, establishment"
  },
  {
    "place_id": "ChIJC-PDbF0hm4ARvSsBqmL7MsE",
    "name": "Legends at Woodcreek Sports Bar & Grill",
    "street_address": "5880 Woodcreek Oaks Boulevard",
    "city": "Roseville",
    "state": "CA",
    "zip_code": "95747",
    "latitude": 38.7771182,
    "longitude": -121.3314789,
    "website": "http://www.legendswoodcreek.com/",
    "category": "Bar & Restaurant",
    "types": "bar, restaurant, point_of_interest, food, establishment"
  },
  {
    "place_id": "ChIJv5mSAjDgmoARVSpg6xRBlR0",
    "name": "Scoreboards Pizza & Grill",
    "street_address": "9260 Sierra College Boulevard",
    "city": "Roseville",
    "state": "CA",
    "zip_code": "95661",
    "latitude": 38.7306938,
    "longitude": -121.2276778,
    "website": "http://www.scoreboardspizza.com/",
    "category": "Bar & Restaurant",
    "types": "bar, restaurant, food, point_of_interest, establishment"
  },
  {
    "place_id": "ChIJrY9Oqwwhm4AR7iVEwPztY4s",
    "name": "Porter's House of Draft",
    "street_address": "7456 Foothills Boulevard",
    "city": "Roseville",
    "state": "CA",
    "zip_code": "95747",
    "latitude": 38.7708816,
    "longitude": -121.3143463,
    "website": "https://portershod.com/",
    "category": "Bar & Restaurant",
    "types": "restaurant, liquor_store, bar, store, food, point_of_interest, establishment"
  },
  {
    "place_id": "ChIJz1kZYdwfm4ARJfld7xCq4eg",
    "name": "Pete's | Restaurant & Brewhouse",
    "street_address": "3003 Douglas Boulevard",
    "city": "Roseville",
    "state": "CA",
    "zip_code": "95661",
    "latitude": 38.7445805,
    "longitude": -121.2352467,
    "website": "https://petesrestaurantgb.com/",
    "category": "Bar & Restaurant",
    "types": "meal_takeaway, bar, restaurant, food, point_of_interest, establishment"
  },
  {
    "place_id": "ChIJCwXuZGYhm4ARzCFt-zH79Io",
    "name": "Legends at Diamond Oaks",
    "street_address": "349 Diamond Oaks Road",
    "city": "Roseville",
    "state": "CA",
    "zip_code": "95678",
    "latitude": 38.7682817,
    "longitude": -121.285378,
    "website": "http://www.golfroseville.com/legends-diamond-oaks-grill-menu.html",
    "category": "Bar & Restaurant",
    "types": "bar, restaurant, food, point_of_interest, establishment"
  },
  {
    "place_id": "ChIJAVqQCTchm4ARXpR6Gc2Ze6s",
    "name": "Hooch's Sports Bar & Grill Pizzeria",
    "street_address": "5140 Foothills Boulevard",
    "city": "Roseville",
    "state": "CA",
    "zip_code": "95747",
    "latitude": 38.7616539,
    "longitude": -121.3124771,
    "website": "https://www.hoochssportsbar.com/",
    "category": "Bar & Restaurant",
    "types": "restaurant, meal_takeaway, meal_delivery, bar, point_of_interest, food, establishment"
  },
  {
    "place_id": "ChIJF79ybpAfm4ARF3ClDc3RoVo",
    "name": "RANGE kitchen & tap",
    "street_address": "1420 East Roseville Parkway",
    "city": "Roseville",
    "state": "CA",
    "zip_code": "95661",
    "latitude": 38.7612269,
    "longitude": -121.2494295,
    "website": "https://www.rangeroseville.com/",
    "category": "Bar & Restaurant",
    "types": "bar, restaurant, food, point_of_interest, establishment"
  },
  {
    "place_id": "ChIJibgv6Pghm4ARlPhla0yPSB8",
    "name": "Eureka!",
    "street_address": "234 Gibson Drive",
    "city": "Roseville",
    "state": "CA",
    "zip_code": "95678",
    "latitude": 38.7751925,
    "longitude": -121.2747794,
    "website": "http://eurekarestaurantgroup.com/locations/roseville",
    "category": "Restaurant",
    "types": "restaurant, food, point_of_interest, establishment"
  },
  {
    "place_id": "ChIJC2bkddYhm4ARyMmavlEKt_s",
    "name": "Buffalo Wild Wings",
    "street_address": "1168 Galleria Boulevard",
    "city": "Roseville",
    "state": "CA",
    "zip_code": "95678",
    "latitude": 38.77171339999999,
    "longitude": -121.2643738,
    "website": "https://www.buffalowildwings.com/locations/us/ca/roseville/1168-galleria-blvd/sports-bar-1460?utm_source=google%20my%20business&utm_medium=organic&utm_campaign=website%20link",
    "category": "Bar & Restaurant",
    "types": "meal_takeaway, restaurant, bar, food, point_of_interest, establishment"
  },
  {
    "place_id": "ChIJnxI0H9Uhm4ARCsO0o_X7kFk",
    "name": "BJ's Restaurant & Brewhouse",
    "street_address": "1200 Roseville Parkway",
    "city": "Roseville",
    "state": "CA",
    "zip_code": "95678",
    "latitude": 38.7680037,
    "longitude": -121.2651888,
    "website": "https://www.bjsrestaurants.com/locations/ca/roseville?utm_source=google&utm_medium=organic&utm_campaign=google_my_business",
    "category": "Bar & Restaurant",
    "types": "restaurant, bar, food, point_of_interest, establishment"
  },
  {
    "place_id": "ChIJs5608nYhm4AR4Sx2Bg9DBNs",
    "name": "THE TRAX TAPROOM AND KITCHEN",
    "street_address": "400 Vernon Street",
    "city": "Roseville",
    "state": "CA",
    "zip_code": "95678",
    "latitude": 38.7480428,
    "longitude": -121.2854742,
    "website": "http://www.thetraxroseville.com/",
    "category": "Bar & Restaurant",
    "types": "bar, restaurant, point_of_interest, food, establishment"
  },
  {
    "place_id": "ChIJS2lhnrQjm4AR9w6Jv0fzT5U",
    "name": "Dog Haus Biergarten",
    "street_address": "1501 Blue Oaks Boulevard",
    "city": "Roseville",
    "state": "CA",
    "zip_code": "95747",
    "latitude": 38.794873,
    "longitude": -121.3266199,
    "website": "https://roseville.doghaus.com/",
    "category": "Restaurant",
    "types": "restaurant, food, point_of_interest, establishment"
  },
  {
    "place_id": "ChIJOR--GBYfm4ARFjQZItntaXk",
    "name": "Loree's Little Shack by the Railroad Track",
    "street_address": "4835 Pacific Street",
    "city": "Rocklin",
    "state": "CA",
    "zip_code": "95677",
    "latitude": 38.7950424,
    "longitude": -121.2324412,
    "website": null,
    "category": "Bar & Restaurant",
    "types": "bar, restaurant, food, point_of_interest, establishment"
  },
  {
    "place_id": "ChIJZ_Gg-Dggm4ARqIPugDj0POA",
    "name": "Vernon Street Grill and Deli",
    "street_address": "211 Vernon Street",
    "city": "Roseville",
    "state": "CA",
    "zip_code": "95678",
    "latitude": 38.7495517,
    "longitude": -121.2830939,
    "website": "http://www.vernongrill.com/",
    "category": "Restaurant",
    "types": "restaurant, food, point_of_interest, establishment"
  },
  {
    "place_id": "ChIJKTcy-Awfm4ARAmY2EpBMXzA",
    "name": "Bennett's Kitchen Bar Market",
    "street_address": "1595 Eureka Road",
    "city": "Roseville",
    "state": "CA",
    "zip_code": "95661",
    "latitude": 38.7489094,
    "longitude": -121.246665,
    "website": "https://bennettsrestaurants.com/",
    "category": "Bar & Restaurant",
    "types": "liquor_store, bar, store, restaurant, food, point_of_interest, establishment"
  },
  {
    "place_id": "ChIJd2p9IV4hm4ARXitxUZgJlOQ",
    "name": "Bounty Hunters Grind & Grill",
    "street_address": "406 Vernon Street",
    "city": "Roseville",
    "state": "CA",
    "zip_code": "95678",
    "latitude": 38.74801,
    "longitude": -121.2857325,
    "website": "http://www.bountyhuntersroseville.com/",
    "category": "Restaurant",
    "types": "restaurant, cafe, point_of_interest, food, establishment"
  },
  {
    "place_id": "ChIJdXXqIpUhm4ARE-RuXTkkBcg",
    "name": "Perfecto Lounge",
    "street_address": "973 Pleasant Grove Boulevard",
    "city": "Roseville",
    "state": "CA",
    "zip_code": "95678",
    "latitude": 38.7810394,
    "longitude": -121.2863381,
    "website": null,
    "category": "Bar & Restaurant",
    "types": "night_club, bar, store, restaurant, food, point_of_interest, establishment"
  },
  {
    "place_id": "ChIJIybqnnnfmoARvFgIm6dCMPQ",
    "name": "Sammy's Restaurant + Bar",
    "street_address": "6508 Antelope Road",
    "city": "Citrus Heights",
    "state": "CA",
    "zip_code": "95621",
    "latitude": 38.7063812,
    "longitude": -121.3125073,
    "website": "http://www.sammyspizza.com/",
    "category": "Restaurant",
    "types": "restaurant, food, point_of_interest, establishment"
  },
  {
    "place_id": "ChIJM5JBvRUhm4AReZWLogbhoik",
    "name": "The Blue Parrot Lounge",
    "street_address": "6848 Five Star Boulevard",
    "city": "Rocklin",
    "state": "CA",
    "zip_code": "95677",
    "latitude": 38.7771682,
    "longitude": -121.2636566,
    "website": "http://www.blueparrotlounge.com/",
    "category": "Bar & Restaurant",
    "types": "restaurant, night_club, bar, food, point_of_interest, establishment"
  },
  {
    "place_id": "ChIJu4HldBsfm4ARzgPRWtavDm4",
    "name": "Kathrin's Biergarten",
    "street_address": "4810 Granite Drive",
    "city": "Rocklin",
    "state": "CA",
    "zip_code": "95677",
    "latitude": 38.790674,
    "longitude": -121.2243649,
    "website": "https://kathrinsbiergarten.com/",
    "category": "Bar & Restaurant",
    "types": "bar, restaurant, point_of_interest, food, establishment"
  },
  {
    "place_id": "ChIJYwhrJ_Afm4ARF4-tX0fC6yI",
    "name": "Romano's Macaroni Grill",
    "street_address": "2010 Douglas Boulevard",
    "city": "Roseville",
    "state": "CA",
    "zip_code": "95661",
    "latitude": 38.743745,
    "longitude": -121.251263,
    "website": "https://www.macaronigrill.com/locations/location?id=234",
    "category": "Bar & Restaurant",
    "types": "bar, restaurant, food, point_of_interest, establishment"
  },
  {
    "place_id": "ChIJI9Xw9zggm4ARNZ9FlkneQhg",
    "name": "The Place",
    "street_address": "221 Vernon Street",
    "city": "Roseville",
    "state": "CA",
    "zip_code": "95678",
    "latitude": 38.7493417,
    "longitude": -121.2832556,
    "website": "http://www.thatlittleitalianplace.com/",
    "category": "Bar & Restaurant",
    "types": "bar, restaurant, food, point_of_interest, establishment"
  },
  {
    "place_id": "ChIJL1FeQ8Ihm4ARJfJVCPqrx_U",
    "name": "The Grand Indian Cuisine",
    "street_address": "9600 Fairway Drive",
    "city": "Roseville",
    "state": "CA",
    "zip_code": "95678",
    "latitude": 38.78462529999999,
    "longitude": -121.2721282,
    "website": "http://thegrandcuisine.com/",
    "category": "Restaurant",
    "types": "restaurant, food, point_of_interest, establishment"
  },
  {
    "place_id": "ChIJB7MlgRjlmoARzV4guZRatIU",
    "name": "Iron Horse Tavern Folsom",
    "street_address": "460 Palladio Parkway",
    "city": "Folsom",
    "state": "CA",
    "zip_code": "95630",
    "latitude": 38.6520487,
    "longitude": -121.1205792,
    "website": "https://www.ironhorsetavern.net/",
    "category": "Restaurant",
    "types": "restaurant, point_of_interest, food, establishment"
  },
  {
    "place_id": "ChIJhSmiHhvkmoAR6R9BQ_ZdAD4",
    "name": "Churchill Arms Pub",
    "street_address": "649 East Bidwell Street",
    "city": "Folsom",
    "state": "CA",
    "zip_code": "95630",
    "latitude": 38.6721802,
    "longitude": -121.1627502,
    "website": "http://www.churchillarmspub.com/",
    "category": "Bar & Restaurant",
    "types": "bar, restaurant, point_of_interest, food, establishment"
  },
  {
    "place_id": "ChIJ1Q7C3obnmoAR_9gPcVW92kQ",
    "name": "House of Mules Cocktails & Kitchen",
    "street_address": "13385 Folsom Boulevard",
    "city": "Folsom",
    "state": "CA",
    "zip_code": "95630",
    "latitude": 38.6537705,
    "longitude": -121.1825589,
    "website": "https://order.online/business/house-of-mules-cocktails--kitchen-11776732",
    "category": "Restaurant",
    "types": "restaurant, food, point_of_interest, establishment"
  },
  {
    "place_id": "ChIJk-elH2jlmoARSRpl_OJ-f2o",
    "name": "Corner Tavern & Grill",
    "street_address": "700 Glenn Drive",
    "city": "Folsom",
    "state": "CA",
    "zip_code": "95630",
    "latitude": 38.6635614,
    "longitude": -121.1724186,
    "website": "https://www.cornertaverngrill.com/",
    "category": "Restaurant",
    "types": "restaurant, food, point_of_interest, establishment"
  },
  {
    "place_id": "ChIJE3ZNaonlmoAReR3RrW50-Lg",
    "name": "Tonno's Bar & Grill",
    "street_address": "312 East Bidwell Street",
    "city": "Folsom",
    "state": "CA",
    "zip_code": "95630",
    "latitude": 38.6744529,
    "longitude": -121.1678845,
    "website": "https://tonnossbg.com/",
    "category": "Restaurant",
    "types": "restaurant, food, point_of_interest, establishment"
  },
  {
    "place_id": "ChIJyTAP0p7hmoARYotcW-fglx0",
    "name": "The Oak T Sports Bar & Grill",
    "street_address": "9580 Oak Avenue",
    "city": "Folsom",
    "state": "CA",
    "zip_code": "95630",
    "latitude": 38.6985063,
    "longitude": -121.1917359,
    "website": "https://oaktsportsbar.com/",
    "category": "Bar & Restaurant",
    "types": "bar, restaurant, food, point_of_interest, establishment"
  },
  {
    "place_id": "ChIJz9xT5UblmoAR81zQblV2l0Q",
    "name": "Poppy's Bar & Que",
    "street_address": "97 Natoma Street",
    "city": "Folsom",
    "state": "CA",
    "zip_code": "95630",
    "latitude": 38.6798271,
    "longitude": -121.1657404,
    "website": "http://poppysbarbq.com/",
    "category": "Bar & Restaurant",
    "types": "bar, restaurant, food, point_of_interest, establishment"
  },
  {
    "place_id": "ChIJiYI7E4fkmoARIn9oMz9LNDI",
    "name": "Folsom Tap House Sports Bar & Grill",
    "street_address": "25005 Blue Ravine Road",
    "city": "Folsom",
    "state": "CA",
    "zip_code": "95630",
    "latitude": 38.6886136,
    "longitude": -121.123657,
    "website": "https://www.folsomtaphouse.com/",
    "category": "Bar & Restaurant",
    "types": "bar, restaurant, food, point_of_interest, establishment"
  },
  {
    "place_id": "ChIJddmpfKvmmoARTDGiGtNEjhM",
    "name": "Folsom Hotel",
    "street_address": "703 Sutter Street",
    "city": "Folsom",
    "state": "CA",
    "zip_code": "95630",
    "latitude": 38.6774769,
    "longitude": -121.176475,
    "website": "http://folsomhotel.net/",
    "category": "Bar & Restaurant",
    "types": "bar, restaurant, food, point_of_interest, establishment"
  },
  {
    "place_id": "ChIJK3TbAwvlmoARfURUJrz9pdY",
    "name": "University of Beer - Folsom",
    "street_address": "1009 East Bidwell Street",
    "city": "Folsom",
    "state": "CA",
    "zip_code": "95630",
    "latitude": 38.6693728,
    "longitude": -121.1548824,
    "website": "https://www.theuob.com/?y_source=1_OTIxNDA5MDMtNzE1LWxvY2F0aW9uLndlYnNpdGU%3D",
    "category": "Bar & Restaurant",
    "types": "restaurant, bar, food, point_of_interest, establishment"
  },
  {
    "place_id": "ChIJe5T4sSnnmoAR_Gw0ReDyMfQ",
    "name": "Represa Grill by Chef William Hartzell",
    "street_address": "703 Sutter Street",
    "city": "Folsom",
    "state": "CA",
    "zip_code": "95630",
    "latitude": 38.6774862,
    "longitude": -121.1764785,
    "website": "http://www.represagrill.com/",
    "category": "Bar & Restaurant",
    "types": "bar, restaurant, food, point_of_interest, establishment"
  },
  {
    "place_id": "ChIJDdB9VgPkmoARxVxvDyyUFrc",
    "name": "FLB Sports Bar",
    "street_address": "511 East Bidwell Street",
    "city": "Folsom",
    "state": "CA",
    "zip_code": "95630",
    "latitude": 38.67288919999999,
    "longitude": -121.1653555,
    "website": "http://www.flb365.com/",
    "category": "Bar & Restaurant",
    "types": "tourist_attraction, bar, restaurant, food, point_of_interest, establishment"
  },
  {
    "place_id": "ChIJY9aKW73mmoAR6i-aomDXxhc",
    "name": "Out of Bounds Craft Kitchen and Biergarten",
    "street_address": "13407 Folsom Boulevard",
    "city": "Folsom",
    "state": "CA",
    "zip_code": "95630",
    "latitude": 38.6585245,
    "longitude": -121.1836011,
    "website": "https://www.outofboundsbrewing.com/folsom.html?y_source=1_MjM2MzU0MDAtNzE1LWxvY2F0aW9uLndlYnNpdGU%3D",
    "category": "Bar & Restaurant",
    "types": "bar, restaurant, food, point_of_interest, establishment"
  },
  {
    "place_id": "ChIJEyE0AAblmoARmqaUdgPnh0A",
    "name": "Back Bistro",
    "street_address": "230 Palladio Parkway",
    "city": "Folsom",
    "state": "CA",
    "zip_code": "95630",
    "latitude": 38.6485236,
    "longitude": -121.1196743,
    "website": "http://backbistro.com/",
    "category": "Bar & Restaurant",
    "types": "restaurant, night_club, bar, food, point_of_interest, establishment"
  },
  {
    "place_id": "ChIJwc3WxL7nmoAROG2ITw2OgAg",
    "name": "The Folsom Cafe",
    "street_address": "727 B Sutter Street",
    "city": "Folsom",
    "state": "CA",
    "zip_code": "95630",
    "latitude": 38.6771215,
    "longitude": -121.1773966,
    "website": null,
    "category": "Bar & Restaurant",
    "types": "restaurant, cafe, bar, store, food, point_of_interest, establishment"
  },
  {
    "place_id": "ChIJ94r3GADlmoARRQ4qdu-dXBI",
    "name": "BJ's Restaurant & Brewhouse",
    "street_address": "2730 East Bidwell Street",
    "city": "Folsom",
    "state": "CA",
    "zip_code": "95630",
    "latitude": 38.6562974,
    "longitude": -121.1241343,
    "website": "https://www.bjsrestaurants.com/locations/ca/folsom?utm_source=google&utm_medium=organic&utm_campaign=google_my_business",
    "category": "Bar & Restaurant",
    "types": "restaurant, bar, food, point_of_interest, establishment"
  },
  {
    "place_id": "ChIJV7bN6B_hmoARmDqVA6j5K2g",
    "name": "La Calle Bar & Grill",
    "street_address": "6608 Folsom-Auburn Road",
    "city": "Folsom",
    "state": "CA",
    "zip_code": "95630",
    "latitude": 38.6859314,
    "longitude": -121.1792633,
    "website": "https://lacallefolsom.com/",
    "category": "Bar & Restaurant",
    "types": "restaurant, bar, food, point_of_interest, establishment"
  },
  {
    "place_id": "ChIJ9T2QMQ_lmoAR9f3m2u9fVtE",
    "name": "Lazy Dog Restaurant & Bar",
    "street_address": "300 Palladio Parkway",
    "city": "Folsom",
    "state": "CA",
    "zip_code": "95630",
    "latitude": 38.6497195,
    "longitude": -121.1176857,
    "website": "https://www.lazydogrestaurants.com/locations/folsom-ca",
    "category": "Bar & Restaurant",
    "types": "bar, restaurant, food, point_of_interest, establishment"
  },
  {
    "place_id": "ChIJ1XWEWi7nmoARasf6si3GMwY",
    "name": "Plank Craft Kitchen + Bar",
    "street_address": "608 Sutter Street",
    "city": "Folsom",
    "state": "CA",
    "zip_code": "95630",
    "latitude": 38.6783338,
    "longitude": -121.1758877,
    "website": "http://plankfolsom.com/",
    "category": "Restaurant",
    "types": "restaurant, food, point_of_interest, establishment"
  },
  {
    "place_id": "ChIJewgGYADlmoARqazrA3zbeow",
    "name": "Buffalo Wild Wings",
    "street_address": "2759 East Bidwell Street",
    "city": "Folsom",
    "state": "CA",
    "zip_code": "95630",
    "latitude": 38.654691,
    "longitude": -121.1240569,
    "website": "https://www.buffalowildwings.com/locations/us/ca/folsom/2759-e-bidwell-st/sports-bar-253?utm_source=google%20my%20business&utm_medium=organic&utm_campaign=website%20link",
    "category": "Bar & Restaurant",
    "types": "bar, meal_takeaway, restaurant, food, point_of_interest, establishment"
  },
  {
    "place_id": "ChIJsQtZ91DhmoARsQfjdLTW3Po",
    "name": "Frends Brewhouse - Folsom",
    "street_address": "6608 Folsom-Auburn Road",
    "city": "Folsom",
    "state": "CA",
    "zip_code": "95630",
    "latitude": 38.6860631,
    "longitude": -121.1793415,
    "website": "http://frendsbrewhouse.com/",
    "category": "Bar & Restaurant",
    "types": "bar, restaurant, food, point_of_interest, establishment"
  },
  {
    "place_id": "ChIJC6SFeS_hmoARSi92N_ZxIFI",
    "name": "Tonno's Sports Bar & Grill",
    "street_address": "9267 Greenback Lane",
    "city": "Orangevale",
    "state": "CA",
    "zip_code": "95662",
    "latitude": 38.6785722,
    "longitude": -121.208125,
    "website": "http://tonnossbg.com/",
    "category": "Bar & Restaurant",
    "types": "bar, restaurant, food, point_of_interest, establishment"
  },
  {
    "place_id": "ChIJkYscmazmmoARUoq6SUYXP8c",
    "name": "Gaslight Co.",
    "street_address": "718 Sutter Street",
    "city": "Folsom",
    "state": "CA",
    "zip_code": "95630",
    "latitude": 38.67766189999999,
    "longitude": -121.1772355,
    "website": "https://gaslightcofolsom.com/",
    "category": "Bar & Restaurant",
    "types": "bar, restaurant, food, point_of_interest, establishment"
  },
  {
    "place_id": "ChIJxUUENUrlmoAR8dwXj9JOuww",
    "name": "That Dam Place",
    "street_address": "1013 Riley Street",
    "city": "Folsom",
    "state": "CA",
    "zip_code": "95630",
    "latitude": 38.6719282,
    "longitude": -121.1688593,
    "website": "https://www.thatdamplace.com/",
    "category": "Bar & Restaurant",
    "types": "bar, restaurant, food, point_of_interest, establishment"
  },
  {
    "place_id": "ChIJv9sZFQPkmoARfqoUpijUqTk",
    "name": "Manderes",
    "street_address": "1004 East Bidwell Street",
    "city": "Folsom",
    "state": "CA",
    "zip_code": "95630",
    "latitude": 38.6706333,
    "longitude": -121.1550403,
    "website": "https://www.manderes.com/",
    "category": "Bar & Restaurant",
    "types": "bar, restaurant, food, point_of_interest, establishment"
  },
  {
    "place_id": "ChIJOcXsuRbkmoAR8jtHns0-BKQ",
    "name": "Bacchus House Wine Bar & Bistro",
    "street_address": "1004 East Bidwell Street",
    "city": "Folsom",
    "state": "CA",
    "zip_code": "95630",
    "latitude": 38.6708461,
    "longitude": -121.154989,
    "website": "http://www.bacchushousebistro.com/",
    "category": "Bar & Restaurant",
    "types": "bar, restaurant, food, point_of_interest, establishment"
  },
  {
    "place_id": "ChIJZ7hAQifkmoAR1D1ka42GfCg",
    "name": "Ciro's Pizza Caf\u00e9",
    "street_address": "1300 East Bidwell Street",
    "city": "Folsom",
    "state": "CA",
    "zip_code": "95630",
    "latitude": 38.6693077,
    "longitude": -121.151062,
    "website": "http://www.cirospizza.com/",
    "category": "Restaurant",
    "types": "meal_takeaway, meal_delivery, restaurant, point_of_interest, food, establishment"
  },
  {
    "place_id": "ChIJEchoXA7lmoARVrrvlGaATuI",
    "name": "The Bistro",
    "street_address": "2575 Iron Point Road",
    "city": "Folsom",
    "state": "CA",
    "zip_code": "95630",
    "latitude": 38.646264,
    "longitude": -121.1160953,
    "website": "https://www.marriott.com/hotels/hotel-information/restaurant/sacfo-courtyard-sacramento-folsom/?scid=f2ae0541-1279-4f24-b197-a979c79310b0",
    "category": "Restaurant",
    "types": "restaurant, food, point_of_interest, establishment"
  },
  {
    "place_id": "ChIJgQ_C6YbkmoARKXoTWO7k9ag",
    "name": "Mimosa House",
    "street_address": "25075 Blue Ravine Road",
    "city": "Folsom",
    "state": "CA",
    "zip_code": "95630",
    "latitude": 38.68948510000001,
    "longitude": -121.1214593,
    "website": "https://mimosahouseca.com/folsom",
    "category": "Bar & Restaurant",
    "types": "bar, restaurant, food, point_of_interest, establishment"
  },
  {
    "place_id": "ChIJTcjlOxvkmoARX435bjWAkvs",
    "name": "Ph\u1edf ABC",
    "street_address": "602 East Bidwell Street",
    "city": "Folsom",
    "state": "CA",
    "zip_code": "95630",
    "latitude": 38.6734247,
    "longitude": -121.1630041,
    "website": "http://www.phoabc.com/",
    "category": "Restaurant",
    "types": "restaurant, food, point_of_interest, establishment"
  },
  {
    "place_id": "ChIJGZgcnqrnmoARAgyhVGbKxZo",
    "name": "Narumi Sushi",
    "street_address": "12251 Folsom Boulevard",
    "city": "Rancho Cordova",
    "state": "CA",
    "zip_code": "95742",
    "latitude": 38.62908240000001,
    "longitude": -121.2187698,
    "website": "http://www.narumifolsom.com/",
    "category": "Bar & Restaurant",
    "types": "bar, restaurant, food, point_of_interest, establishment"
  },
  {
    "place_id": "ChIJb6nja6vmmoAR3nOUtsMUYyw",
    "name": "The Vine Folsom",
    "street_address": "609 Sutter Street",
    "city": "Folsom",
    "state": "CA",
    "zip_code": "95630",
    "latitude": 38.67801599999999,
    "longitude": -121.1756698,
    "website": "http://www.atthevine.wine/",
    "category": "Bar & Restaurant",
    "types": "bar, restaurant, food, point_of_interest, establishment"
  },
  {
    "place_id": "ChIJ5WYkQKvmmoARdftA1HRZ9Zk",
    "name": "Sutter Street Steakhouse",
    "street_address": "604 Sutter Street",
    "city": "Folsom",
    "state": "CA",
    "zip_code": "95630",
    "latitude": 38.6786223,
    "longitude": -121.1755675,
    "website": "https://www.sutterstreetsteakhouse.com/?y_source=1_MTU5MjAwMzctNzE1LWxvY2F0aW9uLndlYnNpdGU%3D",
    "category": "Restaurant",
    "types": "restaurant, food, point_of_interest, establishment"
  },
  {
    "place_id": "ChIJmWQ84__kmoARORGLIHnCCGc",
    "name": "Land Ocean Restaurant Folsom",
    "street_address": "2720 East Bidwell Street",
    "city": "Folsom",
    "state": "CA",
    "zip_code": "95630",
    "latitude": 38.6565443,
    "longitude": -121.1247659,
    "website": "https://landoceanrestaurants.com/folsom/",
    "category": "Restaurant",
    "types": "restaurant, food, point_of_interest, establishment"
  },
  {
    "place_id": "ChIJ2cjfmBAphYARfUYjtzfuBLU",
    "name": "Bull 'N Mouth",
    "street_address": "217 E Street",
    "city": "Davis",
    "state": "CA",
    "zip_code": "95616",
    "latitude": 38.543758,
    "longitude": -121.7415364,
    "website": "https://www.bullnmouth.com/",
    "category": "Bar & Restaurant",
    "types": "bar, restaurant, food, point_of_interest, establishment"
  },
  {
    "place_id": "ChIJuQmFh3MphYAROfzatQl8HNk",
    "name": "G St Wunderbar",
    "street_address": "228 G Street",
    "city": "Davis",
    "state": "CA",
    "zip_code": "95616",
    "latitude": 38.54451299999999,
    "longitude": -121.7389749,
    "website": "https://www.gstreetwunderbar.club/optin1608356700406",
    "category": "Bar & Restaurant",
    "types": "bar, restaurant, food, point_of_interest, establishment"
  },
  {
    "place_id": "ChIJ3Zu2nnMphYAR0JmGBDsHTRc",
    "name": "Froggy's",
    "street_address": "726 2nd Street",
    "city": "Davis",
    "state": "CA",
    "zip_code": "95616",
    "latitude": 38.5434022,
    "longitude": -121.7389819,
    "website": "https://www.tommyjs.com/",
    "category": "Bar & Restaurant",
    "types": "restaurant, bar, point_of_interest, food, establishment"
  },
  {
    "place_id": "ChIJu9RCPwsphYARP6M9AUNgJoI",
    "name": "Burgers and Brew",
    "street_address": "403 3rd Street",
    "city": "Davis",
    "state": "CA",
    "zip_code": "95616",
    "latitude": 38.5444047,
    "longitude": -121.7434823,
    "website": "https://fooddiscoveryapp.com/davis/burgers-and-brew",
    "category": "Bar & Restaurant",
    "types": "bar, restaurant, food, point_of_interest, establishment"
  },
  {
    "place_id": "ChIJcY4skXQphYARnxVJQLdKgi0",
    "name": "University of Beer - Davis",
    "street_address": "615 3rd Street",
    "city": "Davis",
    "state": "CA",
    "zip_code": "95616",
    "latitude": 38.5447985,
    "longitude": -121.7405617,
    "website": "https://www.theuob.com/?y_source=1_OTIxNDA5MDItNzE1LWxvY2F0aW9uLndlYnNpdGU%3D",
    "category": "Bar & Restaurant",
    "types": "bar, restaurant, food, point_of_interest, establishment"
  },
  {
    "place_id": "ChIJe9M5nKkphYARS6W4m9gjmXc",
    "name": "Cajun Feast",
    "street_address": "206 3rd Street",
    "city": "Davis",
    "state": "CA",
    "zip_code": "95616",
    "latitude": 38.54344289999999,
    "longitude": -121.7466473,
    "website": "http://www.cajun-feast.com/",
    "category": "Restaurant",
    "types": "restaurant, food, point_of_interest, establishment"
  },
  {
    "place_id": "ChIJE-m5F3MphYARRKJ-Y_YRlmw",
    "name": "Sophia's Thai Kitchen",
    "street_address": "129 E Street",
    "city": "Davis",
    "state": "CA",
    "zip_code": "95616",
    "latitude": 38.5427461,
    "longitude": -121.7413622,
    "website": "http://sophiasthaikitchen.com/",
    "category": "Bar & Restaurant",
    "types": "bar, restaurant, food, point_of_interest, establishment"
  },
  {
    "place_id": "ChIJs6FoeXMphYAR-0E-8GOg24Y",
    "name": "Ike's Love & Sandwiches",
    "street_address": "212 F Street",
    "city": "Davis",
    "state": "CA",
    "zip_code": "95616",
    "latitude": 38.5439281,
    "longitude": -121.7397831,
    "website": "https://locations.ikessandwich.com/ca/davis/120/?utm_source=gmb&utm_medium=profile&utm_campaign=davis-location-page",
    "category": "Restaurant",
    "types": "meal_takeaway, meal_delivery, restaurant, point_of_interest, food, establishment"
  },
  {
    "place_id": "ChIJ3Zu2nnMphYARPXJtjiYdhu0",
    "name": "Tommy J's Grill & Catering",
    "street_address": "726 2nd Street",
    "city": "Davis",
    "state": "CA",
    "zip_code": "95616",
    "latitude": 38.54340689999999,
    "longitude": -121.7389778,
    "website": "http://tommyjs.com/",
    "category": "Bar & Restaurant",
    "types": "restaurant, bar, food, point_of_interest, establishment"
  },
  {
    "place_id": "ChIJ7S3xg3MphYAR5PDBO_23l-I",
    "name": "Woodstock's Pizza Davis",
    "street_address": "238 G Street",
    "city": "Davis",
    "state": "CA",
    "zip_code": "95616",
    "latitude": 38.5447678,
    "longitude": -121.7389368,
    "website": "https://woodstocksdavis.com/",
    "category": "Bar & Restaurant",
    "types": "restaurant, meal_delivery, bar, food, point_of_interest, establishment"
  },
  {
    "place_id": "ChIJBaf_g5cphYAR7IKv3wq6RyA",
    "name": "Pizza & Pints",
    "street_address": "236 B Street",
    "city": "Davis",
    "state": "CA",
    "zip_code": "95616",
    "latitude": 38.54380129999999,
    "longitude": -121.7443504,
    "website": "https://www.villagepizzaandpints.com/",
    "category": "Restaurant",
    "types": "restaurant, food, point_of_interest, establishment"
  },
  {
    "place_id": "ChIJedk5kXQphYAR3anhMBRLzhM",
    "name": "Westlake Market",
    "street_address": "1260 Lake Boulevard",
    "city": "Davis",
    "state": "CA",
    "zip_code": "95616",
    "latitude": 38.5544309,
    "longitude": -121.7870721,
    "website": null,
    "category": "Restaurant",
    "types": "grocery_or_supermarket, supermarket, liquor_store, bakery, store, restaurant, food, point_of_interest, establishment"
  },
  {
    "place_id": "ChIJq21S-j8ohYARHJGIcQjWfO4",
    "name": "Lamppost Pizza",
    "street_address": "1260 Lake Boulevard",
    "city": "Davis",
    "state": "CA",
    "zip_code": "95616",
    "latitude": 38.55378109999999,
    "longitude": -121.7868007,
    "website": "http://www.lamppostpizza.com/davis",
    "category": "Restaurant",
    "types": "meal_delivery, restaurant, food, point_of_interest, establishment"
  },
  {
    "place_id": "ChIJezDUq3QphYAROm_Aht_oaAc",
    "name": "The Mustard Seed",
    "street_address": "222 D Street",
    "city": "Davis",
    "state": "CA",
    "zip_code": "95616",
    "latitude": 38.543803,
    "longitude": -121.742096,
    "website": "https://www.mustardseedofdavis.com/",
    "category": "Restaurant",
    "types": "restaurant, food, point_of_interest, establishment"
  },
  {
    "place_id": "ChIJRyMr6MjWmoAR7590NH-Nrbo",
    "name": "Burgers and Brew",
    "street_address": "317 3rd Street",
    "city": "West Sacramento",
    "state": "CA",
    "zip_code": "95605",
    "latitude": 38.5880309,
    "longitude": -121.5098886,
    "website": "https://www.burgersnbrew.com/",
    "category": "Restaurant",
    "types": "restaurant, food, point_of_interest, establishment"
  },
  {
    "place_id": "ChIJobb1chnRmoARTyr0THdFv4Y",
    "name": "Riverside Clubhouse",
    "street_address": "2633 Riverside Boulevard",
    "city": "Sacramento",
    "state": "CA",
    "zip_code": "95818",
    "latitude": 38.5607718,
    "longitude": -121.499366,
    "website": "http://www.riversideclubhouse.com/",
    "category": "Bar & Restaurant",
    "types": "restaurant, bar, food, point_of_interest, establishment"
  },
  {
    "place_id": "ChIJ59mG-trQmoARjYPPU0PRS-k",
    "name": "Streets Pub and Grub",
    "street_address": "1804 J Street",
    "city": "Sacramento",
    "state": "CA",
    "zip_code": "95811",
    "latitude": 38.5770242,
    "longitude": -121.4823491,
    "website": "http://streetspubandgrub.com/",
    "category": "Bar & Restaurant",
    "types": "bar, restaurant, food, point_of_interest, establishment"
  },
  {
    "place_id": "ChIJI6W_gh_RmoAR67hVPvoleQQ",
    "name": "Urban Roots Brewery & Smokehouse",
    "street_address": "1322 V Street",
    "city": "Sacramento",
    "state": "CA",
    "zip_code": "95818",
    "latitude": 38.5655783,
    "longitude": -121.4941211,
    "website": "http://www.urbanrootsbrewing.com/",
    "category": "Bar & Restaurant",
    "types": "liquor_store, bar, restaurant, point_of_interest, food, store, establishment"
  },
  {
    "place_id": "ChIJHYEleS3RmoARywR3nZe7yU4",
    "name": "Foundation Restaurant & Bar",
    "street_address": "400 L Street",
    "city": "Sacramento",
    "state": "CA",
    "zip_code": "95814",
    "latitude": 38.57994619999999,
    "longitude": -121.5022963,
    "website": "https://foundationrestaurantandbar.com/",
    "category": "Bar & Restaurant",
    "types": "bar, restaurant, food, point_of_interest, establishment"
  },
  {
    "place_id": "ChIJYU29oPDdmoARsB8PfvpziC4",
    "name": "Fair Oaks Brew Pub",
    "street_address": "7988 California Avenue",
    "city": "Fair Oaks",
    "state": "CA",
    "zip_code": "95628",
    "latitude": 38.642122,
    "longitude": -121.2695513,
    "website": "http://fairoaksbrewpub.com/",
    "category": "Bar & Restaurant",
    "types": "restaurant, bar, point_of_interest, food, establishment"
  },
  {
    "place_id": "ChIJ7yyuqT_cmoARabQHITIc1ZE",
    "name": "Palm Street Pub & Grill",
    "street_address": "6416 Fair Oaks Boulevard",
    "city": "Carmichael",
    "state": "CA",
    "zip_code": "95608",
    "latitude": 38.61812939999999,
    "longitude": -121.3274225,
    "website": null,
    "category": "Bar & Restaurant",
    "types": "bar, restaurant, food, point_of_interest, establishment"
  },
  {
    "place_id": "ChIJP_gdYXvcmoARfBOjaWYFgsk",
    "name": "The Clubhouse Bar & Grill",
    "street_address": "5150 Fair Oaks Boulevard",
    "city": "Carmichael",
    "state": "CA",
    "zip_code": "95608",
    "latitude": 38.59645419999999,
    "longitude": -121.3443053,
    "website": "http://sportsbarclubhouse.com/Home.php",
    "category": "Bar & Restaurant",
    "types": "meal_takeaway, restaurant, bar, food, point_of_interest, establishment"
  },
  {
    "place_id": "ChIJXw0Ps1LcmoARobozoxOuHdY",
    "name": "Main Event Bar and Grill",
    "street_address": "6700 Tarshes Drive",
    "city": "Carmichael",
    "state": "CA",
    "zip_code": "95608",
    "latitude": 38.61082100000001,
    "longitude": -121.310437,
    "website": "http://www.golfancilhoffman.com/bar-grill/the-main-event-bar-grill",
    "category": "Bar & Restaurant",
    "types": "bar, restaurant, food, point_of_interest, establishment"
  },
  {
    "place_id": "ChIJL1CnrhbfmoARWO6y-AGWhMw",
    "name": "Divided Sky Tavern",
    "street_address": "4894 San Juan Avenue",
    "city": "Fair Oaks",
    "state": "CA",
    "zip_code": "95628",
    "latitude": 38.6550415,
    "longitude": -121.2918274,
    "website": "http://www.dividedskytavern.com/",
    "category": "Restaurant",
    "types": "restaurant, food, point_of_interest, establishment"
  },
  {
    "place_id": "ChIJkdD1Z-_dmoARKwH4X3luvGw",
    "name": "Smokey Oaks Tavern",
    "street_address": "9634 Fair Oaks Boulevard",
    "city": "Fair Oaks",
    "state": "CA",
    "zip_code": "95628",
    "latitude": 38.6389558,
    "longitude": -121.2786233,
    "website": "http://www.smokeyoakstavern.com/",
    "category": "Restaurant",
    "types": "restaurant, food, point_of_interest, establishment"
  },
  {
    "place_id": "ChIJuW_x4Y_bmoARZJc0bDetkvw",
    "name": "19 Handles Pub & Grill",
    "street_address": "4235 Arden Way",
    "city": "Sacramento",
    "state": "CA",
    "zip_code": "95864",
    "latitude": 38.59620779999999,
    "longitude": -121.3653536,
    "website": "http://www.19handlespub.com/",
    "category": "Bar & Restaurant",
    "types": "bar, restaurant, food, point_of_interest, establishment"
  },
  {
    "place_id": "ChIJI9NE7rPdmoARPzMqiNn5fRY",
    "name": "Brahma Bar and Grill",
    "street_address": "10239 Fair Oaks Boulevard",
    "city": "Fair Oaks",
    "state": "CA",
    "zip_code": "95628",
    "latitude": 38.64344509999999,
    "longitude": -121.2707952,
    "website": "http://www.brahmabarandgrill.com/",
    "category": "Restaurant",
    "types": "restaurant, food, point_of_interest, establishment"
  },
  {
    "place_id": "ChIJq7wWGwzbmoARsYnqDDh9OgM",
    "name": "Dukes Plates & Pints",
    "street_address": "510 La Sierra Drive",
    "city": "Sacramento",
    "state": "CA",
    "zip_code": "95864",
    "latitude": 38.5747508,
    "longitude": -121.3822632,
    "website": "http://www.dukesplatesandpints.com",
    "category": "Bar & Restaurant",
    "types": "bar, restaurant, food, point_of_interest, establishment"
  },
  {
    "place_id": "ChIJzzQEwuXYmoARRZuxhjRx5Qw",
    "name": "The Officer's Club",
    "street_address": "3410 Westover Street",
    "city": "McClellan Park",
    "state": "CA",
    "zip_code": "95652",
    "latitude": 38.663673,
    "longitude": -121.384356,
    "website": "http://theofficersclub.com/",
    "category": "Bar & Restaurant",
    "types": "restaurant, bar, food, point_of_interest, establishment"
  },
  {
    "place_id": "ChIJhx6GdS3RmoARiK2WeqbsyBA",
    "name": "River City Brewing Company",
    "street_address": "6241 Fair Oaks Boulevard",
    "city": "Carmichael",
    "state": "CA",
    "zip_code": "95608",
    "latitude": 38.6149752,
    "longitude": -121.3297383,
    "website": "http://rivercitybrewing.net/",
    "category": "Bar & Restaurant",
    "types": "bar, restaurant, food, point_of_interest, establishment"
  },
  {
    "place_id": "ChIJh_tBBj_cmoARA1ZQZIeIRew",
    "name": "Cantina Azteca",
    "street_address": "6400 Fair Oaks Boulevard",
    "city": "Carmichael",
    "state": "CA",
    "zip_code": "95608",
    "latitude": 38.617229,
    "longitude": -121.328204,
    "website": "https://www.cantinaazteca.com/",
    "category": "Bar & Restaurant",
    "types": "bar, restaurant, food, point_of_interest, establishment"
  },
  {
    "place_id": "ChIJJRA86CDfmoARTDckY3WnB6U",
    "name": "Taqueria El Balcon",
    "street_address": "5800 Madison Avenue",
    "city": "Sacramento",
    "state": "CA",
    "zip_code": "95841",
    "latitude": 38.65976729999999,
    "longitude": -121.3289642,
    "website": "http://taqueriaelbalcon.com/",
    "category": "Restaurant",
    "types": "restaurant, food, point_of_interest, establishment"
  },
  {
    "place_id": "ChIJy-7A3a7hmoARwW_Fl7pBY5k",
    "name": "Pitch and Fiddle Fair Oaks",
    "street_address": "8525 Madison Avenue",
    "city": "Fair Oaks",
    "state": "CA",
    "zip_code": "95628",
    "latitude": 38.66495159999999,
    "longitude": -121.2429436,
    "website": "http://www.fiddle.com/",
    "category": "Restaurant",
    "types": "restaurant, food, point_of_interest, establishment"
  },
  {
    "place_id": "ChIJAdum-EHemoARJxbfFsyGNeo",
    "name": "Shenanigans Kitchen & Bar",
    "street_address": "7431 Madison Avenue",
    "city": "Citrus Heights",
    "state": "CA",
    "zip_code": "95610",
    "latitude": 38.6646139,
    "longitude": -121.2915186,
    "website": "https://m.facebook.com/thecouch916/",
    "category": "Bar & Restaurant",
    "types": "bar, restaurant, food, point_of_interest, establishment"
  },
  {
    "place_id": "ChIJO2p2oFTemoARSjHcBHYhJXI",
    "name": "Loree's Little Shack-Greenback",
    "street_address": "6901 Greenback Lane",
    "city": "Citrus Heights",
    "state": "CA",
    "zip_code": "95621",
    "latitude": 38.6786111,
    "longitude": -121.3030556,
    "website": "https://loreesbarandgrill.wixsite.com/loree",
    "category": "Bar & Restaurant",
    "types": "bar, restaurant, food, point_of_interest, establishment"
  },
  {
    "place_id": "ChIJHaz8li_emoARNDsuHOxUp7E",
    "name": "Buffalo Wild Wings",
    "street_address": "6301 Sunrise Boulevard",
    "city": "Citrus Heights",
    "state": "CA",
    "zip_code": "95610",
    "latitude": 38.68030609999999,
    "longitude": -121.2720886,
    "website": "https://www.buffalowildwings.com/locations/us/ca/citrus-heights/6301-sunrise-blvd/sports-bar-244?utm_source=google%20my%20business&utm_medium=organic&utm_campaign=website%20link",
    "category": "Bar & Restaurant",
    "types": "meal_takeaway, restaurant, bar, food, point_of_interest, establishment"
  },
  {
    "place_id": "ChIJ8T1HSSTnmoARzVtno4d6VkA",
    "name": "Dad's Kitchen Fair Oaks",
    "street_address": "8928 Sunset Avenue",
    "city": "Fair Oaks",
    "state": "CA",
    "zip_code": "95628",
    "latitude": 38.6529745,
    "longitude": -121.2243145,
    "website": "http://ilovedadskitchen.com/",
    "category": "Bar & Restaurant",
    "types": "bar, restaurant, food, point_of_interest, establishment"
  },
  {
    "place_id": "ChIJl7JHC6XfmoARm-hiM2RK8V8",
    "name": "Applebee's Grill + Bar",
    "street_address": "6900 Auburn Boulevard",
    "city": "Citrus Heights",
    "state": "CA",
    "zip_code": "95621",
    "latitude": 38.6913311,
    "longitude": -121.2987603,
    "website": "https://restaurants.applebees.com/en-us/ca/citrus-heights/6900-auburn-blvd-78038?utm_source=google&utm_medium=organic&utm_campaign=google_my_business&utm_term=78038&utm_content=website",
    "category": "Bar & Restaurant",
    "types": "restaurant, bar, point_of_interest, food, establishment"
  },
  {
    "place_id": "ChIJ-RvXnDnomoARt1BQTl43xgA",
    "name": "Go 4 Pizza",
    "street_address": "4036 Sunrise Boulevard",
    "city": "Rancho Cordova",
    "state": "CA",
    "zip_code": "95742",
    "latitude": 38.556819,
    "longitude": -121.244717,
    "website": "https://www.go4pizza.com/",
    "category": "Bar & Restaurant",
    "types": "meal_delivery, meal_takeaway, bar, restaurant, food, point_of_interest, establishment"
  },
  {
    "place_id": "ChIJ9Ya31LTcmoARbioG9LZDufU",
    "name": "Mountain Mike's Pizza",
    "street_address": "3609 Bradshaw Road",
    "city": "Sacramento",
    "state": "CA",
    "zip_code": "95827",
    "latitude": 38.5564571,
    "longitude": -121.3344829,
    "website": "https://www.mountainmikespizza.com/locations/sacramento-bradshaw/",
    "category": "Restaurant",
    "types": "meal_takeaway, meal_delivery, restaurant, point_of_interest, food, establishment"
  },
  {
    "place_id": "ChIJ0TLmaIbdmoARsg8QDRvkTCY",
    "name": "Adalberto's M\u00e9xican Food Restaurant",
    "street_address": "2202 Sunrise Boulevard",
    "city": "Rancho Cordova",
    "state": "CA",
    "zip_code": "95670",
    "latitude": 38.6225252,
    "longitude": -121.2672206,
    "website": "http://adalbertosmexicanrestaurant.com/",
    "category": "Restaurant",
    "types": "restaurant, point_of_interest, food, establishment"
  },
  {
    "place_id": "ChIJi1M9uAzcmoAROTBCpuP5o5Y",
    "name": "Mountain Mike's Pizza",
    "street_address": "5019 El Camino Avenue",
    "city": "Carmichael",
    "state": "CA",
    "zip_code": "95608",
    "latitude": 38.61041,
    "longitude": -121.3470812,
    "website": "https://www.mountainmikespizza.com/locations/carmichael-el-camino/",
    "category": "Restaurant",
    "types": "meal_delivery, meal_takeaway, restaurant, food, point_of_interest, establishment"
  },
  {
    "place_id": "ChIJIYvSWBndmoARapU-0eFIpWc",
    "name": "Mountain Mike's Pizza",
    "street_address": "10419 Folsom Boulevard",
    "city": "Rancho Cordova",
    "state": "CA",
    "zip_code": "95670",
    "latitude": 38.590607,
    "longitude": -121.300955,
    "website": "https://www.mountainmikespizza.com/locations/rancho-cordova-folsom/",
    "category": "Restaurant",
    "types": "meal_delivery, meal_takeaway, restaurant, food, point_of_interest, establishment"
  },
  {
    "place_id": "ChIJLcbpD4zdmoARCW6--sZySSs",
    "name": "LogOff Brewing",
    "street_address": "3054 Sunrise Boulevard",
    "city": "Rancho Cordova",
    "state": "CA",
    "zip_code": "95742",
    "latitude": 38.5926631,
    "longitude": -121.2662341,
    "website": "http://logoffbrewing.com/",
    "category": "Bar & Restaurant",
    "types": "bar, restaurant, food, point_of_interest, establishment"
  },
  {
    "place_id": "ChIJAeXLG3vdmoARYWMX3AGiPJM",
    "name": "Brookfields Restaurant Rancho Cordova",
    "street_address": "11135 Folsom Boulevard",
    "city": "Rancho Cordova",
    "state": "CA",
    "zip_code": "95670",
    "latitude": 38.6054233,
    "longitude": -121.2708179,
    "website": "https://brookrest.com/",
    "category": "Restaurant",
    "types": "restaurant, food, point_of_interest, establishment"
  },
  {
    "place_id": "ChIJy_BUqkDdmoARBmLzbLvl7Hk",
    "name": "Mimosa House",
    "street_address": "3155 Zinfandel Drive",
    "city": "Rancho Cordova",
    "state": "CA",
    "zip_code": "95670",
    "latitude": 38.58550870000001,
    "longitude": -121.2853419,
    "website": "http://mimosahouse.com/",
    "category": "Restaurant",
    "types": "restaurant, food, point_of_interest, establishment"
  },
  {
    "place_id": "ChIJFUOiw2rdmoARpiRSrvOhQ6A",
    "name": "The LODGE",
    "street_address": "2801 Prospect Park Drive",
    "city": "Rancho Cordova",
    "state": "CA",
    "zip_code": "95670",
    "latitude": 38.591842,
    "longitude": -121.284237,
    "website": "http://parkwestcasinocordova.com/dining/menus/",
    "category": "Bar & Restaurant",
    "types": "bar, restaurant, point_of_interest, food, establishment"
  },
  {
    "place_id": "ChIJ1xxhHbfcmoARcGTkEu0WyCM",
    "name": "Oz Korean BBQ - Sacramento",
    "street_address": "3343 Bradshaw Road",
    "city": "Sacramento",
    "state": "CA",
    "zip_code": "95827",
    "latitude": 38.5635475,
    "longitude": -121.3355409,
    "website": "http://ozkoreanbbq.com/",
    "category": "Bar & Restaurant",
    "types": "bar, restaurant, food, point_of_interest, establishment"
  },
  {
    "place_id": "ChIJfw2RayzfmoARBHq8vSWcebk",
    "name": "Rock Hard Burgers and Brew",
    "street_address": "7032 Sylvan Road",
    "city": "Citrus Heights",
    "state": "CA",
    "zip_code": "95610",
    "latitude": 38.6939091,
    "longitude": -121.2897043,
    "website": "https://rockhardburgersandbrew.com/",
    "category": "Restaurant",
    "types": "restaurant, food, point_of_interest, establishment"
  },
  {
    "place_id": "ChIJVzNhyIvfmoARITDEPMEvM3Y",
    "name": "Humle Beer House",
    "street_address": "7086 Auburn Boulevard",
    "city": "Citrus Heights",
    "state": "CA",
    "zip_code": "95621",
    "latitude": 38.69316070000001,
    "longitude": -121.2919332,
    "website": "http://humlebeerhouse.ourmenu.com/",
    "category": "Bar & Restaurant",
    "types": "bar, restaurant, food, point_of_interest, establishment"
  },
  {
    "place_id": "ChIJo2q0ohXbmoARfuI0uaVnHC8",
    "name": "Pitch and Fiddle",
    "street_address": "8704 La Riviera Drive",
    "city": "Sacramento",
    "state": "CA",
    "zip_code": "95826",
    "latitude": 38.5630257,
    "longitude": -121.3801042,
    "website": "http://www.fiddlelariv.com/",
    "category": "Bar & Restaurant",
    "types": "bar, restaurant, food, point_of_interest, establishment"
  },
  {
    "place_id": "ChIJg_XxlJ_ZmoAR20k31lZVRWY",
    "name": "MacKenzie's Sports Bar & Grille",
    "street_address": "3645 Fulton Avenue",
    "city": "Sacramento",
    "state": "CA",
    "zip_code": "95821",
    "latitude": 38.6337215,
    "longitude": -121.4035523,
    "website": "https://www.hagginoaks.com/mackenzies-sports-bar-grille/",
    "category": "Bar & Restaurant",
    "types": "restaurant, bar, food, point_of_interest, establishment"
  },
  {
    "place_id": "ChIJB06JXEvamoARkXlCY0SAELU",
    "name": "Field House | American Sports Pub",
    "street_address": "1833 Fulton Avenue",
    "city": "Sacramento",
    "state": "CA",
    "zip_code": "95825",
    "latitude": 38.59902659999999,
    "longitude": -121.4018867,
    "website": "http://www.fieldhousesac.com/",
    "category": "Bar & Restaurant",
    "types": "bar, restaurant, food, point_of_interest, establishment"
  },
  {
    "place_id": "ChIJkUPlKvTbmoAR0ay8bhuX--U",
    "name": "Rock & Brews",
    "street_address": "1600 Exposition Boulevard",
    "city": "Sacramento",
    "state": "CA",
    "zip_code": "95815",
    "latitude": 38.5945595,
    "longitude": -121.4223237,
    "website": "https://www.rockandbrews.com/",
    "category": "Restaurant",
    "types": "restaurant, food, point_of_interest, establishment"
  },
  {
    "place_id": "ChIJDfjO9TzamoARoqLDIS0uveA",
    "name": "Applebee's Grill + Bar",
    "street_address": "2024 Arden Way",
    "city": "Sacramento",
    "state": "CA",
    "zip_code": "95825",
    "latitude": 38.5957554,
    "longitude": -121.418804,
    "website": "https://restaurants.applebees.com/en-us/ca/sacramento/2024-arden-way-76065?utm_source=google&utm_medium=organic&utm_campaign=google_my_business&utm_term=76065&utm_content=website",
    "category": "Bar & Restaurant",
    "types": "restaurant, bar, food, point_of_interest, establishment"
  },
  {
    "place_id": "ChIJaTmWQVfamoARV0MwGa3drVg",
    "name": "Wildwood Kitchen & Bar",
    "street_address": "556 Pavilions Lane",
    "city": "Sacramento",
    "state": "CA",
    "zip_code": "95825",
    "latitude": 38.57555,
    "longitude": -121.4102139,
    "website": "http://wildwoodpavilions.com/",
    "category": "Bar & Restaurant",
    "types": "bar, restaurant, food, point_of_interest, establishment"
  },
  {
    "place_id": "ChIJebMi1K7bmoARSu0RGRsPBR0",
    "name": "Pete's Arden Restaurant & Brewhouse",
    "street_address": "2100 Arden Way",
    "city": "Sacramento",
    "state": "CA",
    "zip_code": "95825",
    "latitude": 38.5945802,
    "longitude": -121.4175202,
    "website": "https://petesarden.com/",
    "category": "Restaurant",
    "types": "restaurant, food, point_of_interest, establishment"
  },
  {
    "place_id": "ChIJB_5SIJbbmoAR_toAGeBWlLU",
    "name": "Flaming Grill Exotic Burgers & Craft Beer",
    "street_address": "2380 Watt Avenue",
    "city": "Sacramento",
    "state": "CA",
    "zip_code": "95825",
    "latitude": 38.6083462,
    "longitude": -121.3809715,
    "website": "http://www.flaminggrillsacramento.com/",
    "category": "Bar & Restaurant",
    "types": "bar, restaurant, food, point_of_interest, establishment"
  },
  {
    "place_id": "ChIJXU1apeXOmoARG5sHELd_lXE",
    "name": "Freeport Bar & Grill",
    "street_address": "8259 Freeport Boulevard",
    "city": "Sacramento",
    "state": "CA",
    "zip_code": "95832",
    "latitude": 38.4579196,
    "longitude": -121.5006515,
    "website": "https://freeportbarandgrill.com/contact/",
    "category": "Bar & Restaurant",
    "types": "bar, restaurant, food, point_of_interest, establishment"
  },
  {
    "place_id": "ChIJ82HUUeTOmoAR0tEHt2Im4Wo",
    "name": "Taphouse at Bartley Cavanaugh",
    "street_address": "8301 Freeport Boulevard",
    "city": "Sacramento",
    "state": "CA",
    "zip_code": "95832",
    "latitude": 38.4570993,
    "longitude": -121.4997727,
    "website": "https://www.taphouseatbc.com/",
    "category": "Restaurant",
    "types": "restaurant, cafe, food, point_of_interest, establishment"
  },
  {
    "place_id": "ChIJaYDXUZnPmoARjOYP0_87FKc",
    "name": "Fire Taproom",
    "street_address": "8140 Delta Shores Circle South",
    "city": "Sacramento",
    "state": "CA",
    "zip_code": "95832",
    "latitude": 38.4647235,
    "longitude": -121.4938696,
    "website": "http://www.firetaproom.com/",
    "category": "Bar & Restaurant",
    "types": "restaurant, bar, store, food, point_of_interest, establishment"
  },
  {
    "place_id": "ChIJZdgJP8DRmoARIqt-7TrIrQA",
    "name": "Venus Taproom, Roastery & Pizza",
    "street_address": "1188 35th Avenue",
    "city": "Sacramento",
    "state": "CA",
    "zip_code": "95822",
    "latitude": 38.52100009999999,
    "longitude": -121.5130548,
    "website": "https://www.venustaproom.com/",
    "category": "Bar & Restaurant",
    "types": "cafe, bakery, bar, restaurant, point_of_interest, food, store, establishment"
  },
  {
    "place_id": "ChIJGzMA2r_RmoARifA82277YWY",
    "name": "Florez Bar & Grill",
    "street_address": "5900 South Land Park Drive",
    "city": "Sacramento",
    "state": "CA",
    "zip_code": "95822",
    "latitude": 38.5199698,
    "longitude": -121.5138668,
    "website": "http://www.florezbarandgrill.com/",
    "category": "Bar & Restaurant",
    "types": "bar, restaurant, food, point_of_interest, establishment"
  },
  {
    "place_id": "ChIJXaFL1E3TmoARrkEHnrdaEow",
    "name": "Bodega Kitchen & Cocktails",
    "street_address": "6401 Riverside Boulevard",
    "city": "Sacramento",
    "state": "CA",
    "zip_code": "95831",
    "latitude": 38.5099575,
    "longitude": -121.5408759,
    "website": "https://www.bodegasac.com/",
    "category": "Restaurant",
    "types": "restaurant, food, point_of_interest, establishment"
  },
  {
    "place_id": "ChIJDYnGe47TmoARBNPU1rHr-qs",
    "name": "Hop Junction",
    "street_address": "7600 Greenhaven Drive",
    "city": "Sacramento",
    "state": "CA",
    "zip_code": "95831",
    "latitude": 38.48152049999999,
    "longitude": -121.5177211,
    "website": "http://www.hopjunction.com/",
    "category": "Bar & Restaurant",
    "types": "bar, restaurant, food, point_of_interest, establishment"
  },
  {
    "place_id": "ChIJQx6YD0DRmoARCR3oysFWQhA",
    "name": "Tealicious",
    "street_address": "5101 Freeport Boulevard",
    "city": "Sacramento",
    "state": "CA",
    "zip_code": "95822",
    "latitude": 38.5275184,
    "longitude": -121.4959836,
    "website": "https://tealiciouscatogo.com/",
    "category": "Restaurant",
    "types": "restaurant, food, point_of_interest, establishment"
  },
  {
    "place_id": "ChIJq1jJUQDbmoAR12yLYiUjEt0",
    "name": "Garden At The Line",
    "street_address": "6415 Elvas Avenue",
    "city": "Sacramento",
    "state": "CA",
    "zip_code": "95819",
    "latitude": 38.5568402,
    "longitude": -121.4268781,
    "website": "https://gardenattheline.com/",
    "category": "Bar & Restaurant",
    "types": "bar, restaurant, food, point_of_interest, establishment"
  },
  {
    "place_id": "ChIJTf_36jzamoARqgKt6XgxRlg",
    "name": "Buffalo Wild Wings",
    "street_address": "2023 Arden Way",
    "city": "Sacramento",
    "state": "CA",
    "zip_code": "95825",
    "latitude": 38.5965406,
    "longitude": -121.4185268,
    "website": "https://www.buffalowildwings.com/locations/us/ca/sacramento/2023-arden-way/sports-bar-1530?utm_source=google%20my%20business&utm_medium=organic&utm_campaign=website%20link",
    "category": "Bar & Restaurant",
    "types": "meal_takeaway, bar, restaurant, food, point_of_interest, establishment"
  },
  {
    "place_id": "ChIJD96v65TZmoAREkMBbSlCHFE",
    "name": "Tolo Market & Restaurant (Halal \u062d\u0644\u0627\u0644)",
    "street_address": "2654 Marconi Avenue",
    "city": "Sacramento",
    "state": "CA",
    "zip_code": "95821",
    "latitude": 38.6176223,
    "longitude": -121.4000015,
    "website": "http://www.clover.com/online-ordering/tolo-afghan-market-sacramento",
    "category": "Restaurant",
    "types": "bakery, meal_takeaway, store, restaurant, food, point_of_interest, establishment"
  },
  {
    "place_id": "ChIJQ9qoanPZmoARQjXfynLOhzY",
    "name": "Jimmy's Peruvian & Mexican Sacramento",
    "street_address": "3032 Auburn Boulevard",
    "city": "Sacramento",
    "state": "CA",
    "zip_code": "95821",
    "latitude": 38.6329653,
    "longitude": -121.3929032,
    "website": "https://www.lomitofuzion.com/",
    "category": "Restaurant",
    "types": "restaurant, food, point_of_interest, establishment"
  }
]