[
  {
    "place_id": "ChIJ4ca-UwT1UocRrxHRZjY6hxg",
    "name": "Lake Effect",
    "street_address": "155 West 200 South",
    "city": "Salt Lake City",
    "state": "UT",
    "zip_code": "84101",
    "latitude": 40.76476299999999,
    "longitude": -111.8958208,
    "website": "http://www.lakeeffectslc.com/",
    "category": "Bar & Restaurant",
    "types": "bar, restaurant, food, point_of_interest, establishment"
  },
  {
    "place_id": "ChIJrYFeXwT1UocR0-OXavtMIvQ",
    "name": "Poplar Street Pub",
    "street_address": "242 South 200 West",
    "city": "Salt Lake City",
    "state": "UT",
    "zip_code": "84101",
    "latitude": 40.7638489,
    "longitude": -111.8973542,
    "website": "https://poplarstreetpub.com/",
    "category": "Bar & Restaurant",
    "types": "bar, restaurant, food, point_of_interest, establishment"
  },
  {
    "place_id": "ChIJbQqgyhr1UocRKXm-haiu4M8",
    "name": "Gracie's",
    "street_address": "326 South West Temple Street",
    "city": "Salt Lake City",
    "state": "UT",
    "zip_code": "84101",
    "latitude": 40.7620799,
    "longitude": -111.8944319,
    "website": "http://www.graciesslc.com/",
    "category": "Bar & Restaurant",
    "types": "bar, night_club, restaurant, food, point_of_interest, establishment"
  },
  {
    "place_id": "ChIJEdYGqxn1UocRJBo9zpsWPBs",
    "name": "Legends Pub & Grill Downtown",
    "street_address": "677 South 200 West",
    "city": "Salt Lake City",
    "state": "UT",
    "zip_code": "84101",
    "latitude": 40.75453419999999,
    "longitude": -111.8959285,
    "website": "http://whylegends.com/",
    "category": "Bar & Restaurant",
    "types": "bar, restaurant, food, point_of_interest, establishment"
  },
  {
    "place_id": "ChIJ9zkPQA_1UocRbZ4LKGPkp9c",
    "name": "Beerhive Pub",
    "street_address": "128 South Main Street",
    "city": "Salt Lake City",
    "state": "UT",
    "zip_code": "84101",
    "latitude": 40.7663803,
    "longitude": -111.8915176,
    "website": "https://beerhivepub.shop/",
    "category": "Bar & Restaurant",
    "types": "bar, restaurant, food, point_of_interest, establishment"
  },
  {
    "place_id": "ChIJIQF4ozP1UocR1usZ1FBhbuM",
    "name": "Piper Down Pub",
    "street_address": "1492 South State Street",
    "city": "Salt Lake City",
    "state": "UT",
    "zip_code": "84115",
    "latitude": 40.7370886,
    "longitude": -111.8886839,
    "website": "http://www.piperdownpub.com/",
    "category": "Bar & Restaurant",
    "types": "bar, night_club, restaurant, food, point_of_interest, establishment"
  },
  {
    "place_id": "ChIJAQKiUxD1UocRKLljEkcwToU",
    "name": "The Green Pig Pub",
    "street_address": "31 East 400 South",
    "city": "Salt Lake City",
    "state": "UT",
    "zip_code": "84111",
    "latitude": 40.7609285,
    "longitude": -111.8898649,
    "website": "http://thegreenpigpub.com/",
    "category": "Bar & Restaurant",
    "types": "night_club, bar, restaurant, food, point_of_interest, establishment"
  },
  {
    "place_id": "ChIJmXyqPBD1UocRQB5nkqUQ3uE",
    "name": "Whiskey Street Cocktails & Dining",
    "street_address": "323 South Main Street",
    "city": "Salt Lake City",
    "state": "UT",
    "zip_code": "84111",
    "latitude": 40.7621684,
    "longitude": -111.8908312,
    "website": "http://www.whiskeystreet.com/",
    "category": "Bar & Restaurant",
    "types": "bar, restaurant, food, point_of_interest, establishment"
  },
  {
    "place_id": "ChIJLRhGIxD1UocR9stN4MFJI-c",
    "name": "White Horse Spirits & Kitchen",
    "street_address": "325 South Main Street",
    "city": "Salt Lake City",
    "state": "UT",
    "zip_code": "84111",
    "latitude": 40.7621219,
    "longitude": -111.8908482,
    "website": "https://www.whitehorseslc.com/",
    "category": "Bar & Restaurant",
    "types": "bar, restaurant, food, point_of_interest, establishment"
  },
  {
    "place_id": "ChIJG_1NJgX1UocRjeIgB8zitwM",
    "name": "Squatters Pub Brewery",
    "street_address": "147 West Broadway",
    "city": "Salt Lake City",
    "state": "UT",
    "zip_code": "84101",
    "latitude": 40.7625231,
    "longitude": -111.8956578,
    "website": "https://www.saltlakebrewingco.com/squatters",
    "category": "Bar & Restaurant",
    "types": "bar, restaurant, food, point_of_interest, establishment"
  },
  {
    "place_id": "ChIJe55Z7Vr1UocRWauuWNs_ZMY",
    "name": "East Liberty Tap House",
    "street_address": "850 East 900 South",
    "city": "Salt Lake City",
    "state": "UT",
    "zip_code": "84105",
    "latitude": 40.7495145,
    "longitude": -111.8665655,
    "website": "http://www.eastlibertytaphouse.com/",
    "category": "Bar & Restaurant",
    "types": "bar, restaurant, food, point_of_interest, establishment"
  },
  {
    "place_id": "ChIJEVl2zaaKUocRJPum2B08UmE",
    "name": "Fiddler's",
    "street_address": "1063 East 2100 South",
    "city": "Salt Lake City",
    "state": "UT",
    "zip_code": "84106",
    "latitude": 40.7256155,
    "longitude": -111.8605023,
    "website": "https://fiddlerssugarhouse.com/",
    "category": "Bar & Restaurant",
    "types": "bar, restaurant, food, point_of_interest, establishment"
  },
  {
    "place_id": "ChIJiwYn_JH1UocRRtF6ihZTaPQ",
    "name": "Handle Bar",
    "street_address": "751 North 300 West",
    "city": "Salt Lake City",
    "state": "UT",
    "zip_code": "84103",
    "latitude": 40.7858238,
    "longitude": -111.9001661,
    "website": "http://www.handlebarslc.com/",
    "category": "Bar & Restaurant",
    "types": "bar, restaurant, food, point_of_interest, establishment"
  },
  {
    "place_id": "ChIJSypuahb1UocRgJkvvfazHVI",
    "name": "The Bayou",
    "street_address": "645 South State Street",
    "city": "Salt Lake City",
    "state": "UT",
    "zip_code": "84111",
    "latitude": 40.755129,
    "longitude": -111.887763,
    "website": "https://www.utahbayou.com/",
    "category": "Bar & Restaurant",
    "types": "bar, restaurant, food, point_of_interest, establishment"
  },
  {
    "place_id": "ChIJsUmtDACLUocR4HkBuJUlJpE",
    "name": "Sugar House Station",
    "street_address": "2155 South Highland Drive",
    "city": "Salt Lake City",
    "state": "UT",
    "zip_code": "84106",
    "latitude": 40.7242749,
    "longitude": -111.8591875,
    "website": "https://sugarhousestation.com/",
    "category": "Bar & Restaurant",
    "types": "bar, cafe, store, restaurant, food, point_of_interest, establishment"
  },
  {
    "place_id": "ChIJz6Oj3Q31UocRkmSbiXPfjr4",
    "name": "Beer Bar",
    "street_address": "161 East 200 South",
    "city": "Salt Lake City",
    "state": "UT",
    "zip_code": "84138",
    "latitude": 40.76520369999999,
    "longitude": -111.886155,
    "website": "http://www.beerbarslc.com/",
    "category": "Bar & Restaurant",
    "types": "bar, restaurant, point_of_interest, food, establishment"
  },
  {
    "place_id": "ChIJ90wt2aCKUocR4YV1oVkOB2I",
    "name": "Corner Brew Pub Sugar House",
    "street_address": "2110 Highland Drive",
    "city": "Salt Lake City",
    "state": "UT",
    "zip_code": "84106",
    "latitude": 40.7249766,
    "longitude": -111.859946,
    "website": "https://www.saltlakebrewingco.com/wasatch",
    "category": "Bar & Restaurant",
    "types": "bar, restaurant, point_of_interest, food, establishment"
  },
  {
    "place_id": "ChIJZeGm9AT1UocRwbTMnrAwuzE",
    "name": "Red Rock Brewing - Downtown Salt Lake City",
    "street_address": "254 South 200 West",
    "city": "Salt Lake City",
    "state": "UT",
    "zip_code": "84101",
    "latitude": 40.763648,
    "longitude": -111.89724,
    "website": "http://www.redrockbrewing.com/",
    "category": "Bar & Restaurant",
    "types": "bar, restaurant, food, point_of_interest, establishment"
  },
  {
    "place_id": "ChIJLcqR_gX1UocRG9nwIbFhWLA",
    "name": "Ivy & Varley",
    "street_address": "55 West 100 South",
    "city": "Salt Lake City",
    "state": "UT",
    "zip_code": "84101",
    "latitude": 40.7669828,
    "longitude": -111.8929434,
    "website": "https://www.ivyandvarley.com/",
    "category": "Bar & Restaurant",
    "types": "bar, restaurant, food, point_of_interest, establishment"
  },
  {
    "place_id": "ChIJw3KTx12LUocRAoUOorI45tk",
    "name": "Bricks Corner",
    "street_address": "1465 South 700 East",
    "city": "Salt Lake City",
    "state": "UT",
    "zip_code": "84105",
    "latitude": 40.7376691,
    "longitude": -111.8707504,
    "website": "https://brickscornerslc.com/",
    "category": "Bar & Restaurant",
    "types": "bar, restaurant, food, point_of_interest, establishment"
  },
  {
    "place_id": "ChIJ6fHxNc2KUocR9bgfihhWwMA",
    "name": "Big Willies",
    "street_address": "1717 South Main Street",
    "city": "Salt Lake City",
    "state": "UT",
    "zip_code": "84115",
    "latitude": 40.7331057,
    "longitude": -111.8905991,
    "website": "https://www.bigwillieslounge.com/",
    "category": "Bar & Restaurant",
    "types": "bar, restaurant, food, point_of_interest, establishment"
  },
  {
    "place_id": "ChIJLbMbzmn1UocRmtpOVMuGGtc",
    "name": "Desert Edge Brewery",
    "street_address": "273 Trolley Square",
    "city": "Salt Lake City",
    "state": "UT",
    "zip_code": "84102",
    "latitude": 40.757256,
    "longitude": -111.8730339,
    "website": "http://desertedgebrewery.com/",
    "category": "Bar & Restaurant",
    "types": "bar, restaurant, food, point_of_interest, establishment"
  },
  {
    "place_id": "ChIJoUxN73yLUocRWjUqSaVtddg",
    "name": "Grid City Beer Works",
    "street_address": "333 West 2100 South Expressway",
    "city": "Salt Lake City",
    "state": "UT",
    "zip_code": "84115",
    "latitude": 40.72506810000001,
    "longitude": -111.9008077,
    "website": "http://gridcitybeerworks.com/",
    "category": "Bar & Restaurant",
    "types": "bar, restaurant, food, point_of_interest, establishment"
  },
  {
    "place_id": "ChIJkT0uNs2KUocRWYs8pC4Pg8Q",
    "name": "Manny's Again",
    "street_address": "1704 South Main Street",
    "city": "Salt Lake City",
    "state": "UT",
    "zip_code": "84115",
    "latitude": 40.73333520000001,
    "longitude": -111.8913692,
    "website": "https://www.facebook.com/MannysAgain/",
    "category": "Bar & Restaurant",
    "types": "bar, restaurant, food, point_of_interest, establishment"
  },
  {
    "place_id": "ChIJA6RKwQ71UocRZHB5VMO0FyM",
    "name": "The Break Sports Grill Downtown SLC",
    "street_address": "140 South 300 West",
    "city": "Salt Lake City",
    "state": "UT",
    "zip_code": "84101",
    "latitude": 40.7669421,
    "longitude": -111.900015,
    "website": "https://thebreakdowntown.com/",
    "category": "Restaurant",
    "types": "restaurant, food, point_of_interest, establishment"
  },
  {
    "place_id": "ChIJ8RxlnFz1UocRUULBwmLhnhE",
    "name": "Franklin Ave Cocktails & Kitchen",
    "street_address": "231 South Edison Street",
    "city": "Salt Lake City",
    "state": "UT",
    "zip_code": "84111",
    "latitude": 40.76405,
    "longitude": -111.88635,
    "website": "http://franklinaveslc.com/",
    "category": "Bar & Restaurant",
    "types": "restaurant, bar, point_of_interest, food, establishment"
  },
  {
    "place_id": "ChIJKRzZUYpfUocRPNJ0Kx1Cr80",
    "name": "Market Street Grill Downtown",
    "street_address": "48 West Market Street",
    "city": "Salt Lake City",
    "state": "UT",
    "zip_code": "84101",
    "latitude": 40.7618565,
    "longitude": -111.8926097,
    "website": "https://www.marketstreetgrill.com/",
    "category": "Bar & Restaurant",
    "types": "bar, restaurant, food, point_of_interest, establishment"
  },
  {
    "place_id": "ChIJQduGJAf1UocRF5YMabx7NWI",
    "name": "Copper Canyon Grill House & Tavern",
    "street_address": "215 South Temple",
    "city": "Salt Lake City",
    "state": "UT",
    "zip_code": "84101",
    "latitude": 40.7689461,
    "longitude": -111.8978935,
    "website": "https://www.choicehotels.com/utah/salt-lake-city/radisson-hotels/ut302/dining?mc=llgoxxpx",
    "category": "Bar & Restaurant",
    "types": "bar, restaurant, food, point_of_interest, establishment"
  },
  {
    "place_id": "ChIJ_zq2FBL1UocRXXSqH2zzCvo",
    "name": "Tavernacle Social Club",
    "street_address": "50 West Broadway",
    "city": "Salt Lake City",
    "state": "UT",
    "zip_code": "84101",
    "latitude": 40.7631046,
    "longitude": -111.8930998,
    "website": "http://www.tavernacle.com/",
    "category": "Bar & Restaurant",
    "types": "night_club, bar, store, restaurant, food, point_of_interest, establishment"
  },
  {
    "place_id": "ChIJNyM0h2D1UocRWKzMHi61F98",
    "name": "Flanker Kitchen + Sporting Club",
    "street_address": "6 North Rio Grande Street",
    "city": "Salt Lake City",
    "state": "UT",
    "zip_code": "84101",
    "latitude": 40.76963980000001,
    "longitude": -111.9036433,
    "website": "https://www.flankerslc.com/",
    "category": "Bar & Restaurant",
    "types": "bar, restaurant, food, point_of_interest, establishment"
  },
  {
    "place_id": "ChIJn0EMZQX1UocRxCjcuGlLElE",
    "name": "Spencer's For Steaks and Chops Salt Lake City",
    "street_address": "255 South West Temple Street",
    "city": "Salt Lake City",
    "state": "UT",
    "zip_code": "84101",
    "latitude": 40.7639813,
    "longitude": -111.893438,
    "website": "https://www.spencersslc.com/?SEO_id=GMB-HH-R-SLCCCHH&y_source=1_MTU0MDUyMjMtNzE1LWxvY2F0aW9uLndlYnNpdGU%3D",
    "category": "Restaurant",
    "types": "restaurant, point_of_interest, food, establishment"
  },
  {
    "place_id": "ChIJyz7IG5_1UocR8DVNS67UDCg",
    "name": "Avenues Proper",
    "street_address": "376 8th Avenue",
    "city": "Salt Lake City",
    "state": "UT",
    "zip_code": "84103",
    "latitude": 40.7783784,
    "longitude": -111.8780165,
    "website": "https://properbrewingco.com/locations/avenues-proper/",
    "category": "Bar & Restaurant",
    "types": "bar, restaurant, food, point_of_interest, establishment"
  },
  {
    "place_id": "ChIJx1ccyxz1UocR6ghyCVR4f88",
    "name": "Slackwater Pizza SLC",
    "street_address": "684 South 500 West",
    "city": "Salt Lake City",
    "state": "UT",
    "zip_code": "84101",
    "latitude": 40.75444299999999,
    "longitude": -111.9056934,
    "website": "http://www.slackwaterpizzeria.com/",
    "category": "Restaurant",
    "types": "restaurant, liquor_store, store, food, point_of_interest, establishment"
  },
  {
    "place_id": "ChIJUY9HqrH1UocRSqG7d_E4bF0",
    "name": "International",
    "street_address": "342 South State Street",
    "city": "Salt Lake City",
    "state": "UT",
    "zip_code": "84111",
    "latitude": 40.7617115,
    "longitude": -111.8884858,
    "website": "https://www.internationalbarslc.com/",
    "category": "Bar & Restaurant",
    "types": "bar, meal_takeaway, night_club, restaurant, food, point_of_interest, establishment"
  },
  {
    "place_id": "ChIJN2lrc-JhUocRGG0TtIrDi0k",
    "name": "The Black Sheep Bar & Grill Foothill",
    "street_address": "1400 South Foothill Drive",
    "city": "Salt Lake City",
    "state": "UT",
    "zip_code": "84108",
    "latitude": 40.738613,
    "longitude": -111.8260006,
    "website": "http://www.theblacksheepbarandgrills.com/",
    "category": "Bar & Restaurant",
    "types": "bar, restaurant, food, point_of_interest, establishment"
  },
  {
    "place_id": "ChIJybUnNbFhUocRnnHlAMp0MvY",
    "name": "Boomerangs Down Under Bar Millcreek",
    "street_address": "1306 Woodland Avenue",
    "city": "Millcreek",
    "state": "UT",
    "zip_code": "84106",
    "latitude": 40.7016916,
    "longitude": -111.8540042,
    "website": "https://boomerangsdownunderbar.com/",
    "category": "Bar & Restaurant",
    "types": "bar, restaurant, food, point_of_interest, establishment"
  },
  {
    "place_id": "ChIJrRB3xuphUocRz961GHFv2GI",
    "name": "The Brickyard Bar",
    "street_address": "3000 South Highland Drive",
    "city": "Millcreek",
    "state": "UT",
    "zip_code": "84106",
    "latitude": 40.7061424,
    "longitude": -111.8534774,
    "website": "http://thebrickyardbar.com/",
    "category": "Bar & Restaurant",
    "types": "bar, restaurant, food, point_of_interest, establishment"
  },
  {
    "place_id": "ChIJZ_kpuTqKUocR8asKvEo-n6w",
    "name": "Ice Haus",
    "street_address": "7 East 4800 South",
    "city": "Murray",
    "state": "UT",
    "zip_code": "84107",
    "latitude": 40.66716059999999,
    "longitude": -111.8912075,
    "website": "http://www.icehausbar.com/",
    "category": "Bar & Restaurant",
    "types": "bar, restaurant, food, point_of_interest, establishment"
  },
  {
    "place_id": "ChIJw7Lj8UaKUocRrPdmhAuWMjU",
    "name": "Barbary Coast Saloon",
    "street_address": "4242 State Street",
    "city": "Millcreek",
    "state": "UT",
    "zip_code": "84107",
    "latitude": 40.679338,
    "longitude": -111.8887229,
    "website": "https://barbarycoastsaloon.com/",
    "category": "Bar & Restaurant",
    "types": "bar, restaurant, food, point_of_interest, establishment"
  },
  {
    "place_id": "ChIJ12U_fQSKUocRyWM7-3nPmeU",
    "name": "The Break Sports Grill Murray",
    "street_address": "4760 South 900 East",
    "city": "Millcreek",
    "state": "UT",
    "zip_code": "84117",
    "latitude": 40.66689969999999,
    "longitude": -111.8655686,
    "website": "https://thebreakmurray.com/",
    "category": "Bar & Restaurant",
    "types": "bar, restaurant, food, point_of_interest, establishment"
  },
  {
    "place_id": "ChIJg47FvDqKUocRwdyzWyJ3cbw",
    "name": "Club 48",
    "street_address": "16 4800 South",
    "city": "Murray",
    "state": "UT",
    "zip_code": "84107",
    "latitude": 40.6672744,
    "longitude": -111.8918036,
    "website": "http://www.club48ut.com/",
    "category": "Bar & Restaurant",
    "types": "night_club, bar, restaurant, food, point_of_interest, establishment"
  },
  {
    "place_id": "ChIJzV6l1nf0UocRx3pNmqj4Qs8",
    "name": "Nomad Eatery",
    "street_address": "1722 Fremont Drive",
    "city": "Salt Lake City",
    "state": "UT",
    "zip_code": "84104",
    "latitude": 40.7326248,
    "longitude": -111.9541584,
    "website": "http://nomad-eatery.com/",
    "category": "Restaurant",
    "types": "restaurant, food, point_of_interest, establishment"
  },
  {
    "place_id": "ChIJ47Gz_0eNUocRZKFmSNCbyyo",
    "name": "Coppercreek Pub & Grub",
    "street_address": "3451 South 5600 West",
    "city": "West Valley City",
    "state": "UT",
    "zip_code": "84120",
    "latitude": 40.6978724,
    "longitude": -112.0237393,
    "website": "http://www.coppercreekpub.com/",
    "category": "Bar & Restaurant",
    "types": "bar, restaurant, food, point_of_interest, establishment"
  },
  {
    "place_id": "ChIJA1LPmY2LUocRCtyXoOWMWtA",
    "name": "The Break Sports Grill West Valley",
    "street_address": "3396 Decker Lake Drive",
    "city": "West Valley City",
    "state": "UT",
    "zip_code": "84119",
    "latitude": 40.6986446,
    "longitude": -111.9478197,
    "website": "http://thebreakwestvalley.com/",
    "category": "Bar & Restaurant",
    "types": "bar, restaurant, food, point_of_interest, establishment"
  },
  {
    "place_id": "ChIJ7Tsakg3zUocRYapPcWDjeCs",
    "name": "Bout Time Pub & Grub",
    "street_address": "2567 South 5600 West",
    "city": "West Valley City",
    "state": "UT",
    "zip_code": "84120",
    "latitude": 40.714533,
    "longitude": -112.0243055,
    "website": "https://www.bouttimepub.com/location/west-valley-utah-2/",
    "category": "Bar & Restaurant",
    "types": "bar, restaurant, food, point_of_interest, establishment"
  },
  {
    "place_id": "ChIJscHaaQDzUocRFhC7PZaW6dY",
    "name": "The Club - Lakeview",
    "street_address": "5151 Wiley Post Way",
    "city": "Salt Lake City",
    "state": "UT",
    "zip_code": "84116",
    "latitude": 40.77289239999999,
    "longitude": -112.0132096,
    "website": null,
    "category": "Bar & Restaurant",
    "types": "bar, restaurant, food, point_of_interest, establishment"
  },
  {
    "place_id": "ChIJPS9XJQDzUocRUBiXILpQ0oY",
    "name": "Red Rock Brewery",
    "street_address": "254 S 200 W",
    "city": "Salt Lake City",
    "state": "UT",
    "zip_code": "84101",
    "latitude": 40.7844539,
    "longitude": -111.9839386,
    "website": null,
    "category": "Bar & Restaurant",
    "types": "bar, restaurant, food, point_of_interest, establishment"
  },
  {
    "place_id": "ChIJ9QuJvyLyUocRcuJJpsFj8hg",
    "name": "Amelia\u2019s Grill & Bar",
    "street_address": "5575 West Amelia Earhart Drive",
    "city": "Salt Lake City",
    "state": "UT",
    "zip_code": "84116",
    "latitude": 40.775872,
    "longitude": -112.0238546,
    "website": "https://ameliasgrill.com/",
    "category": "Bar & Restaurant",
    "types": "bar, restaurant, food, point_of_interest, establishment"
  },
  {
    "place_id": "ChIJxVU-aGGLUocR517Q8FvBSVc",
    "name": "Applebee's Grill + Bar",
    "street_address": "2175 City Center Court",
    "city": "West Valley City",
    "state": "UT",
    "zip_code": "84119",
    "latitude": 40.69897719999999,
    "longitude": -111.947998,
    "website": "https://restaurants.applebees.com/en-us/ut/west-valley-city/2175-west-city-center-court-93053?utm_source=google&utm_medium=organic&utm_campaign=google_my_business&utm_term=93053&utm_content=website",
    "category": "Bar & Restaurant",
    "types": "restaurant, bar, food, point_of_interest, establishment"
  },
  {
    "place_id": "ChIJJY9eft_zUocRvnwYHeZSh0k",
    "name": "The Garden Grille & Bar",
    "street_address": "4975 Wiley Post Way",
    "city": "Salt Lake City",
    "state": "UT",
    "zip_code": "84116",
    "latitude": 40.772726,
    "longitude": -112.0094915,
    "website": null,
    "category": "Restaurant",
    "types": "restaurant, food, point_of_interest, establishment"
  },
  {
    "place_id": "ChIJpYt4_X-NUocRVxPihXWvDU8",
    "name": "Squatters Corner Pub",
    "street_address": "3555 Constitution Boulevard",
    "city": "West Valley City",
    "state": "UT",
    "zip_code": "84119",
    "latitude": 40.6953351,
    "longitude": -111.9575315,
    "website": "http://www.saltlakebrewingco.com/",
    "category": "Bar & Restaurant",
    "types": "bar, restaurant, food, point_of_interest, establishment"
  },
  {
    "place_id": "ChIJyV56S0mNUocRJsegGfSvQd4",
    "name": "Pins & Ales - Valley Fair",
    "street_address": "3601 South 2700 West",
    "city": "West Valley City",
    "state": "UT",
    "zip_code": "84119",
    "latitude": 40.6927063,
    "longitude": -111.9543913,
    "website": "https://pinsandales.com/locations/valley-fair-pins-ales/",
    "category": "Bar & Restaurant",
    "types": "bar, restaurant, food, point_of_interest, establishment"
  },
  {
    "place_id": "ChIJNQ06o5yMUocROvUCHWZ-hXA",
    "name": "WINGERS Restaurant & Alehouse",
    "street_address": "3671 South 2700 West",
    "city": "West Valley City",
    "state": "UT",
    "zip_code": "84119",
    "latitude": 40.6925257,
    "longitude": -111.9575123,
    "website": "https://wingerbros.com/locations/goto/wingers-grill-bar-west-valley-city",
    "category": "Bar & Restaurant",
    "types": "meal_delivery, meal_takeaway, bar, restaurant, food, point_of_interest, establishment"
  },
  {
    "place_id": "ChIJmRT-abXyUocRGlm7nnQ4hjo",
    "name": "Chili's Grill & Bar",
    "street_address": "3075 South 5600 West",
    "city": "West Valley City",
    "state": "UT",
    "zip_code": "84120",
    "latitude": 40.704173,
    "longitude": -112.024426,
    "website": "https://www.chilis.com/locations/us/utah/west-valley-city/centennial-park?utm_source=google&utm_medium=local&utm_campaign=Chilis",
    "category": "Bar & Restaurant",
    "types": "restaurant, bar, food, point_of_interest, establishment"
  },
  {
    "place_id": "ChIJo1DVC5aJUocR0e8If_ZO_MM",
    "name": "Prohibition",
    "street_address": "151 East 6100 South",
    "city": "Salt Lake City",
    "state": "UT",
    "zip_code": "84107",
    "latitude": 40.6387136,
    "longitude": -111.8868081,
    "website": "https://www.prohibitionutah.com/",
    "category": "Bar & Restaurant",
    "types": "bar, restaurant, food, point_of_interest, establishment"
  },
  {
    "place_id": "ChIJ09ghGi2IUocRT15bVXN17Xk",
    "name": "The Midway",
    "street_address": "7176 South 900 East",
    "city": "Midvale",
    "state": "UT",
    "zip_code": "84047",
    "latitude": 40.620828,
    "longitude": -111.86668,
    "website": "http://themidwaybar.com/",
    "category": "Bar & Restaurant",
    "types": "bar, night_club, restaurant, food, point_of_interest, establishment"
  },
  {
    "place_id": "ChIJz-C2hAWJUocRICBIrT1i-AY",
    "name": "Mid City Pub & Grill",
    "street_address": "7101 Bingham Junction Boulevard",
    "city": "Midvale",
    "state": "UT",
    "zip_code": "84047",
    "latitude": 40.62237890000001,
    "longitude": -111.913073,
    "website": "http://midcitypubslc.com/location/",
    "category": "Bar & Restaurant",
    "types": "bar, restaurant, food, point_of_interest, establishment"
  },
  {
    "place_id": "ChIJz7Gn6iSKUocR-od4dX3WGzY",
    "name": "Crow and the Pitcher",
    "street_address": "4883 South State Street",
    "city": "Murray",
    "state": "UT",
    "zip_code": "84107",
    "latitude": 40.665434,
    "longitude": -111.887959,
    "website": "http://www.thecrowslc.com/",
    "category": "Bar & Restaurant",
    "types": "bar, restaurant, food, point_of_interest, establishment"
  },
  {
    "place_id": "ChIJuRATobOJUocR0ubSfWMg9cg",
    "name": "Bohemian Brewery",
    "street_address": "94 West 7200 South",
    "city": "Midvale",
    "state": "UT",
    "zip_code": "84047",
    "latitude": 40.6204194,
    "longitude": -111.8881944,
    "website": "http://www.bohemianbrewery.com/",
    "category": "Bar & Restaurant",
    "types": "bar, restaurant, food, point_of_interest, establishment"
  },
  {
    "place_id": "ChIJO6zgKg6LUocRCoe8cu96WjY",
    "name": "Good Spirits Bar & Grill",
    "street_address": "7078 South Redwood Road",
    "city": "West Jordan",
    "state": "UT",
    "zip_code": "84084",
    "latitude": 40.622577,
    "longitude": -111.940356,
    "website": "https://goodspiritsbar.com/",
    "category": "Bar & Restaurant",
    "types": "bar, restaurant, food, point_of_interest, establishment"
  },
  {
    "place_id": "ChIJ324iOzuKUocR4pVuNZtZzP4",
    "name": "WINGERS Restaurant & Alehouse",
    "street_address": "4790 South State Street",
    "city": "Murray",
    "state": "UT",
    "zip_code": "84107",
    "latitude": 40.6673608,
    "longitude": -111.888894,
    "website": "https://wingerbros.com/locations/goto/wingers-grill-bar-murray",
    "category": "Bar & Restaurant",
    "types": "bar, restaurant, food, point_of_interest, establishment"
  },
  {
    "place_id": "ChIJI0TViL6JUocR_rxx47mtvD0",
    "name": "Red Rock Brewing - Fashion Place Mall",
    "street_address": "6227 State Street",
    "city": "Murray",
    "state": "UT",
    "zip_code": "84107",
    "latitude": 40.6350357,
    "longitude": -111.8861413,
    "website": "http://redrockbrewing.com/",
    "category": "Restaurant",
    "types": "restaurant, food, point_of_interest, establishment"
  },
  {
    "place_id": "ChIJoe-dPASJUocRyWAg3J78hs8",
    "name": "Trolley Wing Co.",
    "street_address": "736 Blue Vista Lane",
    "city": "Midvale",
    "state": "UT",
    "zip_code": "84047",
    "latitude": 40.61989119999999,
    "longitude": -111.911506,
    "website": "https://www.trolleywingcompany.com/",
    "category": "Bar & Restaurant",
    "types": "restaurant, bar, food, point_of_interest, establishment"
  },
  {
    "place_id": "ChIJp9OsOxtjUocRa7UeuWXeC8M",
    "name": "The Hog Wallow Pub",
    "street_address": "3200 East Big Cottonwood Canyon Road",
    "city": "Cottonwood Heights",
    "state": "UT",
    "zip_code": "84121",
    "latitude": 40.6247668,
    "longitude": -111.8010233,
    "website": "http://www.thehogwallow.com/",
    "category": "Bar & Restaurant",
    "types": "bar, restaurant, food, point_of_interest, establishment"
  },
  {
    "place_id": "ChIJjab6YvBiUocR00FEE35DUHg",
    "name": "The Huddle Sports Bar and Grill",
    "street_address": "2400 E Fort Union Boulevard",
    "city": "Cottonwood Heights",
    "state": "UT",
    "zip_code": "84121",
    "latitude": 40.62349020000001,
    "longitude": -111.8222829,
    "website": "https://thehuddlesportsbar.com/",
    "category": "Bar & Restaurant",
    "types": "bar, restaurant, food, point_of_interest, establishment"
  },
  {
    "place_id": "ChIJU8UVh1RiUocRpRRRLKPRZHw",
    "name": "Cotton Bottom Inn",
    "street_address": "2820 East 6200 South",
    "city": "Holladay",
    "state": "UT",
    "zip_code": "84121",
    "latitude": 40.63783660000001,
    "longitude": -111.8121202,
    "website": "http://thecottonbottom.com/",
    "category": "Restaurant",
    "types": "restaurant, food, point_of_interest, establishment"
  },
  {
    "place_id": "ChIJhwZX4wBjUocRWjFYbMa8VO0",
    "name": "Canyons Edge Sports Pub",
    "street_address": "6522 South Big Cottonwood Canyon Road",
    "city": "Holladay",
    "state": "UT",
    "zip_code": "84121",
    "latitude": 40.6325576,
    "longitude": -111.8057988,
    "website": "https://www.canyonsedgepub.com/",
    "category": "Bar & Restaurant",
    "types": "bar, restaurant, food, point_of_interest, establishment"
  },
  {
    "place_id": "ChIJsXWJ2QmIUocRqzUQQQuh0Qk",
    "name": "Tin Roof Grill",
    "street_address": "9284 South 700 East",
    "city": "Sandy",
    "state": "UT",
    "zip_code": "84070",
    "latitude": 40.58284539999999,
    "longitude": -111.8727183,
    "website": "http://www.tinroofgrill.com/",
    "category": "Bar & Restaurant",
    "types": "bar, restaurant, food, point_of_interest, establishment"
  },
  {
    "place_id": "ChIJlR24VQdjUocR3dx1EobG4Dw",
    "name": "Bandits' Grill and Bar",
    "street_address": "3176 East 6200 South",
    "city": "Holladay",
    "state": "UT",
    "zip_code": "84121",
    "latitude": 40.63511039999999,
    "longitude": -111.8032828,
    "website": "https://www.banditsbbqutah.com/",
    "category": "Bar & Restaurant",
    "types": "bar, restaurant, food, point_of_interest, establishment"
  },
  {
    "place_id": "ChIJO8ytoQBjUocR0pfjgVK79rY",
    "name": "Elixir Lounge",
    "street_address": "6405 South 3000 East",
    "city": "Holladay",
    "state": "UT",
    "zip_code": "84121",
    "latitude": 40.6345528,
    "longitude": -111.804752,
    "website": "http://www.elixirloungeutah.com/",
    "category": "Bar & Restaurant",
    "types": "bar, night_club, restaurant, food, point_of_interest, establishment"
  },
  {
    "place_id": "ChIJHb9FsyyIUocRVF8-D6UZj-s",
    "name": "LongHorn Steakhouse",
    "street_address": "963 East Fort Union Boulevard",
    "city": "Midvale",
    "state": "UT",
    "zip_code": "84047",
    "latitude": 40.62293939999999,
    "longitude": -111.8641852,
    "website": "https://www.longhornsteakhouse.com/locations/ut/midvale/midvale/5469?cmpid=br:lh_ag:ie_ch:loc_ca:LHGMB_sn:gmb_gt:midvale-ut-5469_pl:locurl_rd:1408",
    "category": "Bar & Restaurant",
    "types": "meal_takeaway, bar, restaurant, food, point_of_interest, establishment"
  },
  {
    "place_id": "ChIJqVPHqyyIUocRNg5UQAzbYpc",
    "name": "Buffalo Wild Wings",
    "street_address": "985 Fort Union Boulevard",
    "city": "Midvale",
    "state": "UT",
    "zip_code": "84047",
    "latitude": 40.6235538,
    "longitude": -111.8637055,
    "website": "https://www.buffalowildwings.com/locations/us/ut/midvale/985-fort-union-ave/sports-bar-873?utm_source=google%20my%20business&utm_medium=organic&utm_campaign=website%20link",
    "category": "Bar & Restaurant",
    "types": "meal_takeaway, bar, restaurant, food, point_of_interest, establishment"
  },
  {
    "place_id": "ChIJX8rz1OZjUocRgBSyB_gn42w",
    "name": "Eight Settlers Restaurant & Distillery",
    "street_address": "7321 Canyon Centre Pkwy",
    "city": "Cottonwood Heights",
    "state": "UT",
    "zip_code": "84121",
    "latitude": 40.6184082,
    "longitude": -111.7898635,
    "website": "http://eightsettlersdistillery.com/",
    "category": "Bar & Restaurant",
    "types": "restaurant, bar, food, point_of_interest, establishment"
  },
  {
    "place_id": "ChIJ75yY6bt9UocR50t9rJ4suHQ",
    "name": "Localz Bistro",
    "street_address": "1850 East 9400 South",
    "city": "Sandy",
    "state": "UT",
    "zip_code": "84093",
    "latitude": 40.5797721,
    "longitude": -111.8380596,
    "website": "http://localzbistro.com/",
    "category": "Restaurant",
    "types": "restaurant, food, point_of_interest, establishment"
  },
  {
    "place_id": "ChIJ12zBup1yUocR-APnCgW7Ag0",
    "name": "The Pig Pen Saloon",
    "street_address": "1415 Lowell Avenue",
    "city": "Park City",
    "state": "UT",
    "zip_code": "84060",
    "latitude": 40.6521393,
    "longitude": -111.5085845,
    "website": "http://www.pigpensaloon.com/",
    "category": "Bar & Restaurant",
    "types": "bar, restaurant, food, point_of_interest, establishment"
  },
  {
    "place_id": "ChIJl5_2j5VJUocRPgI_U8uIPIk",
    "name": "Top of Main Brew Pub Park City",
    "street_address": "250 Main Street",
    "city": "Park City",
    "state": "UT",
    "zip_code": "84060",
    "latitude": 40.64181740000001,
    "longitude": -111.4945231,
    "website": "http://www.topofmainbrewpub.com/",
    "category": "Bar & Restaurant",
    "types": "bar, restaurant, food, point_of_interest, establishment"
  },
  {
    "place_id": "ChIJVYftNcptUocRzigb-TefMBQ",
    "name": "Tacos El Mariachi loco",
    "street_address": "1500 Snow Creek Drive",
    "city": "Park City",
    "state": "UT",
    "zip_code": "84060",
    "latitude": 40.66227199999999,
    "longitude": -111.5092342,
    "website": "http://ordertacoselmariachiloco.com/",
    "category": "Restaurant",
    "types": "restaurant, food, point_of_interest, establishment"
  },
  {
    "place_id": "ChIJVVUVlmZtUocRQKAR5NGOXps",
    "name": "Boneyard Saloon",
    "street_address": "1251 Kearns Boulevard",
    "city": "Park City",
    "state": "UT",
    "zip_code": "84060",
    "latitude": 40.6611109,
    "longitude": -111.5040707,
    "website": "https://www.boneyardsaloon.com/?utm_source=GMB&utm_medium=localsearch&utm_campaign=boneyardsaloon",
    "category": "Bar & Restaurant",
    "types": "bar, restaurant, food, point_of_interest, establishment"
  },
  {
    "place_id": "ChIJvx91TrxyUocR09HLN3imB3Q",
    "name": "Flanagan's on Main",
    "street_address": "438 Main Street",
    "city": "Park City",
    "state": "UT",
    "zip_code": "84060",
    "latitude": 40.6437818,
    "longitude": -111.4957625,
    "website": "http://flanagansonmain.com/",
    "category": "Bar & Restaurant",
    "types": "bar, restaurant, food, point_of_interest, establishment"
  },
  {
    "place_id": "ChIJi9L_hWJtUocRoCN4tiNLu3U",
    "name": "Legends Bar & Grill",
    "street_address": "1345 Lowell Avenue",
    "city": "Park City",
    "state": "UT",
    "zip_code": "84060",
    "latitude": 40.6510989,
    "longitude": -111.5074405,
    "website": "https://www.parkcitymountain.com/explore-the-resort/during-your-stay/restaurants/legends-bar-and-grill.aspx",
    "category": "Bar & Restaurant",
    "types": "bar, restaurant, food, point_of_interest, establishment"
  },
  {
    "place_id": "ChIJdydVI7xyUocRPwxc442tS2A",
    "name": "The Spur Bar & Grill",
    "street_address": "352 Main Street",
    "city": "Park City",
    "state": "UT",
    "zip_code": "84060",
    "latitude": 40.64288390000001,
    "longitude": -111.4951642,
    "website": "http://www.thespurbarandgrill.com/",
    "category": "Bar & Restaurant",
    "types": "bar, restaurant, point_of_interest, food, establishment"
  },
  {
    "place_id": "ChIJM31OiHptUocRnuyVN4NpMb4",
    "name": "Bandannas Bar & Grill",
    "street_address": "2001 Thaynes Canyon Drive",
    "city": "Park City",
    "state": "UT",
    "zip_code": "84060",
    "latitude": 40.6620757,
    "longitude": -111.5140441,
    "website": "http://www.hotelparkcity.com/dining-en.html",
    "category": "Bar & Restaurant",
    "types": "bar, restaurant, food, point_of_interest, establishment"
  },
  {
    "place_id": "ChIJ5zXbNL1yUocRKYFcwTsWdlw",
    "name": "Collie's Sports Bar & Grill",
    "street_address": "738 Main Street",
    "city": "Park City",
    "state": "UT",
    "zip_code": "84060",
    "latitude": 40.6473185,
    "longitude": -111.4979287,
    "website": "http://www.colliesbbq.com/",
    "category": "Bar & Restaurant",
    "types": "bar, restaurant, food, point_of_interest, establishment"
  },
  {
    "place_id": "ChIJ4wG9NphyUocRQrMpjkVXgkU",
    "name": "The Corner Store Pub & Grill.",
    "street_address": "1325 Lowell Avenue",
    "city": "Park City",
    "state": "UT",
    "zip_code": "84060",
    "latitude": 40.6512677,
    "longitude": -111.5067969,
    "website": "http://thecornerpc.com/",
    "category": "Bar & Restaurant",
    "types": "restaurant, cafe, liquor_store, bar, food, store, point_of_interest, establishment"
  },
  {
    "place_id": "ChIJre2TCGVtUocR6d8g6X0mNbo",
    "name": "Luna's Kitchen & Juicery",
    "street_address": "1400 Snow Creek Drive",
    "city": "Park City",
    "state": "UT",
    "zip_code": "84060",
    "latitude": 40.662094,
    "longitude": -111.508356,
    "website": "http://www.lunaskitchenparkcity.com/",
    "category": "Restaurant",
    "types": "cafe, bakery, restaurant, food, point_of_interest, store, establishment"
  },
  {
    "place_id": "ChIJl9yBOjNsUocRvmLLmL7vRMI",
    "name": "Drafts Burger Bar",
    "street_address": "3000 Canyons Resort Drive",
    "city": "Park City",
    "state": "UT",
    "zip_code": "84098",
    "latitude": 40.6847065,
    "longitude": -111.5558427,
    "website": "https://resort.to/dbbpc?y_source=1_OTc1MjIyMC03MTUtbG9jYXRpb24ud2Vic2l0ZQ%3D%3D",
    "category": "Bar & Restaurant",
    "types": "bar, restaurant, food, point_of_interest, establishment"
  },
  {
    "place_id": "ChIJRwkuqE5tUocRfII7N-VH4MQ",
    "name": "Apr\u00e8s Pendry",
    "street_address": "2417 West High Mountain Road",
    "city": "Park City",
    "state": "UT",
    "zip_code": "84098",
    "latitude": 40.683759,
    "longitude": -111.5560622,
    "website": "https://www.pendry.com/park-city/entertainment/apres-pendry/",
    "category": "Restaurant",
    "types": "restaurant, food, point_of_interest, establishment"
  },
  {
    "place_id": "ChIJyY4wSb1yUocRSg5YVZl4ByE",
    "name": "No Name Saloon",
    "street_address": "447 Main Street",
    "city": "Park City",
    "state": "UT",
    "zip_code": "84060",
    "latitude": 40.6438332,
    "longitude": -111.4962205,
    "website": "https://www.nonamesaloon.com/?utm_source=GMB&utm_medium=localsearch&utm_campaign=nonamesaloon",
    "category": "Bar & Restaurant",
    "types": "bar, restaurant, food, point_of_interest, establishment"
  },
  {
    "place_id": "ChIJlw_rbdRzUocRthnVUNxrb1o",
    "name": "Annex Burger",
    "street_address": "449 Main Street",
    "city": "Park City",
    "state": "UT",
    "zip_code": "84060",
    "latitude": 40.6439362,
    "longitude": -111.4961434,
    "website": "https://www.annexburger.com/?utm_source=GMB&utm_medium=localsearch&utm_campaign=annexburger",
    "category": "Restaurant",
    "types": "restaurant, food, point_of_interest, establishment"
  },
  {
    "place_id": "ChIJI2kZq71yUocRd3030WZxkXU",
    "name": "501 On Main",
    "street_address": "501 Main Street",
    "city": "Park City",
    "state": "UT",
    "zip_code": "84060",
    "latitude": 40.6441667,
    "longitude": -111.4963889,
    "website": "http://www.501onmain.com/",
    "category": "Bar & Restaurant",
    "types": "bar, restaurant, food, point_of_interest, establishment"
  },
  {
    "place_id": "ChIJmbWBcM5zUocRTc0yAFPzRQg",
    "name": "O\u2019SHUCKS White House",
    "street_address": "628 Park Avenue",
    "city": "Park City",
    "state": "UT",
    "zip_code": "84060",
    "latitude": 40.6459877,
    "longitude": -111.4976196,
    "website": "https://www.oshucksutah.com/",
    "category": "Bar & Restaurant",
    "types": "bar, restaurant, food, point_of_interest, establishment"
  },
  {
    "place_id": "ChIJoWd1PmRtUocRxv90qdFifcY",
    "name": "Sergio's & Mariscos El Cata",
    "street_address": "1776 Park Avenue",
    "city": "Park City",
    "state": "UT",
    "zip_code": "84060",
    "latitude": 40.6603811,
    "longitude": -111.5059686,
    "website": "https://www.sergiosauthenticrest.com/",
    "category": "Bar & Restaurant",
    "types": "meal_takeaway, bar, restaurant, point_of_interest, food, establishment"
  },
  {
    "place_id": "ChIJQWwbkmRtUocRUtwEW8uqiUU",
    "name": "Park City Chinese & Thai",
    "street_address": "1776 Park Avenue",
    "city": "Park City",
    "state": "UT",
    "zip_code": "84060",
    "latitude": 40.66043499999999,
    "longitude": -111.5060668,
    "website": "http://www.parkcitychineseandthai.com/",
    "category": "Restaurant",
    "types": "meal_delivery, restaurant, food, point_of_interest, establishment"
  },
  {
    "place_id": "ChIJ7ZMFJ7xyUocR4qPojuLldBs",
    "name": "The Eating Establishment",
    "street_address": "317 Main Street",
    "city": "Park City",
    "state": "UT",
    "zip_code": "84060",
    "latitude": 40.642271,
    "longitude": -111.4952383,
    "website": "https://www.theeatingestablishment.net/?y_source=1_MjU2MzEzMDctNzE1LWxvY2F0aW9uLndlYnNpdGU%3D",
    "category": "Bar & Restaurant",
    "types": "bar, restaurant, food, point_of_interest, establishment"
  },
  {
    "place_id": "ChIJIzcS1mRtUocR6Eru7arbqHc",
    "name": "Park City Roadhouse Grill",
    "street_address": "1900 Park Avenue",
    "city": "Park City",
    "state": "UT",
    "zip_code": "84060",
    "latitude": 40.6609311,
    "longitude": -111.5107117,
    "website": "http://www.parkcityroadhouse.com/",
    "category": "Restaurant",
    "types": "restaurant, food, point_of_interest, establishment"
  },
  {
    "place_id": "ChIJAaYb5jJsUocRtmoPHorLQfQ",
    "name": "Umbrella Bar",
    "street_address": "3720 North Sundial Court",
    "city": "Park City",
    "state": "UT",
    "zip_code": "84098",
    "latitude": 40.68496380000001,
    "longitude": -111.5564807,
    "website": "https://www.parkcitymountain.com/explore-the-resort/during-your-stay/restaurants/umbrella-bar.aspx",
    "category": "Bar & Restaurant",
    "types": "bar, restaurant, food, point_of_interest, establishment"
  },
  {
    "place_id": "ChIJc2VvWjJsUocR80-FlAqHNfE",
    "name": "Red Tail Grill",
    "street_address": "4000 Grand Summit Drive",
    "city": "Park City",
    "state": "UT",
    "zip_code": "84098",
    "latitude": 40.68669000000001,
    "longitude": -111.55569,
    "website": "https://www.exploretock.com/redtailgrillparkcity?tock_source=tock&tock_medium=search_nav",
    "category": "Bar & Restaurant",
    "types": "bar, restaurant, food, point_of_interest, establishment"
  },
  {
    "place_id": "ChIJ1wB-OGdtUocRISbyaUqe4pg",
    "name": "Sammy's Bistro",
    "street_address": "1890 Bonanza Drive",
    "city": "Park City",
    "state": "UT",
    "zip_code": "84060",
    "latitude": 40.6612396,
    "longitude": -111.500679,
    "website": "http://sammysbistro.com/",
    "category": "Bar & Restaurant",
    "types": "bar, restaurant, food, point_of_interest, establishment"
  },
  {
    "place_id": "ChIJHZaATb1yUocR4EU4jeAc_iE",
    "name": "The Nelson Cottage by High West",
    "street_address": "651 Park Avenue",
    "city": "Park City",
    "state": "UT",
    "zip_code": "84060",
    "latitude": 40.64621229999999,
    "longitude": -111.4984114,
    "website": "https://www.highwest.com/the-nelson-cottage-by-high-west.php",
    "category": "Restaurant",
    "types": "restaurant, food, point_of_interest, establishment"
  },
  {
    "place_id": "ChIJo_Klm11tUocRcQGKvUfn008",
    "name": "Blind Dog Restaurant & Raw Bar",
    "street_address": "1251 Kearns Boulevard",
    "city": "Park City",
    "state": "UT",
    "zip_code": "84060",
    "latitude": 40.6611628,
    "longitude": -111.5041136,
    "website": "https://www.blinddogpc.com/",
    "category": "Bar & Restaurant",
    "types": "bar, restaurant, food, point_of_interest, establishment"
  },
  {
    "place_id": "ChIJ47Y9JGFtUocRZmkbHOP2RbA",
    "name": "Windy Ridge Caf\u00e9",
    "street_address": "1250 Iron Horse Drive",
    "city": "Park City",
    "state": "UT",
    "zip_code": "84060",
    "latitude": 40.65925939999999,
    "longitude": -111.5026795,
    "website": "https://www.windyridgecafe.com/",
    "category": "Restaurant",
    "types": "restaurant, food, point_of_interest, establishment"
  },
  {
    "place_id": "ChIJRTBlsqJyUocRf3MiJFy5lFk",
    "name": "Davanza's",
    "street_address": "690 Park Avenue",
    "city": "Park City",
    "state": "UT",
    "zip_code": "84060",
    "latitude": 40.6465444,
    "longitude": -111.4981528,
    "website": "http://www.davanzas.com/",
    "category": "Restaurant",
    "types": "restaurant, food, point_of_interest, establishment"
  },
  {
    "place_id": "ChIJVfBJGb1yUocR5PqD89ItwB8",
    "name": "Fletcher's",
    "street_address": "562 Main Street",
    "city": "Park City",
    "state": "UT",
    "zip_code": "84060",
    "latitude": 40.6453027,
    "longitude": -111.4965505,
    "website": "http://fletcherspc.com/",
    "category": "Bar & Restaurant",
    "types": "night_club, bar, restaurant, food, point_of_interest, establishment"
  },
  {
    "place_id": "ChIJI-1jpHxyUocRfW4a6jTCHZ0",
    "name": "Miners Camp",
    "street_address": "2200 Park Ave",
    "city": "Park City",
    "state": "UT",
    "zip_code": "84098",
    "latitude": 40.6413962,
    "longitude": -111.5284047,
    "website": "http://www.parkcitymountain.com/activities/dining/dining-on-mountain.aspx?page=viewall",
    "category": "Restaurant",
    "types": "restaurant, food, point_of_interest, establishment"
  },
  {
    "place_id": "ChIJ4_QxOzNsUocROlkHkxMRPKY",
    "name": "Edge Steakhouse",
    "street_address": "3000 Canyons Resort Drive",
    "city": "Park City",
    "state": "UT",
    "zip_code": "84098",
    "latitude": 40.6842689,
    "longitude": -111.555397,
    "website": "https://resort.to/espc?y_source=1_OTc1MjIxOC03MTUtbG9jYXRpb24ud2Vic2l0ZQ%3D%3D",
    "category": "Bar & Restaurant",
    "types": "bar, restaurant, food, point_of_interest, establishment"
  },
  {
    "place_id": "ChIJTzfRL71yUocRRhU9NiYr6Rg",
    "name": "Handle",
    "street_address": "136 Heber Avenue",
    "city": "Park City",
    "state": "UT",
    "zip_code": "84060",
    "latitude": 40.6461083,
    "longitude": -111.4962667,
    "website": "https://www.handleparkcity.com/",
    "category": "Restaurant",
    "types": "restaurant, food, point_of_interest, establishment"
  },
  {
    "place_id": "ChIJm8ltbNlyUocRAJGXiHsM9Fw",
    "name": "Glitretind Restaurant",
    "street_address": "7700 Stein Way",
    "city": "Park City",
    "state": "UT",
    "zip_code": "84060",
    "latitude": 40.6221724,
    "longitude": -111.4906724,
    "website": "https://www.steinlodge.com/dining/glitretind-restaurant",
    "category": "Restaurant",
    "types": "restaurant, food, point_of_interest, establishment"
  },
  {
    "place_id": "ChIJrQFymKJyUocRG7x9CRSIyKw",
    "name": "The Bridge Cafe and Grill",
    "street_address": "825 Main Street",
    "city": "Park City",
    "state": "UT",
    "zip_code": "84060",
    "latitude": 40.6478149,
    "longitude": -111.4986261,
    "website": "http://www.thebridgecafeandgrill.com/",
    "category": "Restaurant",
    "types": "restaurant, food, point_of_interest, establishment"
  },
  {
    "place_id": "ChIJXV3NiqVzUocRyXzA9DZlsFo",
    "name": "Tekila Mexican Grill & Cantina",
    "street_address": "255 Main Street",
    "city": "Park City",
    "state": "UT",
    "zip_code": "84060",
    "latitude": 40.6418204,
    "longitude": -111.4949933,
    "website": "https://tekilamexicangrill.com/",
    "category": "Restaurant",
    "types": "restaurant, food, point_of_interest, establishment"
  },
  {
    "place_id": "ChIJdydVI7xyUocR5ze--QfRvaA",
    "name": "350 Main Brasserie",
    "street_address": "350 Main Street",
    "city": "Park City",
    "state": "UT",
    "zip_code": "84060",
    "latitude": 40.64280460000001,
    "longitude": -111.4950754,
    "website": "http://www.350main.com/",
    "category": "Restaurant",
    "types": "restaurant, food, point_of_interest, establishment"
  }
]