[
  {
    "place_id": "ChIJIUZeM6tYXIYRUk1zSTelEwk",
    "name": "Mad Dogs British Pub (River Walk)",
    "street_address": "123 Losoya Street",
    "city": "San Antonio",
    "state": "TX",
    "zip_code": "78205",
    "latitude": 29.4256345,
    "longitude": -98.48848509999999,
    "website": "https://www.maddogs.net/",
    "category": "Bar & Restaurant",
    "types": "tourist_attraction, bar, restaurant, food, point_of_interest, establishment"
  },
  {
    "place_id": "ChIJr9dEtN9ZXIYRFFXJuStnEq0",
    "name": "Crockett Tavern",
    "street_address": "320 Bonham",
    "city": "San Antonio",
    "state": "TX",
    "zip_code": "78205",
    "latitude": 29.4251396,
    "longitude": -98.485136,
    "website": "https://www.crocketttavern.com/",
    "category": "Restaurant",
    "types": "restaurant, food, point_of_interest, establishment"
  },
  {
    "place_id": "ChIJSzUPzqxYXIYRVJL3H4NAr14",
    "name": "The Esquire Tavern",
    "street_address": "155 East Commerce Street",
    "city": "San Antonio",
    "state": "TX",
    "zip_code": "78205",
    "latitude": 29.4247082,
    "longitude": -98.4917718,
    "website": "http://www.esquiretavern-sa.com/",
    "category": "Bar & Restaurant",
    "types": "bar, restaurant, food, point_of_interest, establishment"
  },
  {
    "place_id": "ChIJ0yytnapYXIYROYysCM8ylIE",
    "name": "Yard House",
    "street_address": "849 East Commerce Street",
    "city": "San Antonio",
    "state": "TX",
    "zip_code": "78205",
    "latitude": 29.4233444,
    "longitude": -98.4849684,
    "website": "https://www.yardhouse.com/locations/tx/san-antonio/san-antonio-river-walk/8362?cmpid=br:yh_ag:ie_ch:loc_ca:YHGMB_sn:gmb_gt:san-antonio-tx-8362_pl:locurl_rd:1058",
    "category": "Bar & Restaurant",
    "types": "meal_takeaway, bar, restaurant, food, point_of_interest, establishment"
  },
  {
    "place_id": "ChIJefiCRK9YXIYReYbNa5B-h2Y",
    "name": "The Friendly Spot Ice House",
    "street_address": "943 South Alamo Street",
    "city": "San Antonio",
    "state": "TX",
    "zip_code": "78205",
    "latitude": 29.4146143,
    "longitude": -98.49074809999999,
    "website": "http://www.thefriendlyspot.com/",
    "category": "Bar & Restaurant",
    "types": "bar, restaurant, point_of_interest, food, establishment"
  },
  {
    "place_id": "ChIJLciFIMVfXIYREXXCxpUCiDc",
    "name": "LadyBird Beer Garden",
    "street_address": "447 West Hildebrand Avenue",
    "city": "San Antonio",
    "state": "TX",
    "zip_code": "78212",
    "latitude": 29.4667918,
    "longitude": -98.5011833,
    "website": "https://www.ladybirdbeergarden.com/",
    "category": "Bar & Restaurant",
    "types": "bar, restaurant, food, point_of_interest, establishment"
  },
  {
    "place_id": "ChIJued8kQH1XIYRqmw8YQsGuPg",
    "name": "The Cottage Pub",
    "street_address": "3810 Broadway",
    "city": "San Antonio",
    "state": "TX",
    "zip_code": "78209",
    "latitude": 29.4614947,
    "longitude": -98.4661349,
    "website": "http://thecottageirishpub.com/",
    "category": "Restaurant",
    "types": "restaurant, food, point_of_interest, establishment"
  },
  {
    "place_id": "ChIJaXbF2IBZXIYR4lB8BZTBfBA",
    "name": "PROST",
    "street_address": "231 South Alamo Street",
    "city": "San Antonio",
    "state": "TX",
    "zip_code": "78205",
    "latitude": 29.42180979999999,
    "longitude": -98.488061,
    "website": "http://www.prosthaussa.com/",
    "category": "Bar & Restaurant",
    "types": "restaurant, bar, food, point_of_interest, establishment"
  },
  {
    "place_id": "ChIJeR2k-fP1XIYR9ZEz1asIiGM",
    "name": "Down on Grayson",
    "street_address": "303 East Grayson Street",
    "city": "San Antonio",
    "state": "TX",
    "zip_code": "78215",
    "latitude": 29.44412819999999,
    "longitude": -98.47821630000001,
    "website": "https://www.downongrayson.com/",
    "category": "Restaurant",
    "types": "restaurant, food, point_of_interest, establishment"
  },
  {
    "place_id": "ChIJ9xhREQL2XIYR1RwFunn5sKA",
    "name": "Bar 601",
    "street_address": "739 East C\u00e9sar E. Ch\u00e1vez Boulevard",
    "city": "San Antonio",
    "state": "TX",
    "zip_code": "78205",
    "latitude": 29.41900249999999,
    "longitude": -98.4835804,
    "website": "http://www.toweroftheamericas.com/visitor-info.asp",
    "category": "Bar & Restaurant",
    "types": "bar, restaurant, food, point_of_interest, establishment"
  },
  {
    "place_id": "ChIJ1Qrj9YFYXIYRr2OppGhpGAY",
    "name": "Tee Time Sports Bar",
    "street_address": "1805 Roosevelt Avenue",
    "city": "San Antonio",
    "state": "TX",
    "zip_code": "78210",
    "latitude": 29.3852016,
    "longitude": -98.4853495,
    "website": null,
    "category": "Bar & Restaurant",
    "types": "bar, restaurant, food, point_of_interest, establishment"
  },
  {
    "place_id": "ChIJ-QHSFWZfXIYRsvm79z3Fvc4",
    "name": "La Fonda On Main",
    "street_address": "2415 North Main Avenue",
    "city": "San Antonio",
    "state": "TX",
    "zip_code": "78212",
    "latitude": 29.4525203,
    "longitude": -98.49416339999999,
    "website": "https://www.lafondaonmain.com/?utm_source=google&utm_medium=organic&utm_campaign=gbp_listing",
    "category": "Bar & Restaurant",
    "types": "bar, restaurant, food, point_of_interest, establishment"
  },
  {
    "place_id": "ChIJ7aBn-vv1XIYRHr3YLPCzarg",
    "name": "Burleson Yard Beer Garden",
    "street_address": "430 Austin Street",
    "city": "San Antonio",
    "state": "TX",
    "zip_code": "78215",
    "latitude": 29.4324814,
    "longitude": -98.4782989,
    "website": "https://www.burlesonyardbeergarden.com/",
    "category": "Bar & Restaurant",
    "types": "bar, restaurant, food, point_of_interest, establishment"
  },
  {
    "place_id": "ChIJ6Yjw6Iz1XIYRKShmHy0Qz_U",
    "name": "Elsewhere Garden Bar & Kitchen",
    "street_address": "103 East Jones Avenue",
    "city": "San Antonio",
    "state": "TX",
    "zip_code": "78215",
    "latitude": 29.4362751,
    "longitude": -98.480581,
    "website": "http://www.elsewheretexas.com/",
    "category": "Bar & Restaurant",
    "types": "bar, restaurant, food, point_of_interest, establishment"
  },
  {
    "place_id": "ChIJEW36U4BZXIYRWadWBgfniMo",
    "name": "4th bar and lounge",
    "street_address": "308 North Presa Street",
    "city": "San Antonio",
    "state": "TX",
    "zip_code": "78205",
    "latitude": 29.4244339,
    "longitude": -98.4888503,
    "website": "http://4thbar.com/",
    "category": "Bar & Restaurant",
    "types": "bar, restaurant, point_of_interest, food, establishment"
  },
  {
    "place_id": "ChIJXRi7VbxfXIYRzW7Sl-X5ONc",
    "name": "Slackers Bar",
    "street_address": "2719 North Saint Mary's Street",
    "city": "San Antonio",
    "state": "TX",
    "zip_code": "78212",
    "latitude": 29.450658,
    "longitude": -98.4865876,
    "website": null,
    "category": "Bar & Restaurant",
    "types": "bar, restaurant, food, point_of_interest, establishment"
  },
  {
    "place_id": "ChIJ__9PTQT2XIYRfJBu-ESDJeI",
    "name": "The Cherrity Bar",
    "street_address": "302 Montana Street",
    "city": "San Antonio",
    "state": "TX",
    "zip_code": "78203",
    "latitude": 29.4183694,
    "longitude": -98.47606189999999,
    "website": "https://cherritybar.com/",
    "category": "Restaurant",
    "types": "restaurant, food, point_of_interest, establishment"
  },
  {
    "place_id": "ChIJHUtOS3X1XIYRIPEfBT3cmus",
    "name": "The Winchester",
    "street_address": "5148 Broadway",
    "city": "San Antonio",
    "state": "TX",
    "zip_code": "78209",
    "latitude": 29.4743675,
    "longitude": -98.46236599999999,
    "website": "http://winchester-pub.com/",
    "category": "Bar & Restaurant",
    "types": "bar, restaurant, point_of_interest, food, establishment"
  },
  {
    "place_id": "ChIJ-6pQ_p_1XIYRfQ-Ghm-A2pA",
    "name": "The Broadway 50 50",
    "street_address": "5050 Broadway",
    "city": "Alamo Heights",
    "state": "TX",
    "zip_code": "78209",
    "latitude": 29.47292,
    "longitude": -98.46248639999999,
    "website": "http://www.broadway5050.com/",
    "category": "Bar & Restaurant",
    "types": "bar, restaurant, point_of_interest, food, establishment"
  },
  {
    "place_id": "ChIJ7fDSGX2JXIYRPABjC4LFsq4",
    "name": "The Roo Pub",
    "street_address": "19314 U.S. 281",
    "city": "San Antonio",
    "state": "TX",
    "zip_code": "78258",
    "latitude": 29.6216452,
    "longitude": -98.4625595,
    "website": "https://www.roopub.com/contact",
    "category": "Bar & Restaurant",
    "types": "bar, restaurant, food, point_of_interest, establishment"
  },
  {
    "place_id": "ChIJxchM4ZKJXIYR71SKYL4LaHs",
    "name": "Stone Terrace Gastropub",
    "street_address": "20626 Stone Oak Parkway",
    "city": "San Antonio",
    "state": "TX",
    "zip_code": "78258",
    "latitude": 29.6486989,
    "longitude": -98.46282029999999,
    "website": "https://stoneterracegastropub.com/?utm_source=google-gmb-maps&utm_medium=gmb-website-button&utm_campaign=locl.io&utm_content=28989320-f969-4340-b380-964d4af5b276",
    "category": "Bar & Restaurant",
    "types": "bar, restaurant, food, point_of_interest, establishment"
  },
  {
    "place_id": "ChIJ51fplfKJXIYRDf8NzwdlhxA",
    "name": "The Angry Elephant",
    "street_address": "19314 U.S. 281",
    "city": "San Antonio",
    "state": "TX",
    "zip_code": "78258",
    "latitude": 29.6215607,
    "longitude": -98.46255169999999,
    "website": "https://theangryelephantbar.com/",
    "category": "Bar & Restaurant",
    "types": "bar, night_club, restaurant, food, point_of_interest, establishment"
  },
  {
    "place_id": "ChIJ0d_gSgCLXIYRtT3JNQVqz_o",
    "name": "Encore Bar & Grill",
    "street_address": "2901 North Loop 1604 East",
    "city": "San Antonio",
    "state": "TX",
    "zip_code": "78259",
    "latitude": 29.6032781,
    "longitude": -98.4426017,
    "website": "https://encoresportsbar.com/",
    "category": "Bar & Restaurant",
    "types": "bar, restaurant, food, point_of_interest, establishment"
  },
  {
    "place_id": "ChIJiRSTSztiXIYRiga_MVX5IPM",
    "name": "Kennedy's Public House",
    "street_address": "19179 Blanco Road",
    "city": "San Antonio",
    "state": "TX",
    "zip_code": "78258",
    "latitude": 29.6205776,
    "longitude": -98.51342799999999,
    "website": "http://www.kennedysirishbar.com/",
    "category": "Bar & Restaurant",
    "types": "bar, restaurant, food, point_of_interest, establishment"
  },
  {
    "place_id": "ChIJs8xMLhCKXIYRYuDf0Du43xM",
    "name": "Walk-On's Sports Bistreaux - San Antonio Restaurant",
    "street_address": "1400 Pantheon Way",
    "city": "San Antonio",
    "state": "TX",
    "zip_code": "78232",
    "latitude": 29.5973324,
    "longitude": -98.47282489999999,
    "website": "https://locate.walk-ons.com/tx/sanantonio/restaurants-13.html",
    "category": "Bar & Restaurant",
    "types": "restaurant, bar, food, point_of_interest, establishment"
  },
  {
    "place_id": "ChIJHy_gQQCKXIYRpIOh-XEjoHU",
    "name": "Little Woodrow's Stone Oak",
    "street_address": "606 West Afton Oaks Boulevard",
    "city": "San Antonio",
    "state": "TX",
    "zip_code": "78232",
    "latitude": 29.6080251,
    "longitude": -98.4858582,
    "website": "https://littlewoodrows.com/locations/stone-oak/",
    "category": "Bar & Restaurant",
    "types": "bar, restaurant, food, point_of_interest, establishment"
  },
  {
    "place_id": "ChIJt-ifFgKKXIYR8Z2LD4bFrsw",
    "name": "The Hoppy Monk",
    "street_address": "1010 North Loop 1604 East",
    "city": "San Antonio",
    "state": "TX",
    "zip_code": "78232",
    "latitude": 29.6091852,
    "longitude": -98.47772,
    "website": "http://www.thehoppymonk.com/sanantonio",
    "category": "Bar & Restaurant",
    "types": "bar, restaurant, food, point_of_interest, establishment"
  },
  {
    "place_id": "ChIJpyqpev-JXIYRE3-QOaFkrwU",
    "name": "Embers Wood Fire Kitchen & Tap",
    "street_address": "819 North Loop 1604 East",
    "city": "San Antonio",
    "state": "TX",
    "zip_code": "78232",
    "latitude": 29.61095679999999,
    "longitude": -98.4809327,
    "website": "http://www.emberssa.com/",
    "category": "Bar & Restaurant",
    "types": "bar, restaurant, food, point_of_interest, establishment"
  },
  {
    "place_id": "ChIJw-bKVqyJXIYREgw2uV4T3RQ",
    "name": "54th Street Scratch Grill & Bar- Stone Oak",
    "street_address": "22902 U.S. 281",
    "city": "San Antonio",
    "state": "TX",
    "zip_code": "78258",
    "latitude": 29.654671,
    "longitude": -98.448086,
    "website": "https://www.54thstreetgrill.com/",
    "category": "Bar & Restaurant",
    "types": "restaurant, bar, food, point_of_interest, establishment"
  },
  {
    "place_id": "ChIJ8dXFP1NCXIYRf76nDKwycxw",
    "name": "COVER 3 San Antonio",
    "street_address": "1806 N Loop 1604 W",
    "city": "San Antonio",
    "state": "TX",
    "zip_code": "78248",
    "latitude": 29.6077583,
    "longitude": -98.5201398,
    "website": "https://cover-3.com/locations/san-antonio",
    "category": "Bar & Restaurant",
    "types": "bar, restaurant, point_of_interest, food, establishment"
  },
  {
    "place_id": "ChIJ64GOupKJXIYRQSmh6Qt_n8Q",
    "name": "BJ's Restaurant & Brewhouse",
    "street_address": "22410 U.S. Highway 281 North",
    "city": "San Antonio",
    "state": "TX",
    "zip_code": "78259",
    "latitude": 29.6494701,
    "longitude": -98.4485691,
    "website": "https://www.bjsrestaurants.com/locations/tx/san-antonio?utm_source=google&utm_medium=organic&utm_campaign=google_my_business",
    "category": "Bar & Restaurant",
    "types": "restaurant, bar, point_of_interest, food, establishment"
  },
  {
    "place_id": "ChIJjVUiTZNfXIYR_hXRZPodnXg",
    "name": "The Bang Bang Bar",
    "street_address": "119 El Mio Drive",
    "city": "San Antonio",
    "state": "TX",
    "zip_code": "78216",
    "latitude": 29.4938269,
    "longitude": -98.4998885,
    "website": "https://thebangbangbartx.com/",
    "category": "Bar & Restaurant",
    "types": "bar, restaurant, food, point_of_interest, establishment"
  },
  {
    "place_id": "ChIJk3hmU1H1XIYRLS94O8-FsWw",
    "name": "Wild Barley Kitchen & Brewery",
    "street_address": "8403 Broadway",
    "city": "San Antonio",
    "state": "TX",
    "zip_code": "78209",
    "latitude": 29.5153678,
    "longitude": -98.46578090000001,
    "website": "http://www.wildbarley.com/",
    "category": "Bar & Restaurant",
    "types": "bar, restaurant, food, point_of_interest, establishment"
  },
  {
    "place_id": "ChIJQ27S5B71XIYR-laI8P2wEvg",
    "name": "Breakaway Brewing Company",
    "street_address": "1518 East Grayson Street",
    "city": "San Antonio",
    "state": "TX",
    "zip_code": "78208",
    "latitude": 29.4430198,
    "longitude": -98.46154779999999,
    "website": "https://www.breakawaybrewing.us/",
    "category": "Bar & Restaurant",
    "types": "bar, restaurant, food, point_of_interest, establishment"
  },
  {
    "place_id": "ChIJ2ZwD0GFfXIYRywb44id8chs",
    "name": "Tycoon Flats N St Marys",
    "street_address": "2926 North Saint Mary's Street",
    "city": "San Antonio",
    "state": "TX",
    "zip_code": "78212",
    "latitude": 29.4522559,
    "longitude": -98.48489219999999,
    "website": "https://stmarys.tycoonflats.com/",
    "category": "Bar & Restaurant",
    "types": "meal_delivery, meal_takeaway, bar, restaurant, food, point_of_interest, establishment"
  },
  {
    "place_id": "ChIJoVaCisuKXIYRu37CbTGuMcs",
    "name": "Rookies Too Sports Bar And Grill",
    "street_address": "9200 Broadway",
    "city": "San Antonio",
    "state": "TX",
    "zip_code": "78217",
    "latitude": 29.5235636,
    "longitude": -98.4571833,
    "website": "https://m.facebook.com/Rookies-Too-1555996714630997/",
    "category": "Bar & Restaurant",
    "types": "bar, restaurant, food, point_of_interest, establishment"
  },
  {
    "place_id": "ChIJs3Q4tVX1XIYRQnsEfxTJd-Q",
    "name": "Cootey's Tavern",
    "street_address": "8318 Jones Maltsberger Road",
    "city": "San Antonio",
    "state": "TX",
    "zip_code": "78216",
    "latitude": 29.513726,
    "longitude": -98.4805167,
    "website": "http://www.cooteystavern.com/",
    "category": "Bar & Restaurant",
    "types": "bar, restaurant, food, point_of_interest, establishment"
  },
  {
    "place_id": "ChIJdW_bPkn1XIYREQk_W8RPGko",
    "name": "The Hangar Bar & Grill",
    "street_address": "8203 Broadway",
    "city": "San Antonio",
    "state": "TX",
    "zip_code": "78209",
    "latitude": 29.5115994,
    "longitude": -98.4666292,
    "website": "https://www.thehangarssa.com/",
    "category": "Bar & Restaurant",
    "types": "bar, restaurant, food, point_of_interest, establishment"
  },
  {
    "place_id": "ChIJjQ69xFT1XIYRq7ib3JzKMUM",
    "name": "54th Street Restaurant & Drafthouse-Rector St.",
    "street_address": "954 East Rector Street",
    "city": "San Antonio",
    "state": "TX",
    "zip_code": "78216",
    "latitude": 29.5164729,
    "longitude": -98.478822,
    "website": "https://www.54thstreetrestaurants.com/san-antonio-tx-rector-street.html",
    "category": "Restaurant",
    "types": "restaurant, food, point_of_interest, establishment"
  },
  {
    "place_id": "ChIJh4PL7imLXIYRrLnLegdv3yw",
    "name": "Flames",
    "street_address": "3131 Nacogdoches Road",
    "city": "San Antonio",
    "state": "TX",
    "zip_code": "78217",
    "latitude": 29.5275694,
    "longitude": -98.43941939999999,
    "website": null,
    "category": "Restaurant",
    "types": "restaurant, point_of_interest, food, establishment"
  },
  {
    "place_id": "ChIJ_1Lj5Z_1XIYRLKPXnuB-xYA",
    "name": "Cappyccino's",
    "street_address": "5003 Broadway",
    "city": "San Antonio",
    "state": "TX",
    "zip_code": "78209",
    "latitude": 29.4724167,
    "longitude": -98.4631889,
    "website": "https://www.cappyccinos.com/?utm_source=google&utm_medium=organic&utm_campaign=gbp_listing",
    "category": "Bar & Restaurant",
    "types": "bar, restaurant, food, point_of_interest, establishment"
  },
  {
    "place_id": "ChIJ5SNXAQtgXIYRZLfI3avoPA8",
    "name": "Twin Peaks",
    "street_address": "702 Northwest Loop 410",
    "city": "San Antonio",
    "state": "TX",
    "zip_code": "78216",
    "latitude": 29.5198453,
    "longitude": -98.5037389,
    "website": "https://twinpeaksrestaurant.com/locations/san-antonio-park-north-tx",
    "category": "Bar & Restaurant",
    "types": "bar, restaurant, food, point_of_interest, establishment"
  },
  {
    "place_id": "ChIJB1Ji0o71XIYR6JnUIABegPQ",
    "name": "Bombay Bicycle Club",
    "street_address": "3506 North Saint Mary's Street",
    "city": "San Antonio",
    "state": "TX",
    "zip_code": "78212",
    "latitude": 29.4571951,
    "longitude": -98.4787297,
    "website": "https://www.bombaybicycleclubsa.com/",
    "category": "Bar & Restaurant",
    "types": "bar, restaurant, food, point_of_interest, establishment"
  },
  {
    "place_id": "ChIJg6PHn_b1XIYRNFfkn7mNBVA",
    "name": "Park Bar",
    "street_address": "312 Pearl Parkway",
    "city": "San Antonio",
    "state": "TX",
    "zip_code": "78215",
    "latitude": 29.4420119,
    "longitude": -98.4806799,
    "website": "https://www.bottlingdepartment.com/park-bar/",
    "category": "Bar & Restaurant",
    "types": "bar, restaurant, food, point_of_interest, establishment"
  },
  {
    "place_id": "ChIJB-HGzfj1XIYRAuz5RyquDeA",
    "name": "Roadmap Brewing Co.",
    "street_address": "723 North Alamo Street",
    "city": "San Antonio",
    "state": "TX",
    "zip_code": "78215",
    "latitude": 29.4318176,
    "longitude": -98.4820635,
    "website": "http://www.roadmapbrewing.com/",
    "category": "Bar & Restaurant",
    "types": "bar, restaurant, point_of_interest, food, establishment"
  },
  {
    "place_id": "ChIJu6NxFXBfXIYRdkFjynqW_3g",
    "name": "Back Unturned Brewing Co.",
    "street_address": "516 Brooklyn Avenue",
    "city": "San Antonio",
    "state": "TX",
    "zip_code": "78215",
    "latitude": 29.4330983,
    "longitude": -98.4845252,
    "website": "http://www.backunturned.com/",
    "category": "Restaurant",
    "types": "restaurant, food, point_of_interest, establishment"
  },
  {
    "place_id": "ChIJUQ7NcPj1XIYRlxt1Mwubmsw",
    "name": "Paramour At The Phipps",
    "street_address": "102 9th Street",
    "city": "San Antonio",
    "state": "TX",
    "zip_code": "78215",
    "latitude": 29.4354297,
    "longitude": -98.48360339999999,
    "website": "https://paramourbar.com/",
    "category": "Bar & Restaurant",
    "types": "night_club, bar, restaurant, food, point_of_interest, establishment"
  },
  {
    "place_id": "ChIJhW3XO5L1XIYRE_Kyy7H0XIw",
    "name": "Good Time Charlie's Bar & Cafe",
    "street_address": "2922 Broadway",
    "city": "San Antonio",
    "state": "TX",
    "zip_code": "78209",
    "latitude": 29.4541522,
    "longitude": -98.4713354,
    "website": "http://www.gtcsatx.com/",
    "category": "Restaurant",
    "types": "restaurant, food, point_of_interest, establishment"
  },
  {
    "place_id": "ChIJ7Q2ZLrtYXIYR0Ncz_XBi3m4",
    "name": "Blue Star Brewing Company",
    "street_address": "1414 South Alamo Street",
    "city": "San Antonio",
    "state": "TX",
    "zip_code": "78210",
    "latitude": 29.409524,
    "longitude": -98.495312,
    "website": "http://bluestarbrewing.com/",
    "category": "Bar & Restaurant",
    "types": "bar, restaurant, point_of_interest, food, establishment"
  },
  {
    "place_id": "ChIJBWvgvwxgXIYRZcq3UzhiuGo",
    "name": "McFinnigan's Pub",
    "street_address": "7210 Blanco Road",
    "city": "San Antonio",
    "state": "TX",
    "zip_code": "78216",
    "latitude": 29.5236395,
    "longitude": -98.50409940000002,
    "website": null,
    "category": "Bar & Restaurant",
    "types": "bar, restaurant, point_of_interest, food, establishment"
  },
  {
    "place_id": "ChIJ0ZAmfyv1XIYRchugovIB3Hw",
    "name": "Happy Place Bar on Rittiman",
    "street_address": "4722 Rittiman Road",
    "city": "San Antonio",
    "state": "TX",
    "zip_code": "78218",
    "latitude": 29.48374949999999,
    "longitude": -98.39912520000001,
    "website": "http://www.facebook.com/happyplacebar",
    "category": "Bar & Restaurant",
    "types": "bar, restaurant, food, point_of_interest, establishment"
  },
  {
    "place_id": "ChIJ9XzK5QFeXIYRZbP-JJGahd4",
    "name": "Oak Hills Tavern",
    "street_address": "7920 Fredericksburg Road",
    "city": "San Antonio",
    "state": "TX",
    "zip_code": "78229",
    "latitude": 29.5118426,
    "longitude": -98.5675734,
    "website": "https://www.oakhillstavern.com/",
    "category": "Bar & Restaurant",
    "types": "bar, restaurant, food, point_of_interest, establishment"
  },
  {
    "place_id": "ChIJw4iXl_1gXIYRvLKVGNQiOFo",
    "name": "The Lost Bar and Grill",
    "street_address": "12730 Northwest Military Highway",
    "city": "San Antonio",
    "state": "TX",
    "zip_code": "78231",
    "latitude": 29.559666,
    "longitude": -98.53536749999999,
    "website": "http://thelostbarandgrill.com/",
    "category": "Bar & Restaurant",
    "types": "bar, restaurant, food, point_of_interest, establishment"
  },
  {
    "place_id": "ChIJm3X73mD1XIYRua_wn3BFtFg",
    "name": "Piranha Izakaya",
    "street_address": "260 East Basse Road",
    "city": "San Antonio",
    "state": "TX",
    "zip_code": "78209",
    "latitude": 29.4943373,
    "longitude": -98.4789797,
    "website": "http://piranhaizakaya.com/",
    "category": "Bar & Restaurant",
    "types": "bar, restaurant, food, point_of_interest, establishment"
  },
  {
    "place_id": "ChIJXfaR659fXIYRkr5Nzww7Vr0",
    "name": "The Beagle Pub and Eatery",
    "street_address": "5562 Fredericksburg Road",
    "city": "San Antonio",
    "state": "TX",
    "zip_code": "78229",
    "latitude": 29.5095444,
    "longitude": -98.5655331,
    "website": null,
    "category": "Bar & Restaurant",
    "types": "bar, restaurant, food, point_of_interest, establishment"
  },
  {
    "place_id": "ChIJ0zw0D-VgXIYR6f8pQ-RmJqQ",
    "name": "Pam's Patio Kitchen and Wine Bar",
    "street_address": "11826 Wurzbach Road",
    "city": "San Antonio",
    "state": "TX",
    "zip_code": "78230",
    "latitude": 29.5498873,
    "longitude": -98.5415171,
    "website": "http://www.pamspatio.com/",
    "category": "Restaurant",
    "types": "restaurant, liquor_store, bakery, point_of_interest, food, store, establishment"
  },
  {
    "place_id": "ChIJP29EgyZhXIYRux5isXY9hzk",
    "name": "Gino's Deli @ Stop & Buy",
    "street_address": "13210 Huebner Road",
    "city": "San Antonio",
    "state": "TX",
    "zip_code": "78230",
    "latitude": 29.5644436,
    "longitude": -98.5575485,
    "website": "http://www.myginosdeli.com/",
    "category": "Restaurant",
    "types": "liquor_store, restaurant, point_of_interest, food, store, establishment"
  },
  {
    "place_id": "ChIJ51_RAbGKXIYRw37EX_lIFN0",
    "name": "Mission City Ice House",
    "street_address": "9800 Airport Boulevard",
    "city": "San Antonio",
    "state": "TX",
    "zip_code": "78216",
    "latitude": 29.5273762,
    "longitude": -98.47033739999999,
    "website": null,
    "category": "Bar & Restaurant",
    "types": "restaurant, bar, point_of_interest, food, establishment"
  },
  {
    "place_id": "ChIJLVe7jftgXIYRPpkWpm8ENvA",
    "name": "El Mirasol",
    "street_address": "10003 Northwest Military Highway",
    "city": "San Antonio",
    "state": "TX",
    "zip_code": "78231",
    "latitude": 29.55384440000001,
    "longitude": -98.53654979999999,
    "website": "http://www.elmirasolsa.com/",
    "category": "Bar & Restaurant",
    "types": "bar, restaurant, point_of_interest, food, establishment"
  },
  {
    "place_id": "ChIJ6QKx7YtnXIYRKxT0CT6j208",
    "name": "Tree House Burgers & Brews",
    "street_address": "7905 Bandera Road",
    "city": "San Antonio",
    "state": "TX",
    "zip_code": "78250",
    "latitude": 29.5131154,
    "longitude": -98.63365019999999,
    "website": "https://treehousesatx.com/",
    "category": "Bar & Restaurant",
    "types": "bar, restaurant, food, point_of_interest, establishment"
  },
  {
    "place_id": "ChIJWSoW7PZdXIYR1bAsxtmzEK4",
    "name": "Little Woodrow's Babcock",
    "street_address": "2535 Babcock Road",
    "city": "San Antonio",
    "state": "TX",
    "zip_code": "78229",
    "latitude": 29.5074817,
    "longitude": -98.5869209,
    "website": "https://littlewoodrows.com/locations/babcock/",
    "category": "Bar & Restaurant",
    "types": "bar, restaurant, point_of_interest, food, establishment"
  },
  {
    "place_id": "ChIJFyogBbFgXIYRERleTG22WQ4",
    "name": "The Irish Pub",
    "street_address": "9726 Datapoint Drive",
    "city": "San Antonio",
    "state": "TX",
    "zip_code": "78229",
    "latitude": 29.52776889999999,
    "longitude": -98.56471520000001,
    "website": null,
    "category": "Bar & Restaurant",
    "types": "bar, restaurant, food, point_of_interest, establishment"
  },
  {
    "place_id": "ChIJ02e4YIlnXIYR-g4KuUB8TRc",
    "name": "The Bend Sports Bar",
    "street_address": "7730 Bandera Road",
    "city": "San Antonio",
    "state": "TX",
    "zip_code": "78240",
    "latitude": 29.51245299999999,
    "longitude": -98.6314239,
    "website": "https://m.facebook.com/ATB4FUN/",
    "category": "Bar & Restaurant",
    "types": "night_club, bar, restaurant, food, point_of_interest, establishment"
  },
  {
    "place_id": "ChIJ2QQjnwxfXIYRe1f2EB5sCzE",
    "name": "Chris Madrid's",
    "street_address": "1900 Blanco Road",
    "city": "San Antonio",
    "state": "TX",
    "zip_code": "78212",
    "latitude": 29.4642567,
    "longitude": -98.507661,
    "website": "http://www.chrismadrids.com/",
    "category": "Bar & Restaurant",
    "types": "bar, restaurant, food, point_of_interest, establishment"
  },
  {
    "place_id": "ChIJVwz-t_xdXIYRhWkAx1HRjv4",
    "name": "Suck It The Restaurant",
    "street_address": "7220 Louis Pasteur Drive",
    "city": "San Antonio",
    "state": "TX",
    "zip_code": "78229",
    "latitude": 29.5011116,
    "longitude": -98.576269,
    "website": "https://chefsuckit.com/",
    "category": "Restaurant",
    "types": "restaurant, food, point_of_interest, establishment"
  },
  {
    "place_id": "ChIJI5jLwsOMXIYRz2x6DYUp-3g",
    "name": "Rocky's Tavern",
    "street_address": "11403 O'Connor Road",
    "city": "San Antonio",
    "state": "TX",
    "zip_code": "78233",
    "latitude": 29.5438288,
    "longitude": -98.3682695,
    "website": null,
    "category": "Bar & Restaurant",
    "types": "bar, restaurant, food, point_of_interest, establishment"
  },
  {
    "place_id": "ChIJNaEW8LqLXIYRBEQHIrRkto0",
    "name": "Hangar Pub",
    "street_address": "12232 Nacogdoches Road",
    "city": "San Antonio",
    "state": "TX",
    "zip_code": "78217",
    "latitude": 29.5508855,
    "longitude": -98.40635759999999,
    "website": "http://www.hangarpubnaco.com/",
    "category": "Bar & Restaurant",
    "types": "restaurant, bar, food, point_of_interest, establishment"
  },
  {
    "place_id": "ChIJa_BHyEOLXIYRaGTQ9e6hmO0",
    "name": "Eddy's Tavern & Social San Antonio-Perrin Beitel",
    "street_address": "11221 Perrin Beitel",
    "city": "San Antonio",
    "state": "TX",
    "zip_code": "78217",
    "latitude": 29.542044,
    "longitude": -98.411396,
    "website": "http://fasteddiesbilliards.com/perrin-beitel/",
    "category": "Bar & Restaurant",
    "types": "bar, restaurant, point_of_interest, food, establishment"
  },
  {
    "place_id": "ChIJC16gIcHzXIYRmcXQ3R_wfN8",
    "name": "The Back Nine Grill",
    "street_address": "8600 Midcrown Drive",
    "city": "Windcrest",
    "state": "TX",
    "zip_code": "78239",
    "latitude": 29.5176366,
    "longitude": -98.38096039999999,
    "website": null,
    "category": "Bar & Restaurant",
    "types": "bar, restaurant, food, point_of_interest, establishment"
  },
  {
    "place_id": "ChIJOS0HRqf0XIYRIZ1xiAEB3gE",
    "name": "Applebee's Grill + Bar",
    "street_address": "7880 North Interstate 35",
    "city": "San Antonio",
    "state": "TX",
    "zip_code": "78218",
    "latitude": 29.50682939999999,
    "longitude": -98.3974615,
    "website": "https://restaurants.applebees.com/en-us/tx/san-antonio/7880-ih35-north-92049?utm_source=google&utm_medium=organic&utm_campaign=google_my_business&utm_term=92049&utm_content=website",
    "category": "Bar & Restaurant",
    "types": "restaurant, bar, food, point_of_interest, establishment"
  },
  {
    "place_id": "ChIJAercVm2NXIYRQEhyRWdDUH0",
    "name": "54th Street Restaurant & Drafthouse",
    "street_address": "8111 Pat Booker Road",
    "city": "Live Oak",
    "state": "TX",
    "zip_code": "78233",
    "latitude": 29.5627263,
    "longitude": -98.3304761,
    "website": "https://www.54thstreetgrill.com/",
    "category": "Restaurant",
    "types": "restaurant, food, point_of_interest, establishment"
  },
  {
    "place_id": "ChIJu5C6OZqTXIYRbnyQ0__nz2c",
    "name": "Gather Brewing Company",
    "street_address": "210 East Aviation Boulevard",
    "city": "Universal City",
    "state": "TX",
    "zip_code": "78148",
    "latitude": 29.54521519999999,
    "longitude": -98.28669289999999,
    "website": "https://www.gatherbrewing.com/",
    "category": "Bar & Restaurant",
    "types": "bar, restaurant, food, point_of_interest, establishment"
  },
  {
    "place_id": "ChIJwbdNF3XyXIYRDgF5EcFejzQ",
    "name": "Chili's Grill & Bar",
    "street_address": "8590 Farm-To-Market Road 78",
    "city": "Converse",
    "state": "TX",
    "zip_code": "78109",
    "latitude": 29.498319,
    "longitude": -98.319098,
    "website": "https://www.chilis.com/locations/us/texas/converse/converse?utm_source=google&utm_medium=local&utm_campaign=Chilis",
    "category": "Bar & Restaurant",
    "types": "restaurant, bar, food, point_of_interest, establishment"
  },
  {
    "place_id": "ChIJq3yv34WTXIYRpmPluRgtedE",
    "name": "Anchor Bar",
    "street_address": "3820 Farm to Market Road 3009",
    "city": "Schertz",
    "state": "TX",
    "zip_code": "78154",
    "latitude": 29.5867181,
    "longitude": -98.26696,
    "website": "https://www.anchorbar.com/schertz-tx",
    "category": "Bar & Restaurant",
    "types": "restaurant, meal_delivery, bar, food, point_of_interest, establishment"
  },
  {
    "place_id": "ChIJXQ9C8dmNXIYRdiA3OBFyAfg",
    "name": "Twin Peaks",
    "street_address": "3050 IKEA-RBFCU Parkway",
    "city": "Live Oak",
    "state": "TX",
    "zip_code": "78233",
    "latitude": 29.566034,
    "longitude": -98.34210829999999,
    "website": "https://twinpeaksrestaurant.com/locations/live-oak",
    "category": "Bar & Restaurant",
    "types": "bar, restaurant, food, point_of_interest, establishment"
  },
  {
    "place_id": "ChIJH_zp2m2NXIYR6b_FTKFZOEw",
    "name": "Bubba's 33",
    "street_address": "3136 Pat Booker Road",
    "city": "Universal City",
    "state": "TX",
    "zip_code": "78148",
    "latitude": 29.5604756,
    "longitude": -98.3258688,
    "website": "https://www.bubbas33.com/locations/texas/universal-city?utm_source=listing&utm_medium=search",
    "category": "Bar & Restaurant",
    "types": "bar, restaurant, food, point_of_interest, establishment"
  },
  {
    "place_id": "ChIJZwluqwuNXIYRFVfLWZiw6qI",
    "name": "BJ's Restaurant & Brewhouse",
    "street_address": "2050 IKEA-RBFCU Parkway",
    "city": "Live Oak",
    "state": "TX",
    "zip_code": "78233",
    "latitude": 29.56402989999999,
    "longitude": -98.34022569999999,
    "website": "https://www.bjsrestaurants.com/locations/tx/live-oak",
    "category": "Bar & Restaurant",
    "types": "restaurant, bar, food, point_of_interest, establishment"
  }
]