[
  {
    "place_id": "ChIJ1XXDxKdU2YARx9kG-q8w_dE",
    "name": "The Local Eatery & Drinking Hole",
    "street_address": "1065 Fourth Avenue",
    "city": "San Diego",
    "state": "CA",
    "zip_code": "92101",
    "latitude": 32.716526,
    "longitude": -117.1609477,
    "website": "https://thelocalsandiego.com/",
    "category": "Bar & Restaurant",
    "types": "restaurant, bar, food, point_of_interest, establishment"
  },
  {
    "place_id": "ChIJQQr3Ey6r3oARO5ZJT_3HASo",
    "name": "Shakespeare Pub",
    "street_address": "3701 India Street",
    "city": "San Diego",
    "state": "CA",
    "zip_code": "92103",
    "latitude": 32.74261679999999,
    "longitude": -117.1804507,
    "website": "http://www.shakespearepub.com/",
    "category": "Bar & Restaurant",
    "types": "restaurant, food, bar, point_of_interest, establishment"
  },
  {
    "place_id": "ChIJmTC7AS6r3oAR5M8qnvR57co",
    "name": "The Regal Beagle",
    "street_address": "3659 India Street",
    "city": "San Diego",
    "state": "CA",
    "zip_code": "92103",
    "latitude": 32.7418837,
    "longitude": -117.1796359,
    "website": "http://www.regalbeaglesd.com/",
    "category": "Bar & Restaurant",
    "types": "liquor_store, bar, restaurant, point_of_interest, food, store, establishment"
  },
  {
    "place_id": "ChIJG1VY77lU2YARv1_G3nU01Z0",
    "name": "The Corner Drafthouse",
    "street_address": "495 Laurel Street",
    "city": "San Diego",
    "state": "CA",
    "zip_code": "92101",
    "latitude": 32.7312539,
    "longitude": -117.1605029,
    "website": "https://thecornerdrafthouse.com/?utm_source=Directories&utm_medium=Business-Listings",
    "category": "Bar & Restaurant",
    "types": "restaurant, night_club, bar, food, point_of_interest, establishment"
  },
  {
    "place_id": "ChIJKTnRp6dU2YARvtTio7nhqQE",
    "name": "Stout Public House",
    "street_address": "1125 Sixth Avenue",
    "city": "San Diego",
    "state": "CA",
    "zip_code": "92101",
    "latitude": 32.7171503,
    "longitude": -117.1591097,
    "website": "http://www.stoutsd.com/",
    "category": "Bar & Restaurant",
    "types": "bar, restaurant, food, point_of_interest, establishment"
  },
  {
    "place_id": "ChIJIbQp-61U2YARQYMkelZrQtU",
    "name": "Princess Pub & Grille",
    "street_address": "1665 India Street",
    "city": "San Diego",
    "state": "CA",
    "zip_code": "92101",
    "latitude": 32.72285610000001,
    "longitude": -117.1681556,
    "website": "http://www.princesspub.com",
    "category": "Bar & Restaurant",
    "types": "restaurant, food, bar, point_of_interest, establishment"
  },
  {
    "place_id": "ChIJu6Yz2UxT2YARyZPNr6vIIpI",
    "name": "Nicky Rottens Bar & Burger Joint",
    "street_address": "100 Orange Avenue",
    "city": "Coronado",
    "state": "CA",
    "zip_code": "92118",
    "latitude": 32.698722,
    "longitude": -117.172744,
    "website": "http://www.nickyrottensoncoronado.com/?utm_source=Google-Listing&utm_medium=organic",
    "category": "Bar & Restaurant",
    "types": "bar, restaurant, food, point_of_interest, establishment"
  },
  {
    "place_id": "ChIJq8_kzFlT2YARhTJd6WWo1hc",
    "name": "GARAGE Kitchen + Bar",
    "street_address": "655 Fourth Avenue",
    "city": "San Diego",
    "state": "CA",
    "zip_code": "92101",
    "latitude": 32.7121492,
    "longitude": -117.1609041,
    "website": "http://garagekitchenbar.com/",
    "category": "Bar & Restaurant",
    "types": "bar, restaurant, food, point_of_interest, establishment"
  },
  {
    "place_id": "ChIJV0-LR1hT2YARfiWhwagDDwk",
    "name": "Pizza and Pasta on 5th",
    "street_address": "734 Fifth Avenue",
    "city": "San Diego",
    "state": "CA",
    "zip_code": "92101",
    "latitude": 32.7130352,
    "longitude": -117.1603932,
    "website": "https://pizzaon5th.com/",
    "category": "Bar & Restaurant",
    "types": "meal_delivery, meal_takeaway, bar, restaurant, food, point_of_interest, establishment"
  },
  {
    "place_id": "ChIJQSrweFVT2YARVuGShzmD3SQ",
    "name": "New York West",
    "street_address": "601 Pacific Highway",
    "city": "San Diego",
    "state": "CA",
    "zip_code": "92101",
    "latitude": 32.7117361,
    "longitude": -117.1702674,
    "website": "http://www.newyorkwestbar.com/",
    "category": "Bar & Restaurant",
    "types": "restaurant, bar, point_of_interest, food, establishment"
  },
  {
    "place_id": "ChIJ5VxQXASr3oARCs3Co5t3Mtk",
    "name": "Slater's 50/50",
    "street_address": "2750 Dewey Road",
    "city": "San Diego",
    "state": "CA",
    "zip_code": "92106",
    "latitude": 32.7382572,
    "longitude": -117.2123608,
    "website": "http://www.slaters5050sd.com/",
    "category": "Bar & Restaurant",
    "types": "restaurant, bar, food, point_of_interest, establishment"
  },
  {
    "place_id": "ChIJr-HzDFhT2YAR8Lwfrlu0Jxo",
    "name": "Gaslamp Tavern",
    "street_address": "868 Fifth Avenue",
    "city": "San Diego",
    "state": "CA",
    "zip_code": "92101",
    "latitude": 32.71450139999999,
    "longitude": -117.1603234,
    "website": "http://gaslamptavern.com/",
    "category": "Bar & Restaurant",
    "types": "bar, restaurant, food, point_of_interest, establishment"
  },
  {
    "place_id": "ChIJ3e1oeKdU2YARrwnrOsijzgA",
    "name": "Time Out Sports Tavern",
    "street_address": "634 Broadway",
    "city": "San Diego",
    "state": "CA",
    "zip_code": "92101",
    "latitude": 32.7158392,
    "longitude": -117.1587262,
    "website": "https://timeoutsportstavern.com/",
    "category": "Bar & Restaurant",
    "types": "bar, restaurant, food, point_of_interest, establishment"
  },
  {
    "place_id": "ChIJKRGYF6hU2YARY5LmS6E5R98",
    "name": "Tapas & Beers | French and Spanish Restaurant",
    "street_address": "926 Broadway Circle",
    "city": "San Diego",
    "state": "CA",
    "zip_code": "92101",
    "latitude": 32.7149272,
    "longitude": -117.1630235,
    "website": "https://tapasbeers.com/",
    "category": "Bar & Restaurant",
    "types": "restaurant, food, bar, point_of_interest, establishment"
  },
  {
    "place_id": "ChIJt7u6VLJU2YARO6anbrbiqCw",
    "name": "Waterfront Bar & Grill",
    "street_address": "2044 Kettner Boulevard",
    "city": "San Diego",
    "state": "CA",
    "zip_code": "92101",
    "latitude": 32.7256314,
    "longitude": -117.1702502,
    "website": "http://waterfrontbarandgrill.com/",
    "category": "Bar & Restaurant",
    "types": "bar, restaurant, food, point_of_interest, establishment"
  },
  {
    "place_id": "ChIJN9NqzFlT2YARNbO8FwgBcB0",
    "name": "Werewolf",
    "street_address": "627 Fourth Avenue",
    "city": "San Diego",
    "state": "CA",
    "zip_code": "92101",
    "latitude": 32.71194279999999,
    "longitude": -117.1607806,
    "website": "http://www.thewerewolf.net/",
    "category": "Bar & Restaurant",
    "types": "bar, night_club, restaurant, food, point_of_interest, establishment"
  },
  {
    "place_id": "ChIJnbf1pedV2YARSjP-rUwM2xM",
    "name": "TapRoom Beer Company",
    "street_address": "2000 El Cajon Boulevard",
    "city": "San Diego",
    "state": "CA",
    "zip_code": "92104",
    "latitude": 32.7555168,
    "longitude": -117.1435663,
    "website": "http://www.taproombeerco.com/",
    "category": "Bar & Restaurant",
    "types": "bar, restaurant, food, point_of_interest, establishment"
  },
  {
    "place_id": "ChIJrSxgYsms3oAR78Wms2gKMxg",
    "name": "Danny's Palm Bar & Grill",
    "street_address": "965 Orange Avenue",
    "city": "Coronado",
    "state": "CA",
    "zip_code": "92118",
    "latitude": 32.6861169,
    "longitude": -117.1794398,
    "website": null,
    "category": "Bar & Restaurant",
    "types": "bar, restaurant, food, point_of_interest, establishment"
  },
  {
    "place_id": "ChIJvYt_EMtT2YARZQ3IjJjIJvE",
    "name": "Maggie's Caf\u00e9",
    "street_address": "1129 Newton Avenue",
    "city": "San Diego",
    "state": "CA",
    "zip_code": "92113",
    "latitude": 32.6995183,
    "longitude": -117.1449232,
    "website": "http://maggiescafe-barriologan.com/",
    "category": "Bar & Restaurant",
    "types": "bar, restaurant, food, point_of_interest, establishment"
  },
  {
    "place_id": "ChIJcdlugvZU2YAR45YY8Oli-MI",
    "name": "Encontro North Park",
    "street_address": "3001 University Avenue",
    "city": "San Diego",
    "state": "CA",
    "zip_code": "92104",
    "latitude": 32.7482039,
    "longitude": -117.1299095,
    "website": "http://www.encontronorthpark.com/",
    "category": "Bar & Restaurant",
    "types": "liquor_store, bar, store, restaurant, food, point_of_interest, establishment"
  },
  {
    "place_id": "ChIJeZH6v1lT2YARG_9acWE901c",
    "name": "The Field Irish Pub",
    "street_address": "544 Fifth Avenue",
    "city": "San Diego",
    "state": "CA",
    "zip_code": "92101",
    "latitude": 32.7110639,
    "longitude": -117.1602667,
    "website": "https://thefield.com/",
    "category": "Bar & Restaurant",
    "types": "bar, restaurant, food, point_of_interest, establishment"
  },
  {
    "place_id": "ChIJbWMWb1pT2YARh7_Hxl-2DEg",
    "name": "Wild Hare Bar Garden",
    "street_address": "401 K Street",
    "city": "San Diego",
    "state": "CA",
    "zip_code": "92101",
    "latitude": 32.70774370000001,
    "longitude": -117.160768,
    "website": "https://www.wildharebargarden.com/",
    "category": "Bar & Restaurant",
    "types": "restaurant, bar, food, point_of_interest, establishment"
  },
  {
    "place_id": "ChIJ_9oOB8ys3oARhPNlnKTlfU0",
    "name": "McP's Irish Pub",
    "street_address": "1107 Orange Avenue",
    "city": "Coronado",
    "state": "CA",
    "zip_code": "92118",
    "latitude": 32.684418,
    "longitude": -117.178814,
    "website": "http://mcpspub.com/",
    "category": "Bar & Restaurant",
    "types": "restaurant, food, bar, point_of_interest, establishment"
  },
  {
    "place_id": "ChIJ3eQ0xltT2YARbHz0wRHEttI",
    "name": "Bub's at the Ballpark",
    "street_address": "715 J Street",
    "city": "San Diego",
    "state": "CA",
    "zip_code": "92101",
    "latitude": 32.70950730000001,
    "longitude": -117.1584286,
    "website": "http://bubssandiego.com/",
    "category": "Bar & Restaurant",
    "types": "bar, restaurant, point_of_interest, food, establishment"
  },
  {
    "place_id": "ChIJPTscR1lT2YARTtSm52IolAE",
    "name": "Knotty Barrel",
    "street_address": "844 Market Street",
    "city": "San Diego",
    "state": "CA",
    "zip_code": "92101",
    "latitude": 32.7116635,
    "longitude": -117.156693,
    "website": "https://www.knottybarrel.com/",
    "category": "Bar & Restaurant",
    "types": "bar, restaurant, food, point_of_interest, establishment"
  },
  {
    "place_id": "ChIJdUVLJVhT2YARVUl9IpjYTek",
    "name": "Taste & Thirst",
    "street_address": "715 Fourth Avenue",
    "city": "San Diego",
    "state": "CA",
    "zip_code": "92101",
    "latitude": 32.7128699,
    "longitude": -117.1609345,
    "website": "http://tasteandthirst.com/",
    "category": "Bar & Restaurant",
    "types": "bar, restaurant, food, point_of_interest, establishment"
  },
  {
    "place_id": "ChIJx4oRk1lT2YARLj1XNKOVUu0",
    "name": "Blarney Stone Pub",
    "street_address": "502 Fifth Avenue",
    "city": "San Diego",
    "state": "CA",
    "zip_code": "92101",
    "latitude": 32.7106253,
    "longitude": -117.1602755,
    "website": "http://blarney-stone-pub.poi.place/",
    "category": "Bar & Restaurant",
    "types": "bar, restaurant, point_of_interest, food, establishment"
  },
  {
    "place_id": "ChIJQ7Jheq5U2YAR3F8ua6nXLkg",
    "name": "Queenstown Public House",
    "street_address": "1557 Columbia Street",
    "city": "San Diego",
    "state": "CA",
    "zip_code": "92101",
    "latitude": 32.7217694,
    "longitude": -117.1671811,
    "website": "http://queenstownpublichouse.com/",
    "category": "Bar & Restaurant",
    "types": "bar, restaurant, point_of_interest, food, establishment"
  },
  {
    "place_id": "ChIJAQDkHwOr3oAR6tTqF4dZQeo",
    "name": "Dirty Birds Liberty Station",
    "street_address": "2970 Truxtun Road",
    "city": "San Diego",
    "state": "CA",
    "zip_code": "92106",
    "latitude": 32.7423904,
    "longitude": -117.2103015,
    "website": "http://www.dirtybirdsbarandgrill.com/",
    "category": "Bar & Restaurant",
    "types": "bar, restaurant, food, point_of_interest, establishment"
  },
  {
    "place_id": "ChIJS4xl21lT2YARGYzu2eh80zo",
    "name": "La Puerta",
    "street_address": "560 Fourth Avenue",
    "city": "San Diego",
    "state": "CA",
    "zip_code": "92101",
    "latitude": 32.7112162,
    "longitude": -117.1612498,
    "website": "https://lapuertasd.com/?utm_source=Business-Listings",
    "category": "Bar & Restaurant",
    "types": "night_club, bar, restaurant, food, point_of_interest, establishment"
  },
  {
    "place_id": "ChIJb-2n4vZU2YARfrNQ-IvQ81w",
    "name": "Redwing Bar & Grill",
    "street_address": "4012 30th Street",
    "city": "San Diego",
    "state": "CA",
    "zip_code": "92104",
    "latitude": 32.750652,
    "longitude": -117.1304154,
    "website": "http://www.redwingbar.com/",
    "category": "Bar & Restaurant",
    "types": "bar, restaurant, point_of_interest, food, establishment"
  },
  {
    "place_id": "ChIJcdzo915T2YARhtc7LFoI9GI",
    "name": "619 Spirits North Park",
    "street_address": "3015 Lincoln Avenue",
    "city": "San Diego",
    "state": "CA",
    "zip_code": "92104",
    "latitude": 32.750151,
    "longitude": -117.1297898,
    "website": "https://www.619spirits.com/",
    "category": "Bar & Restaurant",
    "types": "bar, restaurant, food, point_of_interest, establishment"
  },
  {
    "place_id": "ChIJPVO7PlpT2YARnbjgT3GH-OQ",
    "name": "Union Kitchen and Tap Gaslamp",
    "street_address": "333 Fifth Avenue",
    "city": "San Diego",
    "state": "CA",
    "zip_code": "92101",
    "latitude": 32.708728,
    "longitude": -117.159855,
    "website": "https://gaslampunion.com/?y_source=1_NTA0MzE0NTctNzE1LWxvY2F0aW9uLndlYnNpdGU%3D",
    "category": "Restaurant",
    "types": "restaurant, point_of_interest, food, establishment"
  },
  {
    "place_id": "ChIJe45_61VT2YARVbhwTKoZU7w",
    "name": "The Lion's Share",
    "street_address": "629 Kettner Boulevard",
    "city": "San Diego",
    "state": "CA",
    "zip_code": "92101",
    "latitude": 32.7119496,
    "longitude": -117.1689918,
    "website": "http://www.lionssharesd.com/",
    "category": "Bar & Restaurant",
    "types": "night_club, restaurant, food, bar, point_of_interest, establishment"
  },
  {
    "place_id": "ChIJ39AhwltT2YAR0TQjJjCB95I",
    "name": "Fairweather Rooftop Bar",
    "street_address": "793 J Street",
    "city": "San Diego",
    "state": "CA",
    "zip_code": "92101",
    "latitude": 32.7088183,
    "longitude": -117.1575557,
    "website": "http://www.fairweatherbar.com/",
    "category": "Bar & Restaurant",
    "types": "bar, restaurant, food, point_of_interest, establishment"
  },
  {
    "place_id": "ChIJB57vCKhU2YARpuTC6OY5Yoc",
    "name": "Dobson's Bar & Restaurant",
    "street_address": "956 Broadway Circle",
    "city": "San Diego",
    "state": "CA",
    "zip_code": "92101",
    "latitude": 32.7153855,
    "longitude": -117.1630571,
    "website": "http://dobsonsrestaurant.com/",
    "category": "Bar & Restaurant",
    "types": "restaurant, bar, food, point_of_interest, establishment"
  },
  {
    "place_id": "ChIJuZl3vTtT2YARx371gFeNezc",
    "name": "K1 Paddock Lounge - Sports Bar & Restaurant - San Diego, CA",
    "street_address": "1709 Main Street",
    "city": "San Diego",
    "state": "CA",
    "zip_code": "92113",
    "latitude": 32.700659,
    "longitude": -117.1497291,
    "website": "https://www.k1speed.com/paddock-lounge.html?utm_campaign=gbl_pl_san-diego&utm_source=google&utm_medium=directory",
    "category": "Bar & Restaurant",
    "types": "bar, night_club, restaurant, food, point_of_interest, establishment"
  },
  {
    "place_id": "ChIJjwiwPhGr3oARvOAyvJSaq5o",
    "name": "Stone Brewing",
    "street_address": "3225 North Harbor Drive",
    "city": "San Diego",
    "state": "CA",
    "zip_code": "92101",
    "latitude": 32.7323767,
    "longitude": -117.2040152,
    "website": "http://www.stonebrewing.com/visit/outposts/airport",
    "category": "Bar & Restaurant",
    "types": "bar, restaurant, food, point_of_interest, establishment"
  },
  {
    "place_id": "ChIJJ6a0yltT2YARwV64x7M2c7w",
    "name": "The Deck at Moonshine Flats",
    "street_address": "335 Sixth Avenue",
    "city": "San Diego",
    "state": "CA",
    "zip_code": "92101",
    "latitude": 32.7087935,
    "longitude": -117.158905,
    "website": "https://thedecksd.com/",
    "category": "Bar & Restaurant",
    "types": "bar, restaurant, food, point_of_interest, establishment"
  },
  {
    "place_id": "ChIJ0evc4IZU2YARUD_TPOQ1JKE",
    "name": "Station Tavern",
    "street_address": "2204 Fern Street",
    "city": "San Diego",
    "state": "CA",
    "zip_code": "92104",
    "latitude": 32.72877,
    "longitude": -117.129761,
    "website": "http://www.stationtavern.com/",
    "category": "Bar & Restaurant",
    "types": "bar, restaurant, food, point_of_interest, establishment"
  },
  {
    "place_id": "ChIJAdkaD01V2YAR_ZiYDQY8rQY",
    "name": "Lapper Sports Bar + Kitchen",
    "street_address": "500 Hotel Circle North",
    "city": "San Diego",
    "state": "CA",
    "zip_code": "92108",
    "latitude": 32.76362459999999,
    "longitude": -117.1683999,
    "website": "https://www.towncountry.com/dine/lapper",
    "category": "Restaurant",
    "types": "restaurant, food, point_of_interest, establishment"
  },
  {
    "place_id": "ChIJ2yNjaBhV2YARYivRRpI9AS8",
    "name": "Yard House",
    "street_address": "1640 Camino Del Rio North",
    "city": "San Diego",
    "state": "CA",
    "zip_code": "92108",
    "latitude": 32.7679319,
    "longitude": -117.1487525,
    "website": "https://www.yardhouse.com/locations/ca/san-diego/san-diego-mission-valley-mall/8363?cmpid=br:yh_ag:ie_ch:loc_ca:YHGMB_sn:gmb_gt:san-diego-ca-8363_pl:locurl_rd:1059",
    "category": "Bar & Restaurant",
    "types": "meal_takeaway, bar, restaurant, food, point_of_interest, establishment"
  },
  {
    "place_id": "ChIJo31zfVRU2YARLahgXL_5cVI",
    "name": "The Rabbit Hole",
    "street_address": "3377 Adams Avenue",
    "city": "San Diego",
    "state": "CA",
    "zip_code": "92116",
    "latitude": 32.7631057,
    "longitude": -117.1210771,
    "website": "http://rabbitholesd.com/",
    "category": "Bar & Restaurant",
    "types": "restaurant, bar, point_of_interest, food, establishment"
  },
  {
    "place_id": "ChIJESCTgllT2YARFaOieZ8L078",
    "name": "Tivoli Bar and Grill",
    "street_address": "505 Sixth Avenue",
    "city": "San Diego",
    "state": "CA",
    "zip_code": "92101",
    "latitude": 32.71058230000001,
    "longitude": -117.1589682,
    "website": null,
    "category": "Bar & Restaurant",
    "types": "bar, restaurant, food, point_of_interest, establishment"
  },
  {
    "place_id": "ChIJ8fOyiKJT2YARTDXtl46IbN4",
    "name": "Bottle Rocket Bar and Grill",
    "street_address": "805 16th Street",
    "city": "San Diego",
    "state": "CA",
    "zip_code": "92101",
    "latitude": 32.7138573,
    "longitude": -117.1492466,
    "website": "https://bottlerocketsd.com/",
    "category": "Bar & Restaurant",
    "types": "restaurant, bar, food, point_of_interest, establishment"
  },
  {
    "place_id": "ChIJseC-B-Sq3oARL_eJ2InD_oM",
    "name": "Good bar",
    "street_address": "1872 Rosecrans Street",
    "city": "San Diego",
    "state": "CA",
    "zip_code": "92106",
    "latitude": 32.7309325,
    "longitude": -117.2243258,
    "website": "https://www.goodbarsd.com/",
    "category": "Bar & Restaurant",
    "types": "bar, restaurant, point_of_interest, food, establishment"
  },
  {
    "place_id": "ChIJm8ZuyFlT2YARZXfA_KiPbGM",
    "name": "barleymash",
    "street_address": "600 Fifth Avenue",
    "city": "San Diego",
    "state": "CA",
    "zip_code": "92101",
    "latitude": 32.71169699999999,
    "longitude": -117.16042,
    "website": "http://barleymash.com/",
    "category": "Bar & Restaurant",
    "types": "bar, night_club, restaurant, point_of_interest, food, establishment"
  },
  {
    "place_id": "ChIJ-zuhhCRV2YARgtCFZsCQjHk",
    "name": "Swan Bar",
    "street_address": "2933 Adams Avenue",
    "city": "San Diego",
    "state": "CA",
    "zip_code": "92116",
    "latitude": 32.7627368,
    "longitude": -117.1306712,
    "website": null,
    "category": "Bar & Restaurant",
    "types": "bar, restaurant, food, point_of_interest, establishment"
  },
  {
    "place_id": "ChIJR6LsJMys3oARlSLQpjBn1jI",
    "name": "Tavern",
    "street_address": "1310 Orange Avenue",
    "city": "Coronado",
    "state": "CA",
    "zip_code": "92118",
    "latitude": 32.68278029999999,
    "longitude": -117.1788646,
    "website": "http://www.coronadotavern.com/",
    "category": "Bar & Restaurant",
    "types": "bar, restaurant, food, point_of_interest, establishment"
  },
  {
    "place_id": "ChIJDRYZ9rxV2YARnuznD7LZNRU",
    "name": "McGregor's Bar and Grill",
    "street_address": "10475 San Diego Mission Road",
    "city": "San Diego",
    "state": "CA",
    "zip_code": "92108",
    "latitude": 32.7844116,
    "longitude": -117.1110242,
    "website": "http://mcgregorssandiego.com/",
    "category": "Bar & Restaurant",
    "types": "bar, restaurant, food, point_of_interest, establishment"
  },
  {
    "place_id": "ChIJeftZD52q3oARwaDNYoWH5rc",
    "name": "Offshore Tavern & Grill",
    "street_address": "2253 Morena Boulevard",
    "city": "San Diego",
    "state": "CA",
    "zip_code": "92110",
    "latitude": 32.78580099999999,
    "longitude": -117.206147,
    "website": "http://www.offshoretavern.com/",
    "category": "Bar & Restaurant",
    "types": "bar, restaurant, point_of_interest, food, establishment"
  },
  {
    "place_id": "ChIJwcKw3Zqq3oARoGpLw0tH198",
    "name": "The High Dive",
    "street_address": "1801 Morena Boulevard",
    "city": "San Diego",
    "state": "CA",
    "zip_code": "92110",
    "latitude": 32.7791744,
    "longitude": -117.2073135,
    "website": "http://www.highdivesd.com/",
    "category": "Bar & Restaurant",
    "types": "bar, restaurant, food, point_of_interest, establishment"
  },
  {
    "place_id": "ChIJH0DmU5YB3IARZWw9veHj5i4",
    "name": "Bay Hill Tavern",
    "street_address": "3010 Clairemont Drive",
    "city": "San Diego",
    "state": "CA",
    "zip_code": "92117",
    "latitude": 32.79459109999999,
    "longitude": -117.1947025,
    "website": "http://www.bayhilltavernsd.com/",
    "category": "Bar & Restaurant",
    "types": "bar, restaurant, food, point_of_interest, establishment"
  },
  {
    "place_id": "ChIJ59hof52q3oAREgf1beqxf4c",
    "name": "The Pub",
    "street_address": "2415 Morena Boulevard",
    "city": "San Diego",
    "state": "CA",
    "zip_code": "92110",
    "latitude": 32.7876093,
    "longitude": -117.2059335,
    "website": "http://www.thepubinbaypark.com/",
    "category": "Bar & Restaurant",
    "types": "bar, restaurant, point_of_interest, food, establishment"
  },
  {
    "place_id": "ChIJEUA18E1V2YARSc11CskJA1c",
    "name": "Gravity Heights Mission Valley",
    "street_address": "525 Camino De La Reina",
    "city": "San Diego",
    "state": "CA",
    "zip_code": "92108",
    "latitude": 32.76621000000001,
    "longitude": -117.1604749,
    "website": "https://www.gravityheights.com/",
    "category": "Bar & Restaurant",
    "types": "bar, restaurant, food, point_of_interest, establishment"
  },
  {
    "place_id": "ChIJQXjVmZNV2YARdP2gbTa3pU4",
    "name": "Craft House Fashion Valley",
    "street_address": "7007 Friars Road",
    "city": "San Diego",
    "state": "CA",
    "zip_code": "92108",
    "latitude": 32.7674382,
    "longitude": -117.1656466,
    "website": "http://crafthousefashionvalley.com/",
    "category": "Bar & Restaurant",
    "types": "bar, restaurant, point_of_interest, food, establishment"
  },
  {
    "place_id": "ChIJxeGGDiNV2YARe140bHs8KIg",
    "name": "Lazy Dog Restaurant & Bar",
    "street_address": "1202 Camino Del Rio North",
    "city": "San Diego",
    "state": "CA",
    "zip_code": "92108",
    "latitude": 32.76648410000001,
    "longitude": -117.1542527,
    "website": "https://www.lazydogrestaurants.com/locations/san-diego-ca",
    "category": "Bar & Restaurant",
    "types": "bar, restaurant, food, point_of_interest, establishment"
  },
  {
    "place_id": "ChIJGZG5KMBV2YARbZuLP1GDIaI",
    "name": "Camel's Bar and Grill",
    "street_address": "10330 Friars Road",
    "city": "San Diego",
    "state": "CA",
    "zip_code": "92120",
    "latitude": 32.7914634,
    "longitude": -117.100748,
    "website": "http://www.camelsbarandgrill.com/",
    "category": "Bar & Restaurant",
    "types": "bar, restaurant, food, point_of_interest, establishment"
  },
  {
    "place_id": "ChIJ8bBJ6jtV2YARBCTmybdJQOs",
    "name": "BJ's Restaurant & Brewhouse",
    "street_address": "1370 Frazee Road",
    "city": "San Diego",
    "state": "CA",
    "zip_code": "92108",
    "latitude": 32.7720153,
    "longitude": -117.1572193,
    "website": "https://www.bjsrestaurants.com/locations/ca/mission-valley?utm_source=google&utm_medium=organic&utm_campaign=google_my_business",
    "category": "Bar & Restaurant",
    "types": "restaurant, bar, food, point_of_interest, establishment"
  },
  {
    "place_id": "ChIJx1eaDyRV2YAR7J-tVFwoYcI",
    "name": "Polanco Kitchen & Bar",
    "street_address": "901 Camino del Rio South",
    "city": "San Diego",
    "state": "CA",
    "zip_code": "92108",
    "latitude": 32.7635546,
    "longitude": -117.1564934,
    "website": null,
    "category": "Bar & Restaurant",
    "types": "bar, restaurant, food, point_of_interest, establishment"
  },
  {
    "place_id": "ChIJP46t5t9V2YARHDZ-H773BlY",
    "name": "Hidden Craft SD",
    "street_address": "600 West Broadway",
    "city": "San Diego",
    "state": "CA",
    "zip_code": "92101",
    "latitude": 32.7165763,
    "longitude": -117.1686273,
    "website": "https://www.hiddencraftsd.com/",
    "category": "Bar & Restaurant",
    "types": "restaurant, bar, point_of_interest, food, establishment"
  },
  {
    "place_id": "ChIJD7CBJFpV2YARscABl6D5O-Y",
    "name": "La Puerta",
    "street_address": "4020 Goldfinch Street",
    "city": "San Diego",
    "state": "CA",
    "zip_code": "92103",
    "latitude": 32.7503533,
    "longitude": -117.1716514,
    "website": "https://lapuertasd.com/?utm_source=Business-Listings",
    "category": "Bar & Restaurant",
    "types": "restaurant, night_club, bar, food, point_of_interest, establishment"
  },
  {
    "place_id": "ChIJW_57LUlT2YARRRwiZU7ZX7A",
    "name": "The Invigatorium",
    "street_address": "631 Ninth Avenue",
    "city": "San Diego",
    "state": "CA",
    "zip_code": "92101",
    "latitude": 32.71185789999999,
    "longitude": -117.1563494,
    "website": "http://theinvigatorium.com/",
    "category": "Bar & Restaurant",
    "types": "bar, cafe, liquor_store, store, restaurant, food, point_of_interest, establishment"
  },
  {
    "place_id": "ChIJ8WBExgRV2YARxAwOZVBhAJg",
    "name": "Clem\u2019s Station",
    "street_address": "4715 Monroe Avenue",
    "city": "San Diego",
    "state": "CA",
    "zip_code": "92115",
    "latitude": 32.7587555,
    "longitude": -117.0926112,
    "website": "http://clemsstation.com/",
    "category": "Bar & Restaurant",
    "types": "restaurant, food, bar, point_of_interest, establishment"
  },
  {
    "place_id": "ChIJfVmcEvZU2YARAN4vjY7_21c",
    "name": "El Comal North Park",
    "street_address": "3946 Illinois Street",
    "city": "San Diego",
    "state": "CA",
    "zip_code": "92104",
    "latitude": 32.74935269999999,
    "longitude": -117.1279433,
    "website": "https://elcomalsd.com/?utm_source=google",
    "category": "Bar & Restaurant",
    "types": "restaurant, bar, food, point_of_interest, establishment"
  },
  {
    "place_id": "ChIJJebIcvdU2YARQKG2_HNYRkc",
    "name": "Working Class",
    "street_address": "4095 30th Street",
    "city": "San Diego",
    "state": "CA",
    "zip_code": "92104",
    "latitude": 32.752063,
    "longitude": -117.1299853,
    "website": "http://www.workingclasssd.com/",
    "category": "Bar & Restaurant",
    "types": "restaurant, bar, food, point_of_interest, establishment"
  },
  {
    "place_id": "ChIJ7cKXb9NV2YAR3bPizYOtDj8",
    "name": "The Friendly Tavern",
    "street_address": "2632 University Avenue",
    "city": "San Diego",
    "state": "CA",
    "zip_code": "92104",
    "latitude": 32.748657,
    "longitude": -117.135492,
    "website": null,
    "category": "Restaurant",
    "types": "restaurant, food, point_of_interest, establishment"
  },
  {
    "place_id": "ChIJuWZ1dwJV2YARX7vmcGCNYH4",
    "name": "Cafe 21",
    "street_address": "2736 Adams Avenue",
    "city": "San Diego",
    "state": "CA",
    "zip_code": "92116",
    "latitude": 32.76321429999999,
    "longitude": -117.1343092,
    "website": null,
    "category": "Bar & Restaurant",
    "types": "bar, restaurant, food, point_of_interest, establishment"
  },
  {
    "place_id": "ChIJ91u3YjFV2YAR8ym9DRkVmH8",
    "name": "Tommy Bahama Marlin Bar & Store",
    "street_address": "7007 Friars Road",
    "city": "San Diego",
    "state": "CA",
    "zip_code": "92108",
    "latitude": 32.76780190000001,
    "longitude": -117.1670366,
    "website": "https://www.tommybahama.com/restaurants-and-marlin-bars/locations/san-diego",
    "category": "Bar & Restaurant",
    "types": "bar, clothing_store, store, restaurant, food, point_of_interest, establishment"
  },
  {
    "place_id": "ChIJoRxM2KKr3oAR0EiM0MRIQIo",
    "name": "Harbor Town Pub",
    "street_address": "1125 Rosecrans Street",
    "city": "San Diego",
    "state": "CA",
    "zip_code": "92106",
    "latitude": 32.7215747,
    "longitude": -117.2313491,
    "website": "https://www.harbortownpub.com/",
    "category": "Bar & Restaurant",
    "types": "bar, restaurant, food, point_of_interest, establishment"
  },
  {
    "place_id": "ChIJHzw_zziq3oARttxjub7R1NU",
    "name": "The Tilted Stick Bar & Grill",
    "street_address": "4970 Voltaire Street",
    "city": "San Diego",
    "state": "CA",
    "zip_code": "92107",
    "latitude": 32.75184699999999,
    "longitude": -117.245948,
    "website": "http://tiltedstick.online/",
    "category": "Bar & Restaurant",
    "types": "bar, restaurant, point_of_interest, food, establishment"
  },
  {
    "place_id": "ChIJObiBqjCq3oARW5hG_cwsurI",
    "name": "The Harp",
    "street_address": "4935 Newport Avenue",
    "city": "San Diego",
    "state": "CA",
    "zip_code": "92107",
    "latitude": 32.74612729999999,
    "longitude": -117.2500811,
    "website": "http://theharpoceanbeach.com/",
    "category": "Bar & Restaurant",
    "types": "bar, restaurant, food, point_of_interest, establishment"
  },
  {
    "place_id": "ChIJ6w70LT-q3oARLU9KxrXmCq4",
    "name": "Northside Tavern",
    "street_address": "2228 Bacon Street",
    "city": "San Diego",
    "state": "CA",
    "zip_code": "92107",
    "latitude": 32.7525858,
    "longitude": -117.2463812,
    "website": "https://northsidetavernob.com/",
    "category": "Bar & Restaurant",
    "types": "bar, restaurant, food, point_of_interest, establishment"
  },
  {
    "place_id": "ChIJUTQoszuq3oAR3BfEjlCJesc",
    "name": "Wonderland Ocean Pub",
    "street_address": "5083 Santa Monica Avenue",
    "city": "San Diego",
    "state": "CA",
    "zip_code": "92107",
    "latitude": 32.7483812,
    "longitude": -117.2519238,
    "website": "http://wonderlandob.com/",
    "category": "Bar & Restaurant",
    "types": "bar, restaurant, point_of_interest, food, establishment"
  },
  {
    "place_id": "ChIJk_JWf_IB3IARZKRI62A5xJc",
    "name": "PB Shore Club",
    "street_address": "4343 Ocean Boulevard",
    "city": "San Diego",
    "state": "CA",
    "zip_code": "92109",
    "latitude": 32.7942171,
    "longitude": -117.2558081,
    "website": "https://www.pbshoreclub.com/",
    "category": "Bar & Restaurant",
    "types": "bar, restaurant, food, point_of_interest, establishment"
  },
  {
    "place_id": "ChIJY7v6Lgmq3oARP_4p_7wYXyw",
    "name": "Sandbar Sports Grill",
    "street_address": "718 Ventura Place",
    "city": "San Diego",
    "state": "CA",
    "zip_code": "92109",
    "latitude": 32.7722073,
    "longitude": -117.252482,
    "website": "http://www.sandbarsportsgrill.com/",
    "category": "Bar & Restaurant",
    "types": "bar, restaurant, point_of_interest, food, establishment"
  },
  {
    "place_id": "ChIJq0x9g-0B3IARzcpjOu0CRaw",
    "name": "Pacific Beach AleHouse",
    "street_address": "721 Grand Avenue",
    "city": "San Diego",
    "state": "CA",
    "zip_code": "92109",
    "latitude": 32.79435040000001,
    "longitude": -117.255392,
    "website": "https://pbalehouse.com/",
    "category": "Restaurant",
    "types": "restaurant, food, point_of_interest, establishment"
  },
  {
    "place_id": "ChIJ_3X1Wjqq3oAR-pv1hxYw-f4",
    "name": "South Beach Bar & Grille",
    "street_address": "5059 Newport Avenue",
    "city": "San Diego",
    "state": "CA",
    "zip_code": "92107",
    "latitude": 32.747443,
    "longitude": -117.252339,
    "website": "https://southbeachob.com/",
    "category": "Bar & Restaurant",
    "types": "restaurant, bar, food, point_of_interest, establishment"
  },
  {
    "place_id": "ChIJlc1XmZ6r3oARZLe-0DYJMPA",
    "name": "Bay Club Bar & Grill",
    "street_address": "2131 Shelter Island Drive",
    "city": "San Diego",
    "state": "CA",
    "zip_code": "92106",
    "latitude": 32.7157098,
    "longitude": -117.224613,
    "website": "https://www.bayclubhotel.com/bayclubbarandgrill",
    "category": "Bar & Restaurant",
    "types": "night_club, bar, restaurant, food, point_of_interest, establishment"
  },
  {
    "place_id": "ChIJ3036JaGr3oARHyCVfIz70W8",
    "name": "Jimmy's Famous American Tavern",
    "street_address": "4990 North Harbor Drive",
    "city": "San Diego",
    "state": "CA",
    "zip_code": "92106",
    "latitude": 32.7250863,
    "longitude": -117.2243302,
    "website": "http://www.jfamous.com/",
    "category": "Bar & Restaurant",
    "types": "bar, restaurant, point_of_interest, food, establishment"
  },
  {
    "place_id": "ChIJuf9idDqq3oARWTngLYANpKs",
    "name": "Raglan Public House",
    "street_address": "1851 Bacon Street",
    "city": "San Diego",
    "state": "CA",
    "zip_code": "92107",
    "latitude": 32.7460805,
    "longitude": -117.2515635,
    "website": "http://www.raglanpublichouse.com/",
    "category": "Restaurant",
    "types": "restaurant, food, point_of_interest, establishment"
  },
  {
    "place_id": "ChIJ3TlWjJur3oARckq8K8jA_HQ",
    "name": "Blue Wave Bar & Grill",
    "street_address": "2051 Shelter Island Drive",
    "city": "San Diego",
    "state": "CA",
    "zip_code": "92106",
    "latitude": 32.713568,
    "longitude": -117.2273582,
    "website": "https://www.islandpalms.com/dining",
    "category": "Bar & Restaurant",
    "types": "bar, restaurant, food, point_of_interest, establishment"
  },
  {
    "place_id": "ChIJmXS2u7ar3oARVd-01I7eWVM",
    "name": "Dirty Birds Ocean Beach",
    "street_address": "1929 Cable Street",
    "city": "San Diego",
    "state": "CA",
    "zip_code": "92107",
    "latitude": 32.7462278,
    "longitude": -117.2485301,
    "website": "http://www.dirtybirdsbarandgrill.com/",
    "category": "Bar & Restaurant",
    "types": "restaurant, bar, food, point_of_interest, establishment"
  },
  {
    "place_id": "ChIJZSw8v-0B3IAReWBsyvM7SS8",
    "name": "The Local Pacific Beach",
    "street_address": "809 Thomas Avenue",
    "city": "San Diego",
    "state": "CA",
    "zip_code": "92109",
    "latitude": 32.7936545,
    "longitude": -117.2539479,
    "website": "http://thelocalpb.com/",
    "category": "Bar & Restaurant",
    "types": "bar, restaurant, point_of_interest, food, establishment"
  },
  {
    "place_id": "ChIJAaBwhKer3oARdw4bzhISulI",
    "name": "Aquarius Bar & Grille",
    "street_address": "1548 Quivira Way",
    "city": "San Diego",
    "state": "CA",
    "zip_code": "92109",
    "latitude": 32.7590635,
    "longitude": -117.2389316,
    "website": "http://aquariusbargrille.com/",
    "category": "Bar & Restaurant",
    "types": "bar, restaurant, food, point_of_interest, establishment"
  },
  {
    "place_id": "ChIJvYlA6xGq3oARa82WUGglQAc",
    "name": "The Pennant",
    "street_address": "2893 Mission Boulevard",
    "city": "San Diego",
    "state": "CA",
    "zip_code": "92109",
    "latitude": 32.76557379999999,
    "longitude": -117.2510962,
    "website": "https://www.thepennantbar.com/",
    "category": "Bar & Restaurant",
    "types": "restaurant, food, bar, point_of_interest, establishment"
  },
  {
    "place_id": "ChIJ34oQNj-q3oARxwYJoxln0og",
    "name": "The 3rd Corner Wine Shop & Bistro",
    "street_address": "2265 Bacon Street",
    "city": "San Diego",
    "state": "CA",
    "zip_code": "92107",
    "latitude": 32.752819,
    "longitude": -117.2457258,
    "website": "http://www.the3rdcorner.com/",
    "category": "Bar & Restaurant",
    "types": "restaurant, liquor_store, bar, store, food, point_of_interest, establishment"
  },
  {
    "place_id": "ChIJt3_q4w6q3oARtPIszTml4Co",
    "name": "Draft South Mission",
    "street_address": "3105 Ocean Front Walk",
    "city": "San Diego",
    "state": "CA",
    "zip_code": "92109",
    "latitude": 32.76990600000001,
    "longitude": -117.2526539,
    "website": "https://www.belmontpark.com/restaurants-san-diego-ca/draft-belmont-park",
    "category": "Bar & Restaurant",
    "types": "restaurant, bar, food, point_of_interest, establishment"
  },
  {
    "place_id": "ChIJTyonfeQB3IARlUMWWhfHLC0",
    "name": "Miss B's Coconut Club",
    "street_address": "3704 Mission Boulevard",
    "city": "San Diego",
    "state": "CA",
    "zip_code": "92109",
    "latitude": 32.7826467,
    "longitude": -117.2527368,
    "website": "https://www.missbcoconutclub.com/",
    "category": "Bar & Restaurant",
    "types": "bar, restaurant, food, point_of_interest, establishment"
  },
  {
    "place_id": "ChIJI5hcHuKq3oARmakwefs7En8",
    "name": "Paradise Lounge & Grill - San Diego's Best Sports Bar",
    "street_address": "2732 Midway Drive",
    "city": "San Diego",
    "state": "CA",
    "zip_code": "92110",
    "latitude": 32.74808119999999,
    "longitude": -117.2026824,
    "website": "https://paradiseloungesd.com/",
    "category": "Bar & Restaurant",
    "types": "night_club, bar, restaurant, point_of_interest, food, establishment"
  },
  {
    "place_id": "ChIJE6863Imr3oAR7jY3O2WcDcA",
    "name": "Ketch Grill and Taps",
    "street_address": "2614 Shelter Island Drive",
    "city": "San Diego",
    "state": "CA",
    "zip_code": "92106",
    "latitude": 32.7207649,
    "longitude": -117.2274414,
    "website": "http://www.ketchgrillandtaps.com/",
    "category": "Restaurant",
    "types": "restaurant, point_of_interest, food, establishment"
  },
  {
    "place_id": "ChIJgfWAIjqq3oARiKdesEDrw30",
    "name": "Arizona Cafe",
    "street_address": "1925 Bacon Street",
    "city": "San Diego",
    "state": "CA",
    "zip_code": "92107",
    "latitude": 32.7472811,
    "longitude": -117.2505376,
    "website": "http://www.theazcafeob.com/",
    "category": "Bar & Restaurant",
    "types": "restaurant, food, bar, point_of_interest, establishment"
  },
  {
    "place_id": "ChIJfUz8YuQB3IARaOQxxRvBcjY",
    "name": "Guava Beach Bar & Grill",
    "street_address": "3714 Mission Boulevard",
    "city": "San Diego",
    "state": "CA",
    "zip_code": "92109",
    "latitude": 32.782904,
    "longitude": -117.2526836,
    "website": "https://guava-beach.com/",
    "category": "Bar & Restaurant",
    "types": "bar, restaurant, food, point_of_interest, establishment"
  },
  {
    "place_id": "ChIJCZxnBnSq3oAR3GxfjhAtvM8",
    "name": "Barefoot Bar & Grill",
    "street_address": "1404 Vacation Road",
    "city": "San Diego",
    "state": "CA",
    "zip_code": "92109",
    "latitude": 32.7741636,
    "longitude": -117.2405094,
    "website": "https://paradisepoint.com/san-diego-dining/mission-bay-restaurant-barefoot-bar-grill/",
    "category": "Bar & Restaurant",
    "types": "bar, restaurant, food, point_of_interest, establishment"
  },
  {
    "place_id": "ChIJ1WF0Qzqq3oARTwB0dK8YZLU",
    "name": "Ocean Beach Brewery",
    "street_address": "5041 Newport Avenue",
    "city": "San Diego",
    "state": "CA",
    "zip_code": "92107",
    "latitude": 32.7472516,
    "longitude": -117.2519524,
    "website": "http://www.obbrewingco.com/",
    "category": "Bar & Restaurant",
    "types": "bar, restaurant, food, point_of_interest, establishment"
  },
  {
    "place_id": "ChIJAxubADqq3oARI0A0X4t-Jl4",
    "name": "Old Townhouse Restaurant",
    "street_address": "4941 Newport Avenue",
    "city": "San Diego",
    "state": "CA",
    "zip_code": "92107",
    "latitude": 32.7461019,
    "longitude": -117.2502695,
    "website": "http://www.oldtownhouserestaurant.com/",
    "category": "Restaurant",
    "types": "restaurant, food, point_of_interest, establishment"
  },
  {
    "place_id": "ChIJObGtZp6r3oARlHUOmyttwkE",
    "name": "Humphreys SoCal Dining & Music",
    "street_address": "2241 Shelter Island Drive",
    "city": "San Diego",
    "state": "CA",
    "zip_code": "92106",
    "latitude": 32.7162658,
    "longitude": -117.2242818,
    "website": "http://www.humphreysrestaurant.com/",
    "category": "Restaurant",
    "types": "restaurant, point_of_interest, food, establishment"
  },
  {
    "place_id": "ChIJdfYfp3oA3IARyQ1wbbQzNeU",
    "name": "Balboa's Tap House",
    "street_address": "4421 Genesee Avenue",
    "city": "San Diego",
    "state": "CA",
    "zip_code": "92117",
    "latitude": 32.82412109999999,
    "longitude": -117.1833534,
    "website": "http://www.balboastaphouse.com/",
    "category": "Bar & Restaurant",
    "types": "bar, restaurant, point_of_interest, food, establishment"
  },
  {
    "place_id": "ChIJ_1-12YUB3IARAcShU0UJi1c",
    "name": "West End PB",
    "street_address": "5157 La Jolla Boulevard",
    "city": "San Diego",
    "state": "CA",
    "zip_code": "92109",
    "latitude": 32.808003,
    "longitude": -117.26131,
    "website": "http://www.westendpb.com/",
    "category": "Bar & Restaurant",
    "types": "bar, restaurant, food, point_of_interest, establishment"
  },
  {
    "place_id": "ChIJJ6Ac6uQD3IARfDRWb1SjhDk",
    "name": "Public House La Jolla",
    "street_address": "830 Kline Street",
    "city": "San Diego",
    "state": "CA",
    "zip_code": "92037",
    "latitude": 32.8433009,
    "longitude": -117.275295,
    "website": "http://www.the-publichouse.com/",
    "category": "Bar & Restaurant",
    "types": "bar, restaurant, food, point_of_interest, establishment"
  },
  {
    "place_id": "ChIJl0FC_twD3IAR_9tjO5OOBOk",
    "name": "Nautilus Tavern",
    "street_address": "6830 La Jolla Boulevard",
    "city": "San Diego",
    "state": "CA",
    "zip_code": "92037",
    "latitude": 32.83125009999999,
    "longitude": -117.2766876,
    "website": "https://www.nautilustavern.com/",
    "category": "Bar & Restaurant",
    "types": "bar, restaurant, food, point_of_interest, establishment"
  },
  {
    "place_id": "ChIJPx_62eoB3IARc63X_e8tXGA",
    "name": "SD TapRoom",
    "street_address": "1269 Garnet Avenue",
    "city": "San Diego",
    "state": "CA",
    "zip_code": "92109",
    "latitude": 32.7983033,
    "longitude": -117.2466471,
    "website": "https://sdtaproom.com/?utm_source=listings",
    "category": "Bar & Restaurant",
    "types": "meal_delivery, meal_takeaway, bar, restaurant, food, point_of_interest, establishment"
  },
  {
    "place_id": "ChIJ5WOTZI0B3IAR0p5ZVXPIcl4",
    "name": "Dirty Birds Pacific Beach",
    "street_address": "4656 Mission Boulevard",
    "city": "San Diego",
    "state": "CA",
    "zip_code": "92109",
    "latitude": 32.79870560000001,
    "longitude": -117.2563861,
    "website": "https://www.dirtybirdsbarandgrill.com/",
    "category": "Bar & Restaurant",
    "types": "bar, restaurant, food, point_of_interest, establishment"
  },
  {
    "place_id": "ChIJV54QJZMB3IARYYewxjIR2xM",
    "name": "Cass Street Bar & Grill",
    "street_address": "4612 Cass Street",
    "city": "San Diego",
    "state": "CA",
    "zip_code": "92109",
    "latitude": 32.7986097,
    "longitude": -117.252376,
    "website": "https://www.cassstbar.com/",
    "category": "Bar & Restaurant",
    "types": "bar, restaurant, food, point_of_interest, establishment"
  },
  {
    "place_id": "ChIJMTiev-cB3IARb1eEROeTZ5E",
    "name": "Flamingo Deck",
    "street_address": "4110 Mission Boulevard",
    "city": "San Diego",
    "state": "CA",
    "zip_code": "92109",
    "latitude": 32.7911602,
    "longitude": -117.2540737,
    "website": "http://flamingodeck.com/",
    "category": "Bar & Restaurant",
    "types": "bar, restaurant, food, point_of_interest, establishment"
  },
  {
    "place_id": "ChIJva6YZo0B3IARuNIpZToyvkw",
    "name": "The Duck Dive",
    "street_address": "4650 Mission Boulevard",
    "city": "San Diego",
    "state": "CA",
    "zip_code": "92109",
    "latitude": 32.7985453,
    "longitude": -117.2563273,
    "website": "http://www.theduckdive.com/",
    "category": "Bar & Restaurant",
    "types": "bar, restaurant, point_of_interest, food, establishment"
  },
  {
    "place_id": "ChIJ1cKBdN0D3IAR5OyT0Xn0LHM",
    "name": "The Shack Bar & Grill",
    "street_address": "6941 La Jolla Boulevard",
    "city": "San Diego",
    "state": "CA",
    "zip_code": "92037",
    "latitude": 32.832664,
    "longitude": -117.276622,
    "website": "http://www.theshackbarandgrill.co/",
    "category": "Bar & Restaurant",
    "types": "restaurant, food, bar, point_of_interest, establishment"
  },
  {
    "place_id": "ChIJwaFQsPwD3IARhYDIRvLRDRQ",
    "name": "Hennessey's Tavern",
    "street_address": "7811 Herschel Avenue",
    "city": "San Diego",
    "state": "CA",
    "zip_code": "92037",
    "latitude": 32.8457543,
    "longitude": -117.2727564,
    "website": "http://hennesseystavern.com/",
    "category": "Bar & Restaurant",
    "types": "bar, restaurant, food, point_of_interest, establishment"
  },
  {
    "place_id": "ChIJ5fG-O1EB3IARZ16TYKzujeg",
    "name": "The Hideout Bar & Grill",
    "street_address": "1014 Grand Avenue",
    "city": "San Diego",
    "state": "CA",
    "zip_code": "92109",
    "latitude": 32.7959117,
    "longitude": -117.2510279,
    "website": null,
    "category": "Bar & Restaurant",
    "types": "bar, restaurant, food, point_of_interest, establishment"
  },
  {
    "place_id": "ChIJsb-4d_sD3IAR1kFXA00lj0w",
    "name": "The Spot La Jolla",
    "street_address": "1005 Prospect Street",
    "city": "San Diego",
    "state": "CA",
    "zip_code": "92037",
    "latitude": 32.84748629999999,
    "longitude": -117.2744503,
    "website": "http://www.thespotonline.com/",
    "category": "Bar & Restaurant",
    "types": "bar, restaurant, point_of_interest, food, establishment"
  },
  {
    "place_id": "ChIJY2Zo1T8B3IARqO1arjvhXoY",
    "name": "Riptides PB",
    "street_address": "1014 Grand Avenue",
    "city": "San Diego",
    "state": "CA",
    "zip_code": "92109",
    "latitude": 32.7959117,
    "longitude": -117.2510279,
    "website": "http://www.riptidespb.com/",
    "category": "Restaurant",
    "types": "restaurant, food, point_of_interest, establishment"
  },
  {
    "place_id": "ChIJL0o_erUD3IARkQnO9a8MQVI",
    "name": "Birdseye Rooftop Restaurant and Bar",
    "street_address": "1110 Prospect Street",
    "city": "San Diego",
    "state": "CA",
    "zip_code": "92037",
    "latitude": 32.8482469,
    "longitude": -117.2740183,
    "website": "https://birdseyerooftop.com/",
    "category": "Bar & Restaurant",
    "types": "restaurant, bar, food, point_of_interest, establishment"
  },
  {
    "place_id": "ChIJg01RN-sB3IARpeWBVdpFhzU",
    "name": "Tavern at the Beach",
    "street_address": "1200 Garnet Avenue",
    "city": "San Diego",
    "state": "CA",
    "zip_code": "92109",
    "latitude": 32.7984835,
    "longitude": -117.2480883,
    "website": "http://tavernatthebeach.com/",
    "category": "Bar & Restaurant",
    "types": "bar, restaurant, point_of_interest, food, establishment"
  },
  {
    "place_id": "ChIJfx1bHwAB3IAR3w3Q_JWpimY",
    "name": "Hideaway Pacific Beach",
    "street_address": "4474 Mission Boulevard",
    "city": "San Diego",
    "state": "CA",
    "zip_code": "92109",
    "latitude": 32.79619350000001,
    "longitude": -117.2555461,
    "website": "http://www.hideawaypb.com/",
    "category": "Bar & Restaurant",
    "types": "night_club, bar, restaurant, point_of_interest, food, establishment"
  },
  {
    "place_id": "ChIJMXy5YI0B3IARoZrH9nBojr4",
    "name": "Bare Back Grill",
    "street_address": "4640 Mission Boulevard",
    "city": "San Diego",
    "state": "CA",
    "zip_code": "92109",
    "latitude": 32.79826990000001,
    "longitude": -117.2562329,
    "website": "http://www.barebackgrill.com/",
    "category": "Bar & Restaurant",
    "types": "restaurant, bar, food, point_of_interest, establishment"
  },
  {
    "place_id": "ChIJP1w0etsB3IARvUE62j2Bumo",
    "name": "Rocky's Crown Pub",
    "street_address": "3786 Ingraham Street",
    "city": "San Diego",
    "state": "CA",
    "zip_code": "92109",
    "latitude": 32.7886029,
    "longitude": -117.2376316,
    "website": "http://www.rockyburgers.com/",
    "category": "Bar & Restaurant",
    "types": "bar, restaurant, point_of_interest, food, establishment"
  },
  {
    "place_id": "ChIJr8ZlrvIB3IAREt5IxFpvFJk",
    "name": "710 Beach Club",
    "street_address": "710 Garnet Avenue",
    "city": "San Diego",
    "state": "CA",
    "zip_code": "92109",
    "latitude": 32.7965224,
    "longitude": -117.2564935,
    "website": "https://www.710bc.com/",
    "category": "Bar & Restaurant",
    "types": "night_club, bar, restaurant, food, point_of_interest, establishment"
  },
  {
    "place_id": "ChIJvUYVBu4B3IARbK0hTJbbSL0",
    "name": "Lahaina Beach House",
    "street_address": "710 Oliver Court",
    "city": "San Diego",
    "state": "CA",
    "zip_code": "92109",
    "latitude": 32.7917494,
    "longitude": -117.2551411,
    "website": "https://lahainabeachhouse.shop/",
    "category": "Bar & Restaurant",
    "types": "bar, restaurant, food, point_of_interest, establishment"
  },
  {
    "place_id": "ChIJtyi8aJuq3oARczfCenTNrJk",
    "name": "Luce Bar & Kitchen",
    "street_address": "1959 Morena Boulevard",
    "city": "San Diego",
    "state": "CA",
    "zip_code": "92110",
    "latitude": 32.78154629999999,
    "longitude": -117.2069562,
    "website": "http://www.sandiegoluce.com/#menu",
    "category": "Bar & Restaurant",
    "types": "bar, restaurant, food, point_of_interest, establishment"
  },
  {
    "place_id": "ChIJp-c7-VEB3IARJfXEXybYw7E",
    "name": "Shore Rider Bar",
    "street_address": "2168 Avenida De La Playa",
    "city": "San Diego",
    "state": "CA",
    "zip_code": "92037",
    "latitude": 32.85412,
    "longitude": -117.256373,
    "website": "http://www.shoreridersd.com/",
    "category": "Bar & Restaurant",
    "types": "restaurant, bar, food, point_of_interest, establishment"
  },
  {
    "place_id": "ChIJX5Ni8_sD3IARZLv5Sk-Pjvo",
    "name": "The Whaling Bar",
    "street_address": "1132 Prospect Street",
    "city": "San Diego",
    "state": "CA",
    "zip_code": "92037",
    "latitude": 32.8485632,
    "longitude": -117.2734965,
    "website": "https://www.lavalencia.com/dining/the-whaling-bar",
    "category": "Bar & Restaurant",
    "types": "restaurant, bar, food, point_of_interest, establishment"
  },
  {
    "place_id": "ChIJ69eyrtIG3IARa7yJ-BqAuRo",
    "name": "The Pizza Taproom",
    "street_address": "8657 Villa La Jolla Drive",
    "city": "San Diego",
    "state": "CA",
    "zip_code": "92037",
    "latitude": 32.8652656,
    "longitude": -117.231528,
    "website": "http://thepizzataproom.com/",
    "category": "Bar & Restaurant",
    "types": "restaurant, bar, food, store, point_of_interest, establishment"
  },
  {
    "place_id": "ChIJRSGAkyoD3IARLmfa0mQnJqc",
    "name": "Cove House",
    "street_address": "8030 Girard Avenue",
    "city": "San Diego",
    "state": "CA",
    "zip_code": "92037",
    "latitude": 32.84841639999999,
    "longitude": -117.2745171,
    "website": "https://www.covehouselajolla.com/",
    "category": "Bar & Restaurant",
    "types": "restaurant, bar, food, point_of_interest, establishment"
  },
  {
    "place_id": "ChIJ7SIZEtQG3IAR2zdC0Xlb820",
    "name": "Drift La Jolla",
    "street_address": "3777 La Jolla Village Drive",
    "city": "San Diego",
    "state": "CA",
    "zip_code": "92122",
    "latitude": 32.87077109999999,
    "longitude": -117.2250213,
    "website": "https://www.driftlajolla.com/",
    "category": "Bar & Restaurant",
    "types": "night_club, bar, restaurant, food, point_of_interest, establishment"
  },
  {
    "place_id": "ChIJrWCrfPsD3IARx6s6wJKtyBQ",
    "name": "Puesto La Jolla",
    "street_address": "1026 Wall Street",
    "city": "San Diego",
    "state": "CA",
    "zip_code": "92037",
    "latitude": 32.8469862,
    "longitude": -117.2738346,
    "website": "https://www.eatpuesto.com/",
    "category": "Restaurant",
    "types": "restaurant, food, point_of_interest, establishment"
  },
  {
    "place_id": "ChIJYSQEv08B3IAR-y_2_Nr2wNM",
    "name": "Sea & Sky",
    "street_address": "7955 La Jolla Shores Drive",
    "city": "San Diego",
    "state": "CA",
    "zip_code": "92037",
    "latitude": 32.8511949,
    "longitude": -117.253239,
    "website": "https://seaandskylajolla.com/",
    "category": "Bar & Restaurant",
    "types": "bar, restaurant, food, point_of_interest, establishment"
  },
  {
    "place_id": "ChIJPyL9_i4B3IAR8uh3LjvZSAE",
    "name": "Campland Cantina",
    "street_address": "2211 Pacific Beach Drive",
    "city": "San Diego",
    "state": "CA",
    "zip_code": "92109",
    "latitude": 32.7956635,
    "longitude": -117.2237691,
    "website": "https://www.campland.com/restaurant/",
    "category": "Restaurant",
    "types": "restaurant, food, point_of_interest, establishment"
  },
  {
    "place_id": "ChIJfwwSfO0B3IAR8Z8WPUfbjKE",
    "name": "Firehouse American Eatery & Lounge",
    "street_address": "722 Grand Avenue",
    "city": "San Diego",
    "state": "CA",
    "zip_code": "92109",
    "latitude": 32.79480240000001,
    "longitude": -117.2555237,
    "website": "http://www.firehousepb.com/",
    "category": "Bar & Restaurant",
    "types": "night_club, restaurant, food, bar, point_of_interest, establishment"
  },
  {
    "place_id": "ChIJH9lZSvwD3IAR8UFJhfhSZC4",
    "name": "Goldfish Point Cafe",
    "street_address": "1255 Coast Boulevard",
    "city": "San Diego",
    "state": "CA",
    "zip_code": "92037",
    "latitude": 32.8494919,
    "longitude": -117.2707746,
    "website": "https://www.goldfishpoint.com/",
    "category": "Bar & Restaurant",
    "types": "bar, cafe, store, restaurant, food, point_of_interest, establishment"
  },
  {
    "place_id": "ChIJte1vd9sB3IARNZ9tFkm0QYE",
    "name": "Bayside Landing",
    "street_address": "3780 Ingraham Street",
    "city": "San Diego",
    "state": "CA",
    "zip_code": "92109",
    "latitude": 32.7884525,
    "longitude": -117.2376075,
    "website": "http://www.baysidelanding.com/",
    "category": "Bar & Restaurant",
    "types": "bar, restaurant, food, point_of_interest, establishment"
  },
  {
    "place_id": "ChIJUXvLiewB3IAR7pfIky8IZSM",
    "name": "The Sandbox",
    "street_address": "1466 Garnet Avenue",
    "city": "San Diego",
    "state": "CA",
    "zip_code": "92109",
    "latitude": 32.79943209999999,
    "longitude": -117.2431943,
    "website": "http://www.sandboxsd.com/",
    "category": "Bar & Restaurant",
    "types": "bar, restaurant, food, point_of_interest, establishment"
  },
  {
    "place_id": "ChIJz9nWTydV2YARfO1rKH4iJus",
    "name": "Burgeon at The Arbor - Little Italy",
    "street_address": "1326 Kettner Boulevard",
    "city": "San Diego",
    "state": "CA",
    "zip_code": "92101",
    "latitude": 32.7190313,
    "longitude": -117.1693785,
    "website": "https://burgeonbeer.com/pages/the-arbor",
    "category": "Bar & Restaurant",
    "types": "restaurant, food, bar, point_of_interest, establishment"
  },
  {
    "place_id": "ChIJGdo8UVdT2YARU-W1hlFIS-0",
    "name": "The Whiskey House",
    "street_address": "420 Third Avenue",
    "city": "San Diego",
    "state": "CA",
    "zip_code": "92101",
    "latitude": 32.7097222,
    "longitude": -117.1622417,
    "website": "http://www.thewhiskeyhousesd.com/",
    "category": "Bar & Restaurant",
    "types": "restaurant, night_club, bar, point_of_interest, food, establishment"
  },
  {
    "place_id": "ChIJAZEg61tT2YARu7bBj_OPr4s",
    "name": "Tom's Watch Bar - Petco Park",
    "street_address": "815 J Street",
    "city": "San Diego",
    "state": "CA",
    "zip_code": "92101",
    "latitude": 32.7092888,
    "longitude": -117.1572483,
    "website": "https://tomswatchbar.com/san-diego/",
    "category": "Bar & Restaurant",
    "types": "bar, restaurant, food, point_of_interest, establishment"
  },
  {
    "place_id": "ChIJ50SXL8-q3oARSjFe_0pe_F8",
    "name": "Mr. Peabody's Burgers & Ale",
    "street_address": "6110 Friars Road",
    "city": "San Diego",
    "state": "CA",
    "zip_code": "92108",
    "latitude": 32.76657199999999,
    "longitude": -117.182958,
    "website": "http://peabodysburgers.com/",
    "category": "Bar & Restaurant",
    "types": "restaurant, food, bar, point_of_interest, establishment"
  },
  {
    "place_id": "ChIJ9-EektRU2YARENRCk3Zayhk",
    "name": "Harley Gray Kitchen & Bar",
    "street_address": "902 West Washington Street",
    "city": "San Diego",
    "state": "CA",
    "zip_code": "92103",
    "latitude": 32.7500126,
    "longitude": -117.1715654,
    "website": "http://www.harleygraykitchenandbar.com/",
    "category": "Bar & Restaurant",
    "types": "bar, restaurant, point_of_interest, food, establishment"
  },
  {
    "place_id": "ChIJFVEIvfmq3oARZ-t6q0jjgfE",
    "name": "Buffalo Wild Wings",
    "street_address": "3615 Midway Drive",
    "city": "San Diego",
    "state": "CA",
    "zip_code": "92110",
    "latitude": 32.7523207,
    "longitude": -117.2162975,
    "website": "https://www.buffalowildwings.com/locations/us/ca/san-diego/3615-midway-dr/sports-bar-1059?utm_source=google%20my%20business&utm_medium=organic&utm_campaign=website%20link",
    "category": "Bar & Restaurant",
    "types": "meal_takeaway, bar, restaurant, food, point_of_interest, establishment"
  },
  {
    "place_id": "ChIJi3RF_cus3oARQsD77LcbvhY",
    "name": "The Henry",
    "street_address": "1031 Orange Avenue",
    "city": "Coronado",
    "state": "CA",
    "zip_code": "92118",
    "latitude": 32.6848334,
    "longitude": -117.1793517,
    "website": "https://www.thehenryrestaurant.com/locations/the-henry-coronado/?utm_source=Google&utm_medium=Organic&utm_campaign=Maps",
    "category": "Bar & Restaurant",
    "types": "cafe, bar, restaurant, food, point_of_interest, store, establishment"
  },
  {
    "place_id": "ChIJo45J6c2s3oAR2b5wuHW1tp0",
    "name": "Babcock & Story Bar",
    "street_address": "1500 Orange Avenue",
    "city": "Coronado",
    "state": "CA",
    "zip_code": "92118",
    "latitude": 32.68036190000001,
    "longitude": -117.1783793,
    "website": "https://hoteldel.com/restaurant-coronado/babcock-story/",
    "category": "Restaurant",
    "types": "restaurant, food, point_of_interest, establishment"
  },
  {
    "place_id": "ChIJk5DUy0xT2YAR3_ICGjPavA8",
    "name": "Coronado Brewing Company | Coronado Brew Pub",
    "street_address": "170 Orange Avenue",
    "city": "Coronado",
    "state": "CA",
    "zip_code": "92118",
    "latitude": 32.69773609999999,
    "longitude": -117.1731746,
    "website": "http://www.coronadobrewing.com/",
    "category": "Bar & Restaurant",
    "types": "bar, restaurant, food, point_of_interest, establishment"
  },
  {
    "place_id": "ChIJeTdFmdKs3oARnrtryo3LyCs",
    "name": "Bluewater Boathouse Seafood Grill Coronado",
    "street_address": "1701 Strand Way",
    "city": "Coronado",
    "state": "CA",
    "zip_code": "92118",
    "latitude": 32.6796703,
    "longitude": -117.1752532,
    "website": "https://www.bluewatergrill.com/location/coronado/",
    "category": "Bar & Restaurant",
    "types": "restaurant, food, bar, point_of_interest, establishment"
  },
  {
    "place_id": "ChIJ_yyfBNKs3oARjc-U8OKI-_0",
    "name": "Sun Deck",
    "street_address": "1500 Orange Avenue",
    "city": "Coronado",
    "state": "CA",
    "zip_code": "92118",
    "latitude": 32.67986520000001,
    "longitude": -117.1787454,
    "website": "https://hoteldel.com/restaurant-coronado/sun-deck/",
    "category": "Restaurant",
    "types": "restaurant, food, point_of_interest, establishment"
  },
  {
    "place_id": "ChIJy1CDKlBT2YARjvS6TxZakUM",
    "name": "Burgers, Bait & Beer",
    "street_address": "200 Marina Park Way",
    "city": "San Diego",
    "state": "CA",
    "zip_code": "92101",
    "latitude": 32.7035049,
    "longitude": -117.164569,
    "website": null,
    "category": "Bar & Restaurant",
    "types": "bar, restaurant, food, point_of_interest, establishment"
  },
  {
    "place_id": "ChIJz5F4ladU2YARHjSTwhWk28M",
    "name": "House of Blues San Diego",
    "street_address": "1055 Fifth Avenue",
    "city": "San Diego",
    "state": "CA",
    "zip_code": "92101",
    "latitude": 32.7164383,
    "longitude": -117.1598249,
    "website": "https://www.houseofblues.com/sandiego?y_source=1_MTU2MzYxNjItNzE1LWxvY2F0aW9uLndlYnNpdGU%3D",
    "category": "Bar & Restaurant",
    "types": "restaurant, bar, point_of_interest, food, establishment"
  },
  {
    "place_id": "ChIJF_cemZNW2YAR12b8_8POUms",
    "name": "Dirty Birds College Area",
    "street_address": "6499 El Cajon Boulevard",
    "city": "San Diego",
    "state": "CA",
    "zip_code": "92115",
    "latitude": 32.76573560000001,
    "longitude": -117.0593566,
    "website": "http://www.dirtybirdsbarandgrill.com/",
    "category": "Bar & Restaurant",
    "types": "bar, restaurant, food, point_of_interest, establishment"
  },
  {
    "place_id": "ChIJLRs9DGFW2YARSuPOH5dcjss",
    "name": "KnB Bistro",
    "street_address": "6380 Del Cerro Boulevard",
    "city": "San Diego",
    "state": "CA",
    "zip_code": "92120",
    "latitude": 32.7840162,
    "longitude": -117.059933,
    "website": "http://knbbistro.com/",
    "category": "Bar & Restaurant",
    "types": "bar, restaurant, food, point_of_interest, establishment"
  },
  {
    "place_id": "ChIJI4WNLh5V2YARfHOjio8U9aA",
    "name": "Parkhouse Eatery",
    "street_address": "4574 Park Boulevard",
    "city": "San Diego",
    "state": "CA",
    "zip_code": "92116",
    "latitude": 32.7604104,
    "longitude": -117.1465353,
    "website": "http://parkhousesd.com/",
    "category": "Restaurant",
    "types": "restaurant, food, point_of_interest, establishment"
  },
  {
    "place_id": "ChIJ5RuLh1RU2YARU0Z7ptYW3lU",
    "name": "The Ould Sod",
    "street_address": "3373 Adams Avenue",
    "city": "San Diego",
    "state": "CA",
    "zip_code": "92116",
    "latitude": 32.76303099999999,
    "longitude": -117.121231,
    "website": "http://www.theouldsod.com/",
    "category": "Bar & Restaurant",
    "types": "bar, restaurant, food, point_of_interest, establishment"
  },
  {
    "place_id": "ChIJM1zAdN9V2YARf42C5grBviY",
    "name": "Rosati's Pizza Pub and Sports Bar",
    "street_address": "5855 Mission Gorge Road",
    "city": "San Diego",
    "state": "CA",
    "zip_code": "92120",
    "latitude": 32.7818867,
    "longitude": -117.100241,
    "website": "https://myrosatis.com/sandiego/",
    "category": "Bar & Restaurant",
    "types": "restaurant, meal_delivery, meal_takeaway, food, store, bar, point_of_interest, establishment"
  },
  {
    "place_id": "ChIJsXo0ieUJ3IARRIhb8HE7Gr8",
    "name": "Craft House Sky Deck",
    "street_address": "12841 El Camino Real",
    "city": "San Diego",
    "state": "CA",
    "zip_code": "92130",
    "latitude": 32.9495108,
    "longitude": -117.2335836,
    "website": "https://crafthouseskydeck.com/",
    "category": "Bar & Restaurant",
    "types": "bar, restaurant, food, point_of_interest, establishment"
  },
  {
    "place_id": "ChIJIzv5eMoJ3IAR0fHBiL5haZw",
    "name": "Monarch Ocean Pub",
    "street_address": "1555 Camino Del Mar",
    "city": "Del Mar",
    "state": "CA",
    "zip_code": "92014",
    "latitude": 32.9604007,
    "longitude": -117.2647641,
    "website": "http://monarchdelmar.com/?utm_source=local-directories",
    "category": "Restaurant",
    "types": "restaurant, food, point_of_interest, establishment"
  },
  {
    "place_id": "ChIJyWxDwm8H3IARSJ0iJhg02DM",
    "name": "West End Bar & Kitchen",
    "street_address": "2334 Carmel Valley Road",
    "city": "Del Mar",
    "state": "CA",
    "zip_code": "92014",
    "latitude": 32.93302190000001,
    "longitude": -117.2526746,
    "website": "http://westenddelmar.com/",
    "category": "Bar & Restaurant",
    "types": "bar, restaurant, food, point_of_interest, establishment"
  },
  {
    "place_id": "ChIJM7hNCSsJ3IARxbUYcYfNxVU",
    "name": "Cross Street Chicken and Beer (DELMAR)",
    "street_address": "12955 El Camino Real",
    "city": "San Diego",
    "state": "CA",
    "zip_code": "92130",
    "latitude": 32.9527425,
    "longitude": -117.2322757,
    "website": "https://www.crossstreetcnb.com/",
    "category": "Restaurant",
    "types": "restaurant, food, point_of_interest, establishment"
  },
  {
    "place_id": "ChIJJ7D7i84J3IARHjL0tSiD_jY",
    "name": "Sky Deck at Del Mar Highlands Town Center",
    "street_address": "12841 El Camino Real",
    "city": "San Diego",
    "state": "CA",
    "zip_code": "92130",
    "latitude": 32.9498093,
    "longitude": -117.2336796,
    "website": "https://www.delmarhighlandstowncenter.com/skydeck/",
    "category": "Restaurant",
    "types": "restaurant, shopping_mall, food, point_of_interest, establishment"
  },
  {
    "place_id": "ChIJz_479dIO3IARJooCRsts-po",
    "name": "Tavern",
    "street_address": "143 South Cedros Avenue",
    "city": "Solana Beach",
    "state": "CA",
    "zip_code": "92075",
    "latitude": 32.9906806,
    "longitude": -117.2704222,
    "website": "http://bellyup-tavern.com/",
    "category": "Bar & Restaurant",
    "types": "bar, restaurant, food, point_of_interest, establishment"
  },
  {
    "place_id": "ChIJ-2BP9c0O3IAR3XAGoZ-IEvg",
    "name": "Pillbox Tavern",
    "street_address": "117 Plaza Street",
    "city": "Solana Beach",
    "state": "CA",
    "zip_code": "92075",
    "latitude": 32.9913835,
    "longitude": -117.272048,
    "website": "http://www.pillboxtavern.com/",
    "category": "Bar & Restaurant",
    "types": "bar, restaurant, food, point_of_interest, establishment"
  },
  {
    "place_id": "ChIJNUpGBCcJ3IAR7tGYyVfRsBo",
    "name": "Postino Del Mar",
    "street_address": "3745 Paseo Place",
    "city": "San Diego",
    "state": "CA",
    "zip_code": "92130",
    "latitude": 32.9520435,
    "longitude": -117.2350067,
    "website": "https://www.postinowinecafe.com/locations/postino-del-mar",
    "category": "Bar & Restaurant",
    "types": "restaurant, bar, food, point_of_interest, establishment"
  },
  {
    "place_id": "ChIJYzA4cc0O3IARyAMDcg6Ny5Q",
    "name": "Chief's Burgers, Brew & Spirits",
    "street_address": "124 Lomas Santa Fe Drive",
    "city": "Solana Beach",
    "state": "CA",
    "zip_code": "92075",
    "latitude": 32.9927791,
    "longitude": -117.2701364,
    "website": "http://chiefsburgers.com/",
    "category": "Bar & Restaurant",
    "types": "bar, restaurant, food, point_of_interest, establishment"
  },
  {
    "place_id": "ChIJtT5kf4MI3IARVOYuUnA1Oo8",
    "name": "Oggi\u2019s Sports | Brewhouse | Pizza, DEL MAR",
    "street_address": "12840 Carmel Country Road",
    "city": "San Diego",
    "state": "CA",
    "zip_code": "92130",
    "latitude": 32.954208,
    "longitude": -117.229459,
    "website": "https://www.oggis.com/location/delmar/",
    "category": "Bar & Restaurant",
    "types": "restaurant, meal_delivery, bar, meal_takeaway, food, point_of_interest, establishment"
  },
  {
    "place_id": "ChIJHbu33K0I3IAR2L7S5qWoXCg",
    "name": "Ocean View Bar & Grill",
    "street_address": "710 Camino Del Mar",
    "city": "Del Mar",
    "state": "CA",
    "zip_code": "92014",
    "latitude": 32.95012009999999,
    "longitude": -117.2626586,
    "website": null,
    "category": "Bar & Restaurant",
    "types": "bar, restaurant, point_of_interest, food, establishment"
  },
  {
    "place_id": "ChIJC0FgsYQJ3IARAhhO29cdaXI",
    "name": "Nick's Del Mar",
    "street_address": "3377 Del Mar Heights Road",
    "city": "San Diego",
    "state": "CA",
    "zip_code": "92130",
    "latitude": 32.9528564,
    "longitude": -117.2346622,
    "website": "https://nicksrestaurants.com/nicks/del-mar/",
    "category": "Restaurant",
    "types": "restaurant, food, point_of_interest, establishment"
  },
  {
    "place_id": "ChIJAXojb9oI3IARR0uZSLXnrrA",
    "name": "Coastal Cantina",
    "street_address": "15575 Jimmy Durante Boulevard",
    "city": "Del Mar",
    "state": "CA",
    "zip_code": "92014",
    "latitude": 32.97793,
    "longitude": -117.2548234,
    "website": "https://www.hilton.com/en/hotels/sandmhf-hilton-san-diego-del-mar/dining/",
    "category": "Bar & Restaurant",
    "types": "restaurant, bar, food, point_of_interest, establishment"
  },
  {
    "place_id": "ChIJjdm5G7UI3IARHyJ60DOCAEQ",
    "name": "Jimmy O's - Del Mar",
    "street_address": "225 15th Street",
    "city": "Del Mar",
    "state": "CA",
    "zip_code": "92014",
    "latitude": 32.95933779999999,
    "longitude": -117.2656379,
    "website": "http://www.jodelmar.com/",
    "category": "Bar & Restaurant",
    "types": "night_club, bar, restaurant, food, point_of_interest, establishment"
  },
  {
    "place_id": "ChIJ8VcnsN0H3IARaKIQZvGYJ4o",
    "name": "Mosaic Restaurant & Bar",
    "street_address": "11915 El Camino Real",
    "city": "San Diego",
    "state": "CA",
    "zip_code": "92130",
    "latitude": 32.9356344,
    "longitude": -117.2365084,
    "website": "http://doubletree3.hilton.com/en/hotels/california/doubletree-by-hilton-hotel-san-diego-del-mar-SANCEDT/dining/index.html",
    "category": "Bar & Restaurant",
    "types": "restaurant, night_club, lodging, bar, food, point_of_interest, establishment"
  },
  {
    "place_id": "ChIJCZgvpTwG3IARXw_A5bF2EMA",
    "name": "Arterra",
    "street_address": "11966 El Camino Real",
    "city": "San Diego",
    "state": "CA",
    "zip_code": "92130",
    "latitude": 32.9359373,
    "longitude": -117.2387514,
    "website": "http://www.arterradelmar.com/",
    "category": "Bar & Restaurant",
    "types": "restaurant, lodging, night_club, bar, food, point_of_interest, establishment"
  }
]