[
  {
    "place_id": "ChIJmZ8fpKPMj4ARHB3FnxmRMSg",
    "name": "The Brit - Sports Pub & Patio",
    "street_address": "173 West Santa Clara Street",
    "city": "San Jose",
    "state": "CA",
    "zip_code": "95110",
    "latitude": 37.3349249,
    "longitude": -121.893638,
    "website": "http://www.thebritsj.com/",
    "category": "Bar & Restaurant",
    "types": "bar, restaurant, point_of_interest, food, establishment"
  },
  {
    "place_id": "ChIJhW1M8IPMj4ARxt4SjJAS3pA",
    "name": "Jack's",
    "street_address": "167 East Taylor Street",
    "city": "San Jose",
    "state": "CA",
    "zip_code": "95112",
    "latitude": 37.3509711,
    "longitude": -121.8967427,
    "website": "http://jacksbar.com/",
    "category": "Bar & Restaurant",
    "types": "bar, night_club, restaurant, food, point_of_interest, establishment"
  },
  {
    "place_id": "ChIJ2XL5L1rLj4ARAQgdDn86kkM",
    "name": "Tony P's Park Ave Bar & Grill",
    "street_address": "956 Park Avenue",
    "city": "San Jose",
    "state": "CA",
    "zip_code": "95126",
    "latitude": 37.3260154,
    "longitude": -121.9082269,
    "website": null,
    "category": "Bar & Restaurant",
    "types": "bar, restaurant, food, point_of_interest, establishment"
  },
  {
    "place_id": "ChIJXYJ0qqPMj4ARuhPfAS-P6BM",
    "name": "O'Flaherty's Irish Pub",
    "street_address": "25 North San Pedro Street",
    "city": "San Jose",
    "state": "CA",
    "zip_code": "95110",
    "latitude": 37.3355048,
    "longitude": -121.8934871,
    "website": "http://www.oflahertyspub.com/",
    "category": "Bar & Restaurant",
    "types": "bar, restaurant, food, point_of_interest, establishment"
  },
  {
    "place_id": "ChIJpdhBR-U1joARR5NjV1j68uI",
    "name": "PANCHO'S SPORTS BAR AND GRILL",
    "street_address": "1070 Leigh Avenue",
    "city": "San Jose",
    "state": "CA",
    "zip_code": "95126",
    "latitude": 37.3044215,
    "longitude": -121.921583,
    "website": "https://panchosbar.net/",
    "category": "Bar & Restaurant",
    "types": "restaurant, bar, point_of_interest, food, establishment"
  },
  {
    "place_id": "ChIJZ65qCgDNj4ARiWkfv2x6_co",
    "name": "The Pressroom",
    "street_address": "189 West Santa Clara Street",
    "city": "San Jose",
    "state": "CA",
    "zip_code": "95113",
    "latitude": 37.3348679,
    "longitude": -121.8937525,
    "website": "http://pressroomsj.com/",
    "category": "Bar & Restaurant",
    "types": "restaurant, bar, food, point_of_interest, establishment"
  },
  {
    "place_id": "ChIJrYjNRKLMj4ARVUoqbKhbLwo",
    "name": "The Old Wagon Saloon & Grill",
    "street_address": "73 North San Pedro Street",
    "city": "San Jose",
    "state": "CA",
    "zip_code": "95110",
    "latitude": 37.33638,
    "longitude": -121.894104,
    "website": "http://www.theoldwagonsaloon.com/",
    "category": "Bar & Restaurant",
    "types": "bar, restaurant, food, point_of_interest, establishment"
  },
  {
    "place_id": "ChIJNUrKGODKj4ARL6j4poDhmic",
    "name": "Yard House",
    "street_address": "300 Santana Row",
    "city": "San Jose",
    "state": "CA",
    "zip_code": "95128",
    "latitude": 37.32309,
    "longitude": -121.94763,
    "website": "https://www.yardhouse.com/locations/ca/san-jose/san-jose-santana-row/8330?cmpid=br:yh_ag:ie_ch:loc_ca:YHGMB_sn:gmb_gt:san-jose-ca-8330_pl:locurl_rd:1028",
    "category": "Bar & Restaurant",
    "types": "meal_takeaway, bar, restaurant, food, point_of_interest, establishment"
  },
  {
    "place_id": "ChIJYwCXCaPMj4ARBEPm6Z8ZvJc",
    "name": "The Farmers Union",
    "street_address": "151 West Santa Clara Street",
    "city": "San Jose",
    "state": "CA",
    "zip_code": "95113",
    "latitude": 37.3351662,
    "longitude": -121.8931191,
    "website": "http://www.thefarmersunion.com/",
    "category": "Bar & Restaurant",
    "types": "bar, restaurant, food, point_of_interest, establishment"
  },
  {
    "place_id": "ChIJbeGGEqfMj4ARLsEQKwQohWM",
    "name": "Poor House Bistro",
    "street_address": "317 West Saint John Street",
    "city": "San Jose",
    "state": "CA",
    "zip_code": "95110",
    "latitude": 37.3352759,
    "longitude": -121.8983499,
    "website": "http://www.poorhousebistro.com/",
    "category": "Restaurant",
    "types": "restaurant, food, point_of_interest, establishment"
  },
  {
    "place_id": "ChIJJa0t2EDNj4ARBUYQvA3beLg",
    "name": "After Bar & Grill",
    "street_address": "1692 Story Road",
    "city": "San Jose",
    "state": "CA",
    "zip_code": "95122",
    "latitude": 37.33838989999999,
    "longitude": -121.842219,
    "website": null,
    "category": "Restaurant",
    "types": "restaurant, point_of_interest, food, establishment"
  },
  {
    "place_id": "ChIJoc2hMWLLj4AR2Wb4oJEtzyw",
    "name": "BJ's Restaurant & Brewhouse",
    "street_address": "511 Coleman Avenue",
    "city": "San Jose",
    "state": "CA",
    "zip_code": "95110",
    "latitude": 37.3405059,
    "longitude": -121.9040222,
    "website": "https://www.bjsrestaurants.com/locations/ca/san-jose",
    "category": "Bar & Restaurant",
    "types": "restaurant, bar, food, point_of_interest, establishment"
  },
  {
    "place_id": "ChIJeXQjz7w0joARjs4ngnLwshI",
    "name": "Rookies Sports Lodge Willow Glen",
    "street_address": "1535 Meridian Avenue",
    "city": "San Jose",
    "state": "CA",
    "zip_code": "95125",
    "latitude": 37.2969144,
    "longitude": -121.9139009,
    "website": "http://rookieslodge.com/",
    "category": "Bar & Restaurant",
    "types": "bar, restaurant, food, point_of_interest, establishment"
  },
  {
    "place_id": "ChIJ60DuWqLMj4ARl8cIhHEqoz4",
    "name": "Firehouse No.1",
    "street_address": "69 North San Pedro Street",
    "city": "San Jose",
    "state": "CA",
    "zip_code": "95110",
    "latitude": 37.3362843,
    "longitude": -121.8939494,
    "website": "http://www.firehouse1.com/",
    "category": "Bar & Restaurant",
    "types": "bar, restaurant, food, point_of_interest, establishment"
  },
  {
    "place_id": "ChIJa8FMHZrNj4ARuMJulrucz30",
    "name": "Birre by Pour Decisions",
    "street_address": "320 West Saint John Street",
    "city": "San Jose",
    "state": "CA",
    "zip_code": "95110",
    "latitude": 37.33504439999999,
    "longitude": -121.8979942,
    "website": null,
    "category": "Bar & Restaurant",
    "types": "bar, restaurant, food, point_of_interest, establishment"
  },
  {
    "place_id": "ChIJu2t26TUzjoAR76KR_sro__c",
    "name": "Burger Bar",
    "street_address": "1101 South 1st Street",
    "city": "San Jose",
    "state": "CA",
    "zip_code": "95110",
    "latitude": 37.3197685,
    "longitude": -121.8777314,
    "website": null,
    "category": "Restaurant",
    "types": "restaurant, point_of_interest, food, establishment"
  },
  {
    "place_id": "ChIJW-MHrYLNj4ARTtxgZVu_dUw",
    "name": "El Cielo Bar & Grill",
    "street_address": "2650 Alum Rock Avenue",
    "city": "San Jose",
    "state": "CA",
    "zip_code": "95116",
    "latitude": 37.3611412,
    "longitude": -121.8359985,
    "website": null,
    "category": "Restaurant",
    "types": "restaurant, food, point_of_interest, establishment"
  },
  {
    "place_id": "ChIJW0YEpmsujoARe0m7R2Ji61Y",
    "name": "The Last Round Tavern",
    "street_address": "354 East Santa Clara Street",
    "city": "San Jose",
    "state": "CA",
    "zip_code": "95113",
    "latitude": 37.339627,
    "longitude": -121.8828945,
    "website": "https://lastroundtavern.com/?utm_source=google",
    "category": "Restaurant",
    "types": "restaurant, food, point_of_interest, establishment"
  },
  {
    "place_id": "ChIJ6XmTnLzMj4ARkbWkMEA9Lhw",
    "name": "San Jose Bar & Grill",
    "street_address": "85 South Second Street",
    "city": "San Jose",
    "state": "CA",
    "zip_code": "95113",
    "latitude": 37.3350465,
    "longitude": -121.8886215,
    "website": "http://www.sanjosebarandgrill.com/",
    "category": "Bar & Restaurant",
    "types": "bar, restaurant, food, point_of_interest, establishment"
  },
  {
    "place_id": "ChIJUfqc_JbKj4ARdYwTU330nRw",
    "name": "Redi Room",
    "street_address": "4340 Moorpark Avenue",
    "city": "San Jose",
    "state": "CA",
    "zip_code": "95129",
    "latitude": 37.31553660000001,
    "longitude": -121.9782139,
    "website": null,
    "category": "Bar & Restaurant",
    "types": "bar, restaurant, point_of_interest, food, establishment"
  },
  {
    "place_id": "ChIJk0YPd8I1joARpA2iOjeQfls",
    "name": "Out of the Barrel",
    "street_address": "1875 South Bascom Avenue",
    "city": "Campbell",
    "state": "CA",
    "zip_code": "95008",
    "latitude": 37.2890177,
    "longitude": -121.9331169,
    "website": "http://www.outofthebarrelbeer.com/",
    "category": "Bar & Restaurant",
    "types": "bar, restaurant, food, point_of_interest, establishment"
  },
  {
    "place_id": "ChIJHWiZEDTLj4AR6tltc24a_fM",
    "name": "Aces Icehouse",
    "street_address": "Saratoga Avenue",
    "city": "Santa Clara",
    "state": "CA",
    "zip_code": "95050",
    "latitude": 37.3315974,
    "longitude": -121.9637969,
    "website": "http://acesicehousepruneridge.com/",
    "category": "Bar & Restaurant",
    "types": "restaurant, bar, food, point_of_interest, establishment"
  },
  {
    "place_id": "ChIJvxIY4x41joARw231yq63TWo",
    "name": "The Hook Sports Bar & Grill",
    "street_address": "2369 Winchester Boulevard",
    "city": "Campbell",
    "state": "CA",
    "zip_code": "95008",
    "latitude": 37.279739,
    "longitude": -121.9508416,
    "website": "https://thehooksportsbar.com/",
    "category": "Bar & Restaurant",
    "types": "bar, restaurant, food, point_of_interest, establishment"
  },
  {
    "place_id": "ChIJD2gJ4MIzjoARhOvTz9khSzg",
    "name": "Britannia Arms Almaden",
    "street_address": "5027 Almaden Expressway",
    "city": "San Jose",
    "state": "CA",
    "zip_code": "95118",
    "latitude": 37.2579777,
    "longitude": -121.8769437,
    "website": "https://britanniaarms.com/",
    "category": "Bar & Restaurant",
    "types": "bar, restaurant, food, point_of_interest, establishment"
  },
  {
    "place_id": "ChIJF7uF3VczjoARsQacfJJdX-A",
    "name": "The Table",
    "street_address": "1110 Willow Street",
    "city": "San Jose",
    "state": "CA",
    "zip_code": "95125",
    "latitude": 37.3082046,
    "longitude": -121.9012822,
    "website": "https://www.thetablesj.com/",
    "category": "Restaurant",
    "types": "restaurant, food, point_of_interest, establishment"
  },
  {
    "place_id": "ChIJFQ6g4PY0joARmWBsh4TAPFY",
    "name": "Stevie's Bar & Grill",
    "street_address": "2705 Union Avenue",
    "city": "San Jose",
    "state": "CA",
    "zip_code": "95124",
    "latitude": 37.2721778,
    "longitude": -121.9338692,
    "website": "http://www.steviesbargrill.com/",
    "category": "Bar & Restaurant",
    "types": "bar, restaurant, food, point_of_interest, establishment"
  },
  {
    "place_id": "ChIJI7AHGls0joARQl8XBEklygM",
    "name": "Nowhere Bar & Grill",
    "street_address": "2035 Woodard Road",
    "city": "San Jose",
    "state": "CA",
    "zip_code": "95124",
    "latitude": 37.2607322,
    "longitude": -121.9323076,
    "website": "https://nowhere-bar-grill.edan.io/",
    "category": "Bar & Restaurant",
    "types": "bar, meal_delivery, restaurant, food, point_of_interest, establishment"
  },
  {
    "place_id": "ChIJq8a3lBszjoARjE19naeMajQ",
    "name": "Applebee's Grill + Bar",
    "street_address": "51 Curtner Avenue",
    "city": "San Jose",
    "state": "CA",
    "zip_code": "95125",
    "latitude": 37.3028015,
    "longitude": -121.8630298,
    "website": "https://restaurants.applebees.com/en-us/ca/san-jose/51-curtner-ave-76030?utm_source=google&utm_medium=organic&utm_campaign=google_my_business&utm_term=76030&utm_content=website",
    "category": "Bar & Restaurant",
    "types": "restaurant, bar, food, point_of_interest, establishment"
  },
  {
    "place_id": "ChIJqbNHr3k0joARDF_0tilf67M",
    "name": "Jack Holders Restaurant & Bar",
    "street_address": "3153 Meridian Avenue",
    "city": "San Jose",
    "state": "CA",
    "zip_code": "95124",
    "latitude": 37.2685127,
    "longitude": -121.9060821,
    "website": "http://www.jackholders.com/",
    "category": "Bar & Restaurant",
    "types": "bar, restaurant, food, point_of_interest, establishment"
  },
  {
    "place_id": "ChIJ0ZvBZ8I0joARlBjv7sEn3bs",
    "name": "Rock Bottom Restaurant & Brewery",
    "street_address": "1875 South Bascom Avenue",
    "city": "Campbell",
    "state": "CA",
    "zip_code": "95008",
    "latitude": 37.2889844,
    "longitude": -121.9340228,
    "website": "https://rockbottom.com/locations/san-jose/?utm_source=google_my_business&utm_medium=map_organic_search&utm_campaign=location&utm_content=website_button",
    "category": "Bar & Restaurant",
    "types": "bar, restaurant, point_of_interest, food, establishment"
  },
  {
    "place_id": "ChIJ2XdOpLzMj4ARkdRQg4ZRVTY",
    "name": "Paper Plane",
    "street_address": "72 South 1st Street",
    "city": "San Jose",
    "state": "CA",
    "zip_code": "95113",
    "latitude": 37.3349887,
    "longitude": -121.8895078,
    "website": "http://www.paperplanesj.com/",
    "category": "Bar & Restaurant",
    "types": "bar, restaurant, food, point_of_interest, establishment"
  },
  {
    "place_id": "ChIJJWwrhh81joARM28BB_870nc",
    "name": "Coach's Sports Bar & Grill",
    "street_address": "2240 South Winchester Boulevard",
    "city": "Campbell",
    "state": "CA",
    "zip_code": "95008",
    "latitude": 37.2826872,
    "longitude": -121.9495398,
    "website": null,
    "category": "Bar & Restaurant",
    "types": "bar, restaurant, food, point_of_interest, establishment"
  },
  {
    "place_id": "ChIJK0M7G9ozjoAR8_yLWap7ua8",
    "name": "Lazy Dog Restaurant & Bar",
    "street_address": "5305 Almaden Expressway",
    "city": "San Jose",
    "state": "CA",
    "zip_code": "95118",
    "latitude": 37.2535685,
    "longitude": -121.8763117,
    "website": "https://www.lazydogrestaurants.com/locations/san-jose-ca",
    "category": "Bar & Restaurant",
    "types": "bar, restaurant, food, point_of_interest, establishment"
  },
  {
    "place_id": "ChIJJfpXhN_Kj4ARzIr5AOzw0uU",
    "name": "El Jard\u00edn Tequila Bar",
    "street_address": "368 Santana Row",
    "city": "San Jose",
    "state": "CA",
    "zip_code": "95128",
    "latitude": 37.3193688,
    "longitude": -121.947843,
    "website": "http://eljardintequilabar.com/",
    "category": "Bar & Restaurant",
    "types": "bar, restaurant, food, point_of_interest, establishment"
  },
  {
    "place_id": "ChIJo8gAiYI1joARCYWTsP9QQk8",
    "name": "Brew City Grill",
    "street_address": "651 West Hamilton Avenue",
    "city": "Campbell",
    "state": "CA",
    "zip_code": "95008",
    "latitude": 37.2947332,
    "longitude": -121.9617974,
    "website": "http://brewcitygrill.com/",
    "category": "Restaurant",
    "types": "restaurant, food, point_of_interest, establishment"
  },
  {
    "place_id": "ChIJf6X9tLzMj4AR2QqCj85EV74",
    "name": "Good Karma Fine Ales Food & HiFi",
    "street_address": "37 South 1st Street",
    "city": "San Jose",
    "state": "CA",
    "zip_code": "95113",
    "latitude": 37.3354044,
    "longitude": -121.8902251,
    "website": "https://goodkarmasj.com/",
    "category": "Bar & Restaurant",
    "types": "bar, restaurant, food, point_of_interest, establishment"
  },
  {
    "place_id": "ChIJWwfFI7vMj4ARbK8xbuWfuHg",
    "name": "The Grill on the Alley",
    "street_address": "172 South Market Street",
    "city": "San Jose",
    "state": "CA",
    "zip_code": "95113",
    "latitude": 37.3326357,
    "longitude": -121.8891198,
    "website": "https://www.thegrill.com/",
    "category": "Bar & Restaurant",
    "types": "bar, restaurant, food, point_of_interest, establishment"
  },
  {
    "place_id": "ChIJM2kMEMMzjoARjIZashfyon4",
    "name": "SmokeEaters Hot Wings",
    "street_address": "5018 Almaden Expressway",
    "city": "San Jose",
    "state": "CA",
    "zip_code": "95118",
    "latitude": 37.2584683,
    "longitude": -121.8757367,
    "website": "https://smoke-eaters.com/",
    "category": "Bar & Restaurant",
    "types": "bar, restaurant, food, point_of_interest, establishment"
  },
  {
    "place_id": "ChIJo1TM25nNj4ARkZJrDxuP5VM",
    "name": "The FAB",
    "street_address": "110 Paseo de San Antonio",
    "city": "San Jose",
    "state": "CA",
    "zip_code": "95112",
    "latitude": 37.33364510000001,
    "longitude": -121.8854066,
    "website": "http://thefabsj.com/",
    "category": "Restaurant",
    "types": "restaurant, food, point_of_interest, establishment"
  },
  {
    "place_id": "ChIJAAAAAAAAAAARL6j4poDhmic",
    "name": "Yard House",
    "street_address": "300 Santana Row",
    "city": "San Jose",
    "state": "CA",
    "zip_code": "95128",
    "latitude": 37.32309,
    "longitude": -121.94763,
    "website": "https://www.yardhouse.com/locations/ca/san-jose/san-jose-santana-row/8330?cmpid=br:yh_ag:ie_ch:loc_ca:YHGMB_sn:gmb_gt:san-jose-ca-8330_pl:locurl_rd:1028",
    "category": "Bar & Restaurant",
    "types": "bar, meal_takeaway, restaurant, food, point_of_interest, establishment"
  },
  {
    "place_id": "ChIJAAAAAAAAAAARM28BB_870nc",
    "name": "Coach's Sports Bar & Grill",
    "street_address": "2240 South Winchester Boulevard",
    "city": "Campbell",
    "state": "CA",
    "zip_code": "95008",
    "latitude": 37.2826872,
    "longitude": -121.9495398,
    "website": null,
    "category": "Bar & Restaurant",
    "types": "bar, restaurant, food, point_of_interest, establishment"
  },
  {
    "place_id": "ChIJwdXyhsI0joARrJ59PshYNfg",
    "name": "Orchard City Kitchen",
    "street_address": "1875 South Bascom Avenue",
    "city": "Campbell",
    "state": "CA",
    "zip_code": "95008",
    "latitude": 37.2881977,
    "longitude": -121.9342035,
    "website": "http://orchardcitykitchen.com/",
    "category": "Bar & Restaurant",
    "types": "bar, restaurant, point_of_interest, food, establishment"
  },
  {
    "place_id": "ChIJr3cC3521j4ARcQCNrf1ObhI",
    "name": "Eureka! Cupertino",
    "street_address": "19369 Stevens Creek Boulevard",
    "city": "Cupertino",
    "state": "CA",
    "zip_code": "95014",
    "latitude": 37.3233788,
    "longitude": -122.0090854,
    "website": "http://eurekarestaurantgroup.com/blog/locations/cupertino/",
    "category": "Restaurant",
    "types": "restaurant, food, point_of_interest, establishment"
  },
  {
    "place_id": "ChIJU-3zRtg1joAR7DyutdAhfwI",
    "name": "Water Tower Kitchen",
    "street_address": "201 Orchard City Drive",
    "city": "Campbell",
    "state": "CA",
    "zip_code": "95008",
    "latitude": 37.2865404,
    "longitude": -121.9439128,
    "website": "http://www.watertowerkitchen.com/",
    "category": "Bar & Restaurant",
    "types": "bar, restaurant, food, point_of_interest, establishment"
  },
  {
    "place_id": "ChIJLQzVAd80joARp-DBui6x0N4",
    "name": "Willard Hicks Campbell",
    "street_address": "280 East Campbell Avenue",
    "city": "Campbell",
    "state": "CA",
    "zip_code": "95008",
    "latitude": 37.2869474,
    "longitude": -121.9444764,
    "website": "http://www.willardhicksgrill.com/",
    "category": "Restaurant",
    "types": "restaurant, food, point_of_interest, establishment"
  },
  {
    "place_id": "ChIJXx0kAZU1joAROlT10HEqZ3w",
    "name": "Out of the Barrel",
    "street_address": "201 Saratoga-Los Gatos Road",
    "city": "Los Gatos",
    "state": "CA",
    "zip_code": "95030",
    "latitude": 37.2288432,
    "longitude": -121.9812402,
    "website": "https://www.outofthebarreltaproom.com/",
    "category": "Bar & Restaurant",
    "types": "bar, restaurant, food, point_of_interest, establishment"
  },
  {
    "place_id": "ChIJfR33I-41joARPuGYOXteppk",
    "name": "Double D's Sports Grille",
    "street_address": "354 North Santa Cruz Avenue",
    "city": "Los Gatos",
    "state": "CA",
    "zip_code": "95030",
    "latitude": 37.2285665,
    "longitude": -121.9808444,
    "website": "https://doubleds.com/",
    "category": "Bar & Restaurant",
    "types": "restaurant, bar, food, point_of_interest, establishment"
  },
  {
    "place_id": "ChIJ4XoDD_A1joARpJIO8llAIU4",
    "name": "Loma Brewing Company",
    "street_address": "130 North Santa Cruz Avenue",
    "city": "Los Gatos",
    "state": "CA",
    "zip_code": "95030",
    "latitude": 37.2252532,
    "longitude": -121.9823919,
    "website": "http://www.lomabrew.com/",
    "category": "Bar & Restaurant",
    "types": "bar, restaurant, food, point_of_interest, establishment"
  },
  {
    "place_id": "ChIJixfEp2g1joARTefRO3IPD-w",
    "name": "Shepherd & Sims",
    "street_address": "15970 Los Gatos Boulevard",
    "city": "Los Gatos",
    "state": "CA",
    "zip_code": "95032",
    "latitude": 37.236436,
    "longitude": -121.9616003,
    "website": "https://shepherdandsims.com/",
    "category": "Bar & Restaurant",
    "types": "restaurant, night_club, bar, food, point_of_interest, establishment"
  },
  {
    "place_id": "ChIJW0VC5MY1joARcm_mal5zeos",
    "name": "The Happy Hound of Los Gatos",
    "street_address": "15899 Los Gatos Boulevard",
    "city": "Los Gatos",
    "state": "CA",
    "zip_code": "95032",
    "latitude": 37.2376151,
    "longitude": -121.9624861,
    "website": "https://www.happyhoundlg.com/",
    "category": "Restaurant",
    "types": "restaurant, food, point_of_interest, establishment"
  },
  {
    "place_id": "ChIJoYEYrO01joARomjCi714EjI",
    "name": "The Bywater",
    "street_address": "532 North Santa Cruz Avenue",
    "city": "Los Gatos",
    "state": "CA",
    "zip_code": "95030",
    "latitude": 37.23276509999999,
    "longitude": -121.9789944,
    "website": "http://www.thebywaterca.com/",
    "category": "Bar & Restaurant",
    "types": "bar, restaurant, food, point_of_interest, establishment"
  },
  {
    "place_id": "ChIJL9jKq-01joARbAvbnjkxq80",
    "name": "Tasting House",
    "street_address": "368 Village Lane",
    "city": "Los Gatos",
    "state": "CA",
    "zip_code": "95030",
    "latitude": 37.2283045,
    "longitude": -121.9805521,
    "website": "https://tastinghouse.com/",
    "category": "Bar & Restaurant",
    "types": "restaurant, bar, food, point_of_interest, establishment"
  },
  {
    "place_id": "ChIJQ5znzy81joARYfVFM7GDk_A",
    "name": "Los Gatos Tavern",
    "street_address": "140 South Santa Cruz Avenue",
    "city": "Los Gatos",
    "state": "CA",
    "zip_code": "95030",
    "latitude": 37.2210348,
    "longitude": -121.9852625,
    "website": "https://www.tollhousehotel.com/los-gatos-tavern/",
    "category": "Bar & Restaurant",
    "types": "restaurant, bar, food, point_of_interest, establishment"
  },
  {
    "place_id": "ChIJN7-2wuI1joAR_8OOyrY9LVA",
    "name": "Hercules Draft House & Cantina",
    "street_address": "165 Saratoga-Los Gatos Road",
    "city": "Los Gatos",
    "state": "CA",
    "zip_code": "95030",
    "latitude": 37.2280668,
    "longitude": -121.979877,
    "website": "http://herculesdrafthouse.com/",
    "category": "Restaurant",
    "types": "restaurant, point_of_interest, food, establishment"
  },
  {
    "place_id": "ChIJT1Z1aEo1joARXvsgGkY7nw0",
    "name": "Los Gatos Soda Works",
    "street_address": "21 College Avenue",
    "city": "Los Gatos",
    "state": "CA",
    "zip_code": "95030",
    "latitude": 37.22071849999999,
    "longitude": -121.9807775,
    "website": "http://losgatossodaworks.com/",
    "category": "Bar & Restaurant",
    "types": "bar, restaurant, point_of_interest, food, establishment"
  },
  {
    "place_id": "ChIJcak6sOQ1joAR5RyAygplZ94",
    "name": "Purple Onion Caf\u00e9",
    "street_address": "26 East Main Street",
    "city": "Los Gatos",
    "state": "CA",
    "zip_code": "95030",
    "latitude": 37.221181,
    "longitude": -121.980818,
    "website": "http://www.purpleonionca.com/",
    "category": "Restaurant",
    "types": "cafe, restaurant, food, point_of_interest, establishment"
  },
  {
    "place_id": "ChIJ-7GGxiQ1joARzVPIcZ7HGwY",
    "name": "Telef\u00e8ric Barcelona Los Gatos",
    "street_address": "50 University Avenue",
    "city": "Los Gatos",
    "state": "CA",
    "zip_code": "95030",
    "latitude": 37.22316730000001,
    "longitude": -121.9813518,
    "website": "https://www.telefericbarcelona.com/",
    "category": "Restaurant",
    "types": "restaurant, food, point_of_interest, establishment"
  },
  {
    "place_id": "ChIJqRyPt-Q1joAR9Xwc6PVDFLc",
    "name": "Southern Kitchen Los Gatos",
    "street_address": "27 East Main Street",
    "city": "Los Gatos",
    "state": "CA",
    "zip_code": "95030",
    "latitude": 37.221437,
    "longitude": -121.980906,
    "website": "http://www.southernkitchenlg.com/",
    "category": "Restaurant",
    "types": "cafe, store, restaurant, food, point_of_interest, establishment"
  },
  {
    "place_id": "ChIJb6_JDDg1joARTE8h8Ul67MM",
    "name": "Mix Huevos - Breakfast & Lunch",
    "street_address": "5365 Camden Avenue",
    "city": "San Jose",
    "state": "CA",
    "zip_code": "95124",
    "latitude": 37.24136919999999,
    "longitude": -121.9051648,
    "website": "https://www.mixhuevos.com/",
    "category": "Bar & Restaurant",
    "types": "bar, restaurant, food, point_of_interest, establishment"
  },
  {
    "place_id": "ChIJaRodBR01joARseqrKoAIhUE",
    "name": "ABVE The Basics",
    "street_address": "2705 Union Avenue",
    "city": "San Jose",
    "state": "CA",
    "zip_code": "95124",
    "latitude": 37.2721778,
    "longitude": -121.9338692,
    "website": "http://www.abvethebasics.com/",
    "category": "Restaurant",
    "types": "restaurant, food, point_of_interest, establishment"
  },
  {
    "place_id": "ChIJGfxWDe41joAR7TLqseLCaDE",
    "name": "Enoteca La Storia",
    "street_address": "416 North Santa Cruz Avenue",
    "city": "Los Gatos",
    "state": "CA",
    "zip_code": "95030",
    "latitude": 37.2295928,
    "longitude": -121.9800061,
    "website": "http://www.enotecalastoria.com/",
    "category": "Bar & Restaurant",
    "types": "bar, restaurant, food, point_of_interest, establishment"
  },
  {
    "place_id": "ChIJ9aqU2gc2joAR7LEZx9tij_w",
    "name": "107 Bistro & Wine Bar",
    "street_address": "300 College Avenue",
    "city": "Los Gatos",
    "state": "CA",
    "zip_code": "95030",
    "latitude": 37.2134989,
    "longitude": -121.9812424,
    "website": "https://www.testarossa.com/bistro107/",
    "category": "Bar & Restaurant",
    "types": "restaurant, bar, food, point_of_interest, establishment"
  },
  {
    "place_id": "ChIJ3zFe_Ag1joARbViWHzBQPTY",
    "name": "The Garret Station",
    "street_address": "14101 Winchester Boulevard",
    "city": "Los Gatos",
    "state": "CA",
    "zip_code": "95032",
    "latitude": 37.2629026,
    "longitude": -121.9615014,
    "website": "https://www.jakessouthbay.com/",
    "category": "Restaurant",
    "types": "meal_takeaway, restaurant, food, point_of_interest, establishment"
  },
  {
    "place_id": "ChIJM4mDAm41joARkHwwrhi0_Ws",
    "name": "Two Pesos Taqueria",
    "street_address": "1452 Pollard Road",
    "city": "Los Gatos",
    "state": "CA",
    "zip_code": "95032",
    "latitude": 37.2642112,
    "longitude": -121.9831148,
    "website": null,
    "category": "Restaurant",
    "types": "restaurant, food, point_of_interest, establishment"
  },
  {
    "place_id": "ChIJl2Ypmvs1joAR9ridHGWfpyY",
    "name": "VinoVero Los Gatos",
    "street_address": "326 North Santa Cruz Avenue",
    "city": "Los Gatos",
    "state": "CA",
    "zip_code": "95030",
    "latitude": 37.2280969,
    "longitude": -121.9811425,
    "website": "http://www.vinoverousa.com/",
    "category": "Bar & Restaurant",
    "types": "bar, restaurant, point_of_interest, food, establishment"
  },
  {
    "place_id": "ChIJNQMplPo1joARiba8afWcSe8",
    "name": "The Lexington House",
    "street_address": "40 North Santa Cruz Avenue",
    "city": "Los Gatos",
    "state": "CA",
    "zip_code": "95030",
    "latitude": 37.2238204,
    "longitude": -121.9830774,
    "website": "http://www.thelexlg.com/",
    "category": "Restaurant",
    "types": "restaurant, food, point_of_interest, establishment"
  },
  {
    "place_id": "ChIJRQOCvWa0j4ARlxoULrHKCmg",
    "name": "DC Tap House",
    "street_address": "10700 Club House Lane",
    "city": "Cupertino",
    "state": "CA",
    "zip_code": "95014",
    "latitude": 37.3114919,
    "longitude": -122.0657608,
    "website": "https://www.playdeepcliff.com/course/facilities/dc-taphouse",
    "category": "Restaurant",
    "types": "restaurant, food, point_of_interest, establishment"
  },
  {
    "place_id": "ChIJUa0tC95KjoARNsmM3_2jV4o",
    "name": "Big Basin Burger Bar",
    "street_address": "14413 Big Basin Way",
    "city": "Saratoga",
    "state": "CA",
    "zip_code": "95070",
    "latitude": 37.2590198,
    "longitude": -122.0325804,
    "website": "http://www.bbbbsaratoga.com/",
    "category": "Restaurant",
    "types": "restaurant, food, point_of_interest, establishment"
  },
  {
    "place_id": "ChIJDeWDnpbKj4ARm2TWrgF7Riw",
    "name": "Applebee's Grill + Bar",
    "street_address": "555 Saratoga Avenue",
    "city": "San Jose",
    "state": "CA",
    "zip_code": "95129",
    "latitude": 37.3167376,
    "longitude": -121.9759709,
    "website": "https://restaurants.applebees.com/en-us/ca/san-jose/555-saratoga-ave.-95095?utm_source=google&utm_medium=organic&utm_campaign=google_my_business&utm_term=95095&utm_content=website",
    "category": "Bar & Restaurant",
    "types": "restaurant, bar, food, point_of_interest, establishment"
  },
  {
    "place_id": "ChIJW7O1oOBKjoARQeTZJcJp_Hg",
    "name": "Pisco Bar",
    "street_address": "14486 Big Basin Way",
    "city": "Saratoga",
    "state": "CA",
    "zip_code": "95070",
    "latitude": 37.2574603,
    "longitude": -122.0336808,
    "website": "https://www.piscobarsaratoga.com/",
    "category": "Bar & Restaurant",
    "types": "bar, restaurant, point_of_interest, food, establishment"
  },
  {
    "place_id": "ChIJxZmBTarKj4ARDJY_gU_6Rzo",
    "name": "Buffalo Wild Wings",
    "street_address": "1620 Saratoga Avenue",
    "city": "San Jose",
    "state": "CA",
    "zip_code": "95129",
    "latitude": 37.2929143,
    "longitude": -121.9901476,
    "website": "https://www.buffalowildwings.com/locations/us/ca/san-jose/1620-saratoga-ave/sports-bar-788?utm_source=google%20my%20business&utm_medium=organic&utm_campaign=website%20link",
    "category": "Bar & Restaurant",
    "types": "meal_takeaway, bar, restaurant, food, point_of_interest, establishment"
  },
  {
    "place_id": "ChIJ-23DTdhLjoARVKzRRYAijRI",
    "name": "Anchors Fish & Chips And Seafood Grill",
    "street_address": "14441 Big Basin Way",
    "city": "Saratoga",
    "state": "CA",
    "zip_code": "95070",
    "latitude": 37.258468,
    "longitude": -122.0331126,
    "website": "https://anchorsgrill.com/sa",
    "category": "Restaurant",
    "types": "restaurant, point_of_interest, food, establishment"
  },
  {
    "place_id": "ChIJ5y6MZxRLjoARoHIYM0MjTiM",
    "name": "The Heid",
    "street_address": "20645 4th Street",
    "city": "Saratoga",
    "state": "CA",
    "zip_code": "95070",
    "latitude": 37.2577508,
    "longitude": -122.0346215,
    "website": "https://www.theheid.com/",
    "category": "Bar & Restaurant",
    "types": "lodging, bar, restaurant, point_of_interest, food, establishment"
  },
  {
    "place_id": "ChIJ_4tM9a7Kj4AR6H2VlsGfWfM",
    "name": "Holder\u2019s Country Inn",
    "street_address": "1424 Saratoga Avenue",
    "city": "San Jose",
    "state": "CA",
    "zip_code": "95129",
    "latitude": 37.2976579,
    "longitude": -121.9846784,
    "website": null,
    "category": "Restaurant",
    "types": "restaurant, food, point_of_interest, establishment"
  },
  {
    "place_id": "ChIJIW-l0R61j4ARrbJY-NGpY5Q",
    "name": "Bobbi's Coffee Shop & Cafe",
    "street_address": "1361 South De Anza Boulevard",
    "city": "Cupertino",
    "state": "CA",
    "zip_code": "95014",
    "latitude": 37.29928930000001,
    "longitude": -122.0326171,
    "website": "http://www.bobbiscafe.com/",
    "category": "Restaurant",
    "types": "cafe, store, restaurant, food, point_of_interest, establishment"
  },
  {
    "place_id": "ChIJfRWQ27zLj4ARTtZ9HmLp4Y8",
    "name": "Jack's Restaurant & Bar",
    "street_address": "1502 Saratoga Avenue",
    "city": "San Jose",
    "state": "CA",
    "zip_code": "95129",
    "latitude": 37.2946873,
    "longitude": -121.9880546,
    "website": "https://www.ilovejacks.com/",
    "category": "Restaurant",
    "types": "restaurant, food, point_of_interest, establishment"
  },
  {
    "place_id": "ChIJp9rLcYK1j4ARCHyoKYAwLtA",
    "name": "Super Duper Burgers",
    "street_address": "5399 Prospect Road",
    "city": "San Jose",
    "state": "CA",
    "zip_code": "95129",
    "latitude": 37.2927358,
    "longitude": -121.9970944,
    "website": "https://superduperburgers.com/",
    "category": "Restaurant",
    "types": "restaurant, food, point_of_interest, establishment"
  },
  {
    "place_id": "ChIJXcisMQe1j4ARtlM0cX8f3bE",
    "name": "Aqui Cupertino",
    "street_address": "10630 South De Anza Boulevard",
    "city": "Cupertino",
    "state": "CA",
    "zip_code": "95014",
    "latitude": 37.3140052,
    "longitude": -122.0317953,
    "website": "http://www.aquicalmex.com/",
    "category": "Bar & Restaurant",
    "types": "bar, restaurant, food, point_of_interest, establishment"
  },
  {
    "place_id": "ChIJAb33GUS0j4ARjGKbpYi5jR4",
    "name": "Lazy Dog Restaurant & Bar",
    "street_address": "19359 Stevens Creek Boulevard",
    "city": "Cupertino",
    "state": "CA",
    "zip_code": "95014",
    "latitude": 37.3234036,
    "longitude": -122.0086672,
    "website": "https://www.lazydogrestaurants.com/locations/cupertino-ca",
    "category": "Bar & Restaurant",
    "types": "bar, restaurant, food, point_of_interest, establishment"
  },
  {
    "place_id": "ChIJG7Ymx0W0j4ARsvxfBWynJZg",
    "name": "Paul & Eddie's Monta Vista Inn",
    "street_address": "21619 Stevens Creek Boulevard",
    "city": "Cupertino",
    "state": "CA",
    "zip_code": "95014",
    "latitude": 37.3231584,
    "longitude": -122.0515871,
    "website": "http://paulandeddies.com/",
    "category": "Bar & Restaurant",
    "types": "bar, restaurant, food, point_of_interest, establishment"
  },
  {
    "place_id": "ChIJ5cDDPpa1j4ARj2v92aO3LRc",
    "name": "Duke of Edinburgh",
    "street_address": "10801 North Wolfe Road",
    "city": "Cupertino",
    "state": "CA",
    "zip_code": "95014",
    "latitude": 37.3349404,
    "longitude": -122.0148164,
    "website": "http://theduke.com/",
    "category": "Bar & Restaurant",
    "types": "bar, restaurant, food, point_of_interest, establishment"
  },
  {
    "place_id": "ChIJM75zpLa1j4ARd8IiWxkW30g",
    "name": "BJ's Restaurant & Brewhouse",
    "street_address": "10690 North De Anza Boulevard",
    "city": "Cupertino",
    "state": "CA",
    "zip_code": "95014",
    "latitude": 37.33133169999999,
    "longitude": -122.0318142,
    "website": "https://www.bjsrestaurants.com/locations/ca/cupertino?utm_source=google&utm_medium=organic&utm_campaign=google_my_business",
    "category": "Bar & Restaurant",
    "types": "restaurant, bar, point_of_interest, food, establishment"
  },
  {
    "place_id": "ChIJdTgdE0K0j4ARmZMIqKDKr1I",
    "name": "The Blue Pheasant Restaurant",
    "street_address": "22100 Stevens Creek Boulevard",
    "city": "Cupertino",
    "state": "CA",
    "zip_code": "95014",
    "latitude": 37.322639,
    "longitude": -122.0596112,
    "website": "https://www.thebluepheasant.com/",
    "category": "Bar & Restaurant",
    "types": "bar, restaurant, food, point_of_interest, establishment"
  },
  {
    "place_id": "ChIJ0x5zmEuxj4AR9l_uxDv9qUw",
    "name": "Tom's Depot Cafe",
    "street_address": "991 Fremont Avenue",
    "city": "Los Altos",
    "state": "CA",
    "zip_code": "94024",
    "latitude": 37.352988,
    "longitude": -122.087373,
    "website": "https://order.toasttab.com/online/toms-depot-cafe-991-fremont-avenue",
    "category": "Restaurant",
    "types": "restaurant, food, point_of_interest, establishment"
  },
  {
    "place_id": "ChIJGV6AAwS1j4ARpvQie7-H_h8",
    "name": "Holder's Country Inn",
    "street_address": "10088 North Wolfe Road",
    "city": "Cupertino",
    "state": "CA",
    "zip_code": "95014",
    "latitude": 37.3253082,
    "longitude": -122.0139176,
    "website": "http://www.cupertinocountryinn.com/",
    "category": "Bar & Restaurant",
    "types": "bakery, bar, store, restaurant, food, point_of_interest, establishment"
  },
  {
    "place_id": "ChIJb2JRT_C1j4ARzhXZMd-sRY4",
    "name": "Cocohodo Sunnyvale",
    "street_address": "1082 East El Camino Real",
    "city": "Sunnyvale",
    "state": "CA",
    "zip_code": "94087",
    "latitude": 37.3516849,
    "longitude": -122.0023634,
    "website": "http://www.cocohodosunnyvale.com/",
    "category": "Restaurant",
    "types": "cafe, bakery, store, restaurant, food, point_of_interest, establishment"
  },
  {
    "place_id": "ChIJTRv-U1y2j4ARVu4B_MvvRPE",
    "name": "Fibbar MaGees",
    "street_address": "156 South Murphy Avenue",
    "city": "Sunnyvale",
    "state": "CA",
    "zip_code": "94086",
    "latitude": 37.37661599999999,
    "longitude": -122.029697,
    "website": "https://www.fibbars.com/",
    "category": "Bar & Restaurant",
    "types": "bar, restaurant, food, point_of_interest, establishment"
  },
  {
    "place_id": "ChIJsfMnDjS3j4ARoUdVDMJyqMU",
    "name": "St. Stephen's Green",
    "street_address": "223 Castro Street",
    "city": "Mountain View",
    "state": "CA",
    "zip_code": "94041",
    "latitude": 37.3934292,
    "longitude": -122.0789755,
    "website": "http://www.ststephensgreen.com/",
    "category": "Bar & Restaurant",
    "types": "night_club, bar, restaurant, food, point_of_interest, establishment"
  },
  {
    "place_id": "ChIJuzFtRDS3j4AR1gfuHqaeG7k",
    "name": "Steins Beer Garden & Restaurant",
    "street_address": "895 Villa Street",
    "city": "Mountain View",
    "state": "CA",
    "zip_code": "94041",
    "latitude": 37.3940533,
    "longitude": -122.079885,
    "website": "http://www.steinsbeergarden.com/",
    "category": "Bar & Restaurant",
    "types": "bar, restaurant, food, point_of_interest, establishment"
  },
  {
    "place_id": "ChIJN5Nz71W3j4ARhx5bwpTQEGg",
    "name": "Sports Page",
    "street_address": "1431 Plymouth Street",
    "city": "Mountain View",
    "state": "CA",
    "zip_code": "94043",
    "latitude": 37.4161493,
    "longitude": -122.0786363,
    "website": "https://www.sportspage.bar/",
    "category": "Bar & Restaurant",
    "types": "bar, restaurant, food, point_of_interest, establishment"
  },
  {
    "place_id": "ChIJQdgqhjy3j4ARpiK08gPTor4",
    "name": "The Emerald Hour",
    "street_address": "1625 North Shoreline Boulevard",
    "city": "Mountain View",
    "state": "CA",
    "zip_code": "94043",
    "latitude": 37.4168531,
    "longitude": -122.0775775,
    "website": "https://www.theemeraldhour.com/",
    "category": "Bar & Restaurant",
    "types": "bar, restaurant, food, point_of_interest, establishment"
  },
  {
    "place_id": "ChIJaYSHVTu3j4AR3qgpf6CH1jw",
    "name": "Garrett's Bar & Grill",
    "street_address": "605 Macara Avenue",
    "city": "Sunnyvale",
    "state": "CA",
    "zip_code": "94085",
    "latitude": 37.3961795,
    "longitude": -122.0414341,
    "website": "https://garrett.bar/",
    "category": "Bar & Restaurant",
    "types": "bar, restaurant, food, point_of_interest, establishment"
  },
  {
    "place_id": "ChIJh1Y1MA23j4AREJz6Kxl75Uo",
    "name": "Roger Bar and Restaurant",
    "street_address": "800 Moffett Boulevard",
    "city": "Mountain View",
    "state": "CA",
    "zip_code": "94043",
    "latitude": 37.4071896,
    "longitude": -122.0673655,
    "website": "http://www.rogerbarandrestaurant.com/",
    "category": "Bar & Restaurant",
    "types": "bar, restaurant, food, point_of_interest, establishment"
  },
  {
    "place_id": "ChIJD7zQ58exj4AR3GdrlEhT-bE",
    "name": "Redwood Grill in Los Altos",
    "street_address": "680 Fremont Avenue",
    "city": "Los Altos",
    "state": "CA",
    "zip_code": "94024",
    "latitude": 37.3610676,
    "longitude": -122.0973643,
    "website": "https://www.rwgrill.com/",
    "category": "Bar & Restaurant",
    "types": "bar, restaurant, food, point_of_interest, establishment"
  },
  {
    "place_id": "ChIJ9aXjGTS3j4AR2Gpu1hs3qU4",
    "name": "Eureka!",
    "street_address": "191 Castro Street",
    "city": "Mountain View",
    "state": "CA",
    "zip_code": "94041",
    "latitude": 37.3938572,
    "longitude": -122.0786726,
    "website": "http://eurekarestaurantgroup.com/blog/locations/mountain-view/",
    "category": "Restaurant",
    "types": "restaurant, food, point_of_interest, establishment"
  },
  {
    "place_id": "ChIJW2ynIPu3j4ARXDXw5S94e0o",
    "name": "Das Bierhauz",
    "street_address": "135 Castro Street",
    "city": "Mountain View",
    "state": "CA",
    "zip_code": "94041",
    "latitude": 37.3944747,
    "longitude": -122.0782518,
    "website": "http://www.dasbierhauz.com/",
    "category": "Bar & Restaurant",
    "types": "cafe, bar, restaurant, food, point_of_interest, establishment"
  },
  {
    "place_id": "ChIJdT4ma122j4AR0BkaMNKAeQ4",
    "name": "Craft House",
    "street_address": "295 East Washington Avenue",
    "city": "Sunnyvale",
    "state": "CA",
    "zip_code": "94086",
    "latitude": 37.375691,
    "longitude": -122.0285675,
    "website": null,
    "category": "Bar & Restaurant",
    "types": "bar, restaurant, food, point_of_interest, establishment"
  },
  {
    "place_id": "ChIJr2AqoJm3j4ARFMnM43xElBQ",
    "name": "Ludwigs Biergarten Mountain View",
    "street_address": "383 Castro Street",
    "city": "Mountain View",
    "state": "CA",
    "zip_code": "94041",
    "latitude": 37.3913986,
    "longitude": -122.0800827,
    "website": "https://www.ludwigsmv.com/",
    "category": "Restaurant",
    "types": "restaurant, food, point_of_interest, establishment"
  },
  {
    "place_id": "ChIJNR-Z3u-wj4ARqG-56lDF-4c",
    "name": "The Post",
    "street_address": "395 Main Street",
    "city": "Los Altos",
    "state": "CA",
    "zip_code": "94022",
    "latitude": 37.377796,
    "longitude": -122.1174993,
    "website": "http://thepostlosaltos.com/",
    "category": "Bar & Restaurant",
    "types": "bar, restaurant, food, point_of_interest, establishment"
  },
  {
    "place_id": "ChIJxwHRCni6j4ARwJt6NK1v-s4",
    "name": "The Courtyard Long Bar & Bistro",
    "street_address": "4320 El Camino Real",
    "city": "Los Altos",
    "state": "CA",
    "zip_code": "94022",
    "latitude": 37.4048436,
    "longitude": -122.1192062,
    "website": "http://www.longbarandbistro.com/",
    "category": "Bar & Restaurant",
    "types": "bar, restaurant, point_of_interest, food, establishment"
  },
  {
    "place_id": "ChIJG9dLUXi6j4AR8GcRkUajeJE",
    "name": "Cabana Cove Restaurant & Bar",
    "street_address": "4290 El Camino Real",
    "city": "Palo Alto",
    "state": "CA",
    "zip_code": "94306",
    "latitude": 37.40584440000001,
    "longitude": -122.121575,
    "website": "https://www.ihg.com/crowneplaza/hotels/us/en/palo-alto/sfoca/hoteldetail/dining",
    "category": "Bar & Restaurant",
    "types": "bar, restaurant, food, point_of_interest, establishment"
  },
  {
    "place_id": "ChIJ9w98lmi3j4ARtvdntneqyEs",
    "name": "Tipsy Putt",
    "street_address": "301 West McKinley Avenue",
    "city": "Sunnyvale",
    "state": "CA",
    "zip_code": "94086",
    "latitude": 37.3748613,
    "longitude": -122.0330566,
    "website": "https://tipsyputt.com/",
    "category": "Bar & Restaurant",
    "types": "bar, restaurant, food, point_of_interest, establishment"
  },
  {
    "place_id": "ChIJ0Z430AG3j4ARXtvP14kuf0o",
    "name": "Metro City Restaurant & Bar",
    "street_address": "151 South Murphy Avenue",
    "city": "Sunnyvale",
    "state": "CA",
    "zip_code": "94086",
    "latitude": 37.3768932,
    "longitude": -122.0303595,
    "website": "https://metrocityrestaurants.com/",
    "category": "Bar & Restaurant",
    "types": "bar, restaurant, point_of_interest, food, establishment"
  },
  {
    "place_id": "ChIJbcpQ1Gi3j4ARMzbKYWm1dzI",
    "name": "The SpaceBar",
    "street_address": "South Akron Road",
    "city": "Mountain View",
    "state": "CA",
    "zip_code": "94043",
    "latitude": 37.4121743,
    "longitude": -122.0556255,
    "website": "http://nasaspacebar.com/",
    "category": "Bar & Restaurant",
    "types": "bar, meal_takeaway, restaurant, food, point_of_interest, establishment"
  },
  {
    "place_id": "ChIJrci684u3j4AR_CTDtm6SQdw",
    "name": "OFF THE RAILS BREWING CO.",
    "street_address": "111 South Murphy Avenue",
    "city": "Sunnyvale",
    "state": "CA",
    "zip_code": "94086",
    "latitude": 37.3773844,
    "longitude": -122.0301123,
    "website": "http://offtherailsbrewing.com/",
    "category": "Restaurant",
    "types": "restaurant, food, point_of_interest, establishment"
  },
  {
    "place_id": "ChIJZSOjJjS3j4AR1laX4fkSz08",
    "name": "Olympus Caffe & Bakery",
    "street_address": "135 Castro Street",
    "city": "Mountain View",
    "state": "CA",
    "zip_code": "94041",
    "latitude": 37.3944747,
    "longitude": -122.0782518,
    "website": "https://cafeolympus.com/",
    "category": "Bar & Restaurant",
    "types": "restaurant, bar, cafe, food, point_of_interest, establishment"
  },
  {
    "place_id": "ChIJlTUD1AGxj4ARuBRu9Dj2OxE",
    "name": "Fairchilds Public House",
    "street_address": "409 San Antonio Road",
    "city": "Mountain View",
    "state": "CA",
    "zip_code": "94040",
    "latitude": 37.4037174,
    "longitude": -122.1103688,
    "website": "https://www.fairchildspublichouse.com/",
    "category": "Restaurant",
    "types": "restaurant, point_of_interest, food, establishment"
  },
  {
    "place_id": "ChIJJ8bSsl22j4ARNPmH97XSyfk",
    "name": "The Oxford Kitchen and Gastropub",
    "street_address": "195 South Murphy Avenue",
    "city": "Sunnyvale",
    "state": "CA",
    "zip_code": "94086",
    "latitude": 37.37622,
    "longitude": -122.0305933,
    "website": "http://www.theoxfordca.com/",
    "category": "Bar & Restaurant",
    "types": "bar, restaurant, food, point_of_interest, establishment"
  },
  {
    "place_id": "ChIJN2EgyMa7j4ARX0jGUEEfMoM",
    "name": "Ike's Love & Sandwiches",
    "street_address": "1020 North Rengstorff Avenue",
    "city": "Mountain View",
    "state": "CA",
    "zip_code": "94043",
    "latitude": 37.41997709999999,
    "longitude": -122.0960991,
    "website": "https://locations.ikessandwich.com/ca/mountainview/140/?utm_source=gmb&utm_medium=profile&utm_campaign=mountainview-location-page",
    "category": "Restaurant",
    "types": "meal_delivery, meal_takeaway, restaurant, food, point_of_interest, establishment"
  },
  {
    "place_id": "ChIJ8ZTVZJmwj4ARQFv0RXspg3A",
    "name": "Chili's Grill & Bar",
    "street_address": "2560 West El Camino Real",
    "city": "Mountain View",
    "state": "CA",
    "zip_code": "94040",
    "latitude": 37.401047,
    "longitude": -122.110946,
    "website": "https://www.chilis.com/locations/us/california/mountain-view/mountain-view?utm_source=google&utm_medium=local&utm_campaign=Chilis",
    "category": "Bar & Restaurant",
    "types": "restaurant, bar, point_of_interest, food, establishment"
  },
  {
    "place_id": "ChIJH-ZyTvS3j4ARJ9KPrgk3DLM",
    "name": "Fuego Sports Bar and Club",
    "street_address": "140 South Murphy Avenue",
    "city": "Sunnyvale",
    "state": "CA",
    "zip_code": "94086",
    "latitude": 37.3770122,
    "longitude": -122.0299483,
    "website": "http://fuegosportsbarandclub.com/",
    "category": "Bar & Restaurant",
    "types": "night_club, bar, restaurant, food, point_of_interest, establishment"
  },
  {
    "place_id": "ChIJbXQkXe6wj4ARdvBYlDi9YNM",
    "name": "State of Mind Public House and Pizzeria",
    "street_address": "101 Plaza North",
    "city": "Los Altos",
    "state": "CA",
    "zip_code": "94022",
    "latitude": 37.3803611,
    "longitude": -122.1157222,
    "website": "http://www.stateofmindpublichouse.com/",
    "category": "Bar & Restaurant",
    "types": "bar, restaurant, food, point_of_interest, establishment"
  },
  {
    "place_id": "ChIJ5TATx--wj4ARZdlFK-M2_O4",
    "name": "Rustic House Oyster Bar & Grill - Los Altos",
    "street_address": "295 Main Street",
    "city": "Los Altos",
    "state": "CA",
    "zip_code": "94022",
    "latitude": 37.378285,
    "longitude": -122.1164972,
    "website": "http://rustichouselosaltos.com/",
    "category": "Bar & Restaurant",
    "types": "bar, restaurant, food, point_of_interest, establishment"
  },
  {
    "place_id": "ChIJNWwtKWOxj4ARnH1f_eQ5cHM",
    "name": "Bluestone Lane Los Altos Caf\u00e9",
    "street_address": "288 1st Street",
    "city": "Los Altos",
    "state": "CA",
    "zip_code": "94022",
    "latitude": 37.37723090000001,
    "longitude": -122.1177688,
    "website": "https://bluestonelane.com/cafes/los-altos-cafe-288-1st-st/?y_source=1_MTM0MDQ0NjgtNzE1LWxvY2F0aW9uLndlYnNpdGU%3D",
    "category": "Restaurant",
    "types": "cafe, store, restaurant, food, point_of_interest, establishment"
  },
  {
    "place_id": "ChIJ-0RVcTS3j4ARDEqD2bNEFrc",
    "name": "Mantra India Mountain View",
    "street_address": "288 Castro Street",
    "city": "Mountain View",
    "state": "CA",
    "zip_code": "94041",
    "latitude": 37.3928448,
    "longitude": -122.0797636,
    "website": "https://www.mantraindiausa.com/",
    "category": "Bar & Restaurant",
    "types": "bar, restaurant, point_of_interest, food, establishment"
  },
  {
    "place_id": "ChIJu_26IQm6j4AR_Pl-EyDdOwU",
    "name": "Bajis Cafe",
    "street_address": "2423 Old Middlefield Way",
    "city": "Mountain View",
    "state": "CA",
    "zip_code": "94043",
    "latitude": 37.4144944,
    "longitude": -122.0980334,
    "website": "https://bajiscafe.com/",
    "category": "Restaurant",
    "types": "meal_delivery, cafe, restaurant, food, point_of_interest, establishment"
  },
  {
    "place_id": "ChIJyS7o4Zuwj4ARon29W1GsXJo",
    "name": "The Counter",
    "street_address": "2580 West El Camino Real",
    "city": "Mountain View",
    "state": "CA",
    "zip_code": "94040",
    "latitude": 37.400881,
    "longitude": -122.1121778,
    "website": "https://www.thecounter.com/stores/mountain-view/32033?utm_source=gmb&utm_medium=gmb&utm_campaign=gmb&utm_id=gmb",
    "category": "Restaurant",
    "types": "restaurant, food, point_of_interest, establishment"
  },
  {
    "place_id": "ChIJq_CzN-6wj4ARTyyNEspj-Es",
    "name": "Rick's Cafe",
    "street_address": "205 State Street",
    "city": "Los Altos",
    "state": "CA",
    "zip_code": "94022",
    "latitude": 37.379399,
    "longitude": -122.116369,
    "website": "http://www.rickscafeonline.com/",
    "category": "Restaurant",
    "types": "cafe, restaurant, food, point_of_interest, establishment"
  },
  {
    "place_id": "ChIJ03QfnzO3j4ARC0p7TSYoCpA",
    "name": "Cascal",
    "street_address": "400 Castro Street",
    "city": "Mountain View",
    "state": "CA",
    "zip_code": "94041",
    "latitude": 37.39119369999999,
    "longitude": -122.0810107,
    "website": "http://www.cascalmv.com/",
    "category": "Bar & Restaurant",
    "types": "bar, restaurant, point_of_interest, food, establishment"
  },
  {
    "place_id": "ChIJAQaKvt22j4ARN-qH7yl2wH8",
    "name": "Himalayan Kitchen",
    "street_address": "820 East El Camino Real",
    "city": "Mountain View",
    "state": "CA",
    "zip_code": "94040",
    "latitude": 37.3772187,
    "longitude": -122.0626994,
    "website": "https://himalayan-kitchen.com/",
    "category": "Restaurant",
    "types": "store, restaurant, food, point_of_interest, establishment"
  },
  {
    "place_id": "ChIJxUf2lnm6j4AROxY8N4vkocM",
    "name": "Dinah's Poolside Restaurant",
    "street_address": "4261 El Camino Real",
    "city": "Palo Alto",
    "state": "CA",
    "zip_code": "94306",
    "latitude": 37.4078109,
    "longitude": -122.1199878,
    "website": "http://dinahshotel.com/",
    "category": "Bar & Restaurant",
    "types": "bar, restaurant, point_of_interest, food, establishment"
  },
  {
    "place_id": "ChIJiXr_Zze7j4ARgRtbgk7Len4",
    "name": "The Patio @ Rudy's",
    "street_address": "412 Emerson Street",
    "city": "Palo Alto",
    "state": "CA",
    "zip_code": "94301",
    "latitude": 37.4451556,
    "longitude": -122.1639389,
    "website": "http://www.thepatiopa.com/",
    "category": "Bar & Restaurant",
    "types": "night_club, bar, restaurant, food, point_of_interest, establishment"
  },
  {
    "place_id": "ChIJ64ktUF67j4ARKikpyeVJKPA",
    "name": "Menlo Tavern",
    "street_address": "100 El Camino Real",
    "city": "Menlo Park",
    "state": "CA",
    "zip_code": "94025",
    "latitude": 37.4477243,
    "longitude": -122.1721992,
    "website": "https://www.menlotavern.com/?utm_source=google&utm_medium=organic&utm_campaign=business-listing",
    "category": "Restaurant",
    "types": "restaurant, food, point_of_interest, establishment"
  },
  {
    "place_id": "ChIJkTR5DEy7j4ARg9mfRMQbDQc",
    "name": "Horsefeather Palo Alto",
    "street_address": "855 El Camino Real",
    "city": "Palo Alto",
    "state": "CA",
    "zip_code": "94301",
    "latitude": 37.4390997,
    "longitude": -122.158426,
    "website": "https://www.horsefeather.com/",
    "category": "Bar & Restaurant",
    "types": "restaurant, bar, food, point_of_interest, establishment"
  },
  {
    "place_id": "ChIJt8dAXemkj4ARXDrSoUeLfh0",
    "name": "Dutch Goose",
    "street_address": "3567 Alameda de las Pulgas",
    "city": "Menlo Park",
    "state": "CA",
    "zip_code": "94025",
    "latitude": 37.4320471,
    "longitude": -122.2015788,
    "website": "http://www.dutchgoose.net/",
    "category": "Bar & Restaurant",
    "types": "bar, restaurant, food, point_of_interest, establishment"
  },
  {
    "place_id": "ChIJxWOWGDq7j4ARpaRJE2WTdnA",
    "name": "Scotty's Bar",
    "street_address": "548 Emerson Street",
    "city": "Palo Alto",
    "state": "CA",
    "zip_code": "94301",
    "latitude": 37.4440111,
    "longitude": -122.1619583,
    "website": "http://www.scottysbarpa.com/",
    "category": "Bar & Restaurant",
    "types": "bar, night_club, restaurant, point_of_interest, food, establishment"
  },
  {
    "place_id": "ChIJScdLwDm7j4ARCbo6bng01sU",
    "name": "Local Union 271",
    "street_address": "271 University Avenue",
    "city": "Palo Alto",
    "state": "CA",
    "zip_code": "94301",
    "latitude": 37.44583859999999,
    "longitude": -122.1621916,
    "website": "https://www.localunion271.com/",
    "category": "Restaurant",
    "types": "restaurant, food, point_of_interest, establishment"
  },
  {
    "place_id": "ChIJy8rJ-wu7j4ARkZQLzgfSPto",
    "name": "EVGR Pub & Beer Garden",
    "street_address": "716 Serra Street",
    "city": "Stanford",
    "state": "CA",
    "zip_code": "94305",
    "latitude": 37.4267032,
    "longitude": -122.1575336,
    "website": "https://rde.stanford.edu/hospitality/evgr-pub",
    "category": "Bar & Restaurant",
    "types": "restaurant, bar, food, point_of_interest, establishment"
  },
  {
    "place_id": "ChIJxRoy-X27j4AR_bK2I_FqBVg",
    "name": "San Agus Cocina Urbana & Cocktails",
    "street_address": "115 Hamilton Avenue",
    "city": "Palo Alto",
    "state": "CA",
    "zip_code": "94301",
    "latitude": 37.4430253,
    "longitude": -122.1626141,
    "website": "https://www.sanagus.com/",
    "category": "Bar & Restaurant",
    "types": "bar, restaurant, food, point_of_interest, establishment"
  },
  {
    "place_id": "ChIJdwmtjjm7j4ARuuLA95wq7wQ",
    "name": "Nola",
    "street_address": "535 Ramona Street",
    "city": "Palo Alto",
    "state": "CA",
    "zip_code": "94301",
    "latitude": 37.4449386,
    "longitude": -122.1614268,
    "website": "http://www.nolas.com/",
    "category": "Bar & Restaurant",
    "types": "night_club, bar, restaurant, food, point_of_interest, establishment"
  },
  {
    "place_id": "ChIJRbsp9uW6j4ARyUJHxK7xFX8",
    "name": "La Bodeguita del Medio",
    "street_address": "463 California Avenue",
    "city": "Palo Alto",
    "state": "CA",
    "zip_code": "94306",
    "latitude": 37.4254329,
    "longitude": -122.1452003,
    "website": "https://www.labodeguita.com/",
    "category": "Bar & Restaurant",
    "types": "restaurant, night_club, bar, food, point_of_interest, establishment"
  },
  {
    "place_id": "ChIJHxV3P3a7j4AR4tmrxPF8-4o",
    "name": "President's Terrace",
    "street_address": "488 University Avenue",
    "city": "Palo Alto",
    "state": "CA",
    "zip_code": "94301",
    "latitude": 37.44798850000001,
    "longitude": -122.1592782,
    "website": "https://www.presidentsterrace.com/?y_source=1_MTA2Njc4ODcxNy03MTUtbG9jYXRpb24ud2Vic2l0ZQ%3D%3D",
    "category": "Bar & Restaurant",
    "types": "restaurant, bar, food, point_of_interest, establishment"
  },
  {
    "place_id": "ChIJF_y_20ejj4AR9R7-uYnJtOM",
    "name": "Freewheel Brewing Company - Best Brewery and Restaurant in Redwood City",
    "street_address": "3736 Florence Street",
    "city": "Redwood City",
    "state": "CA",
    "zip_code": "94063",
    "latitude": 37.4782969,
    "longitude": -122.1870338,
    "website": "http://freewheelbrewing.com/",
    "category": "Bar & Restaurant",
    "types": "bar, restaurant, food, point_of_interest, establishment"
  },
  {
    "place_id": "ChIJE1BxNq6kj4ARm-YgnncZtO4",
    "name": "British Bankers Club",
    "street_address": "555 Santa Cruz Avenue",
    "city": "Menlo Park",
    "state": "CA",
    "zip_code": "94025",
    "latitude": 37.45372909999999,
    "longitude": -122.1826871,
    "website": "http://www.britishbankersclub.com/",
    "category": "Bar & Restaurant",
    "types": "restaurant, bar, food, point_of_interest, establishment"
  },
  {
    "place_id": "ChIJ0cHjuEqjj4ARXVD3djzV2fI",
    "name": "Porta Blu",
    "street_address": "200 Independence Drive",
    "city": "Menlo Park",
    "state": "CA",
    "zip_code": "94025",
    "latitude": 37.4826448,
    "longitude": -122.1769351,
    "website": "https://www.portablurestaurant.com/",
    "category": "Bar & Restaurant",
    "types": "bar, restaurant, food, point_of_interest, establishment"
  },
  {
    "place_id": "ChIJyaiRIjq7j4ARpFp0WP-WoNA",
    "name": "Palo Alto Creamery",
    "street_address": "566 Emerson Street",
    "city": "Palo Alto",
    "state": "CA",
    "zip_code": "94301",
    "latitude": 37.44387849999999,
    "longitude": -122.161789,
    "website": "http://www.paloaltocreamery.com/",
    "category": "Restaurant",
    "types": "bakery, store, restaurant, food, point_of_interest, establishment"
  },
  {
    "place_id": "ChIJFzb5MDO7j4ARWg30HzjPZmI",
    "name": "Bazille",
    "street_address": "550 Stanford Shopping Center",
    "city": "Palo Alto",
    "state": "CA",
    "zip_code": "94304",
    "latitude": 37.43910090000001,
    "longitude": -122.1735263,
    "website": "https://www.nordstrom.com/store-details/nordstrom-stanford-shopping-center?utm_source=google&utm_medium=organic&utm_campaign=food&utm_content=22422&utm_channel=low_nd_seo_local&sp_source=google&sp_campaign=food",
    "category": "Restaurant",
    "types": "restaurant, food, point_of_interest, establishment"
  },
  {
    "place_id": "ChIJr7ZAS9S6j4ARIWkGk0FU9xg",
    "name": "The Axe & Palm (TAP)",
    "street_address": "520 Lasuen Mall",
    "city": "Stanford",
    "state": "CA",
    "zip_code": "94305",
    "latitude": 37.4250266,
    "longitude": -122.1704929,
    "website": "https://rde.stanford.edu/hospitality/axe-palm",
    "category": "Restaurant",
    "types": "restaurant, food, point_of_interest, establishment"
  },
  {
    "place_id": "ChIJS_1fcNu6j4ARgHEk1zImtTU",
    "name": "Ray's Grill",
    "street_address": "750 Escondido Road",
    "city": "Stanford",
    "state": "CA",
    "zip_code": "94305",
    "latitude": 37.4234732,
    "longitude": -122.1584172,
    "website": "https://www.raysgrillstanford.com/",
    "category": "Bar & Restaurant",
    "types": "restaurant, bar, food, point_of_interest, establishment"
  },
  {
    "place_id": "ChIJp_VW7eW6j4ARpcOR4xWV7bo",
    "name": "La Boheme",
    "street_address": "415 California Avenue",
    "city": "Palo Alto",
    "state": "CA",
    "zip_code": "94306",
    "latitude": 37.42621939999999,
    "longitude": -122.1446667,
    "website": "http://www.labohemepaloalto.com/",
    "category": "Restaurant",
    "types": "restaurant, point_of_interest, food, establishment"
  },
  {
    "place_id": "ChIJAQB0y8ukj4ARIh3K6QumFHc",
    "name": "Cafe Wisteria",
    "street_address": "75 Arbor Road",
    "city": "Menlo Park",
    "state": "CA",
    "zip_code": "94025",
    "latitude": 37.4415123,
    "longitude": -122.1791504,
    "website": "http://www.cafewisteria.com/",
    "category": "Restaurant",
    "types": "restaurant, food, point_of_interest, establishment"
  },
  {
    "place_id": "ChIJEQbMSzq7j4ARCIzIQRU45og",
    "name": "Buca di Beppo Italian Restaurant",
    "street_address": "643 Emerson Street",
    "city": "Palo Alto",
    "state": "CA",
    "zip_code": "94301",
    "latitude": 37.4435214,
    "longitude": -122.1605738,
    "website": "https://dineatbuca.com/locations/palo-alto/?utm_campaign=local&utm_source=gbp&utm_medium=organic&utm_content=palo-alto",
    "category": "Restaurant",
    "types": "restaurant, point_of_interest, food, establishment"
  },
  {
    "place_id": "ChIJrbqcMa6kj4ARYORVCGFGaI0",
    "name": "Mama Coco Cocina Mexicana",
    "street_address": "1081 El Camino Real",
    "city": "Menlo Park",
    "state": "CA",
    "zip_code": "94025",
    "latitude": 37.4532544,
    "longitude": -122.1827867,
    "website": "https://www.mama-coco.com/",
    "category": "Restaurant",
    "types": "restaurant, food, point_of_interest, establishment"
  },
  {
    "place_id": "ChIJQSEisjC7j4AR3juLmOBOEys",
    "name": "MacArthur Park Restaurant and Bar",
    "street_address": "27 University Avenue",
    "city": "Palo Alto",
    "state": "CA",
    "zip_code": "94301",
    "latitude": 37.4430264,
    "longitude": -122.1655246,
    "website": "http://www.macpark.com/",
    "category": "Bar & Restaurant",
    "types": "bar, restaurant, food, point_of_interest, establishment"
  },
  {
    "place_id": "ChIJ-RTutuW6j4AR4VYL3DZDAvg",
    "name": "Anatolian Kitchen",
    "street_address": "340 California Avenue",
    "city": "Palo Alto",
    "state": "CA",
    "zip_code": "94306",
    "latitude": 37.4270754,
    "longitude": -122.1444095,
    "website": "https://anatoliankitchen.com/",
    "category": "Restaurant",
    "types": "restaurant, food, point_of_interest, establishment"
  },
  {
    "place_id": "ChIJM2JWkk6jj4ARniMrOcsXTnw",
    "name": "State of Mind Public House and Pizzeria",
    "street_address": "3710 Florence Street",
    "city": "Redwood City",
    "state": "CA",
    "zip_code": "94063",
    "latitude": 37.47826269999999,
    "longitude": -122.1874204,
    "website": "http://www.stateofmindpublichouse.com/",
    "category": "Restaurant",
    "types": "restaurant, food, point_of_interest, establishment"
  },
  {
    "place_id": "ChIJY0yKLzq7j4ARNNLYPbJMgN8",
    "name": "Reposado",
    "street_address": "236 Hamilton Avenue",
    "city": "Palo Alto",
    "state": "CA",
    "zip_code": "94301",
    "latitude": 37.4441583,
    "longitude": -122.1609667,
    "website": "http://www.reposadorestaurant.com/",
    "category": "Bar & Restaurant",
    "types": "bar, restaurant, food, point_of_interest, establishment"
  },
  {
    "place_id": "ChIJGaMq8zm7j4ARYe6wItroPNY",
    "name": "The Wine Room",
    "street_address": "520 Ramona Street",
    "city": "Palo Alto",
    "state": "CA",
    "zip_code": "94301",
    "latitude": 37.44482709999999,
    "longitude": -122.1619347,
    "website": "http://www.thepawineroom.com/",
    "category": "Bar & Restaurant",
    "types": "bar, restaurant, food, point_of_interest, establishment"
  },
  {
    "place_id": "ChIJySYS8p-1j4ARZCT6mFLkO9E",
    "name": "St. John's Bar & Grill",
    "street_address": "510 Lawrence Expressway",
    "city": "Sunnyvale",
    "state": "CA",
    "zip_code": "94085",
    "latitude": 37.3825627,
    "longitude": -121.9953639,
    "website": "http://www.stjohnsgrill.com/",
    "category": "Bar & Restaurant",
    "types": "bar, restaurant, food, point_of_interest, establishment"
  },
  {
    "place_id": "ChIJvQFJjt_Jj4ARBdSOaKE_wGo",
    "name": "Laughing Monk Brewing and Gastropub",
    "street_address": "1235 Oakmead Parkway",
    "city": "Sunnyvale",
    "state": "CA",
    "zip_code": "94085",
    "latitude": 37.387637,
    "longitude": -121.9924988,
    "website": "http://sunnyvale.laughingmonk.com/",
    "category": "Bar & Restaurant",
    "types": "bar, restaurant, food, point_of_interest, establishment"
  },
  {
    "place_id": "ChIJbdQi0h22j4ARhEaYM2ENgXI",
    "name": "Quarter Note Bar & Grill",
    "street_address": "1214 Apollo Way",
    "city": "Sunnyvale",
    "state": "CA",
    "zip_code": "94085",
    "latitude": 37.3787688,
    "longitude": -121.9953385,
    "website": "http://www.quarternote.com/",
    "category": "Bar & Restaurant",
    "types": "bar, restaurant, food, point_of_interest, establishment"
  },
  {
    "place_id": "ChIJPxCyv93Jj4ARfq8eEOgFS9Q",
    "name": "SmokeEaters Hot Wings",
    "street_address": "3175 Mission College Boulevard",
    "city": "Santa Clara",
    "state": "CA",
    "zip_code": "95054",
    "latitude": 37.3888035,
    "longitude": -121.9846791,
    "website": "http://smoke-eaters.com/",
    "category": "Bar & Restaurant",
    "types": "bar, restaurant, point_of_interest, food, establishment"
  },
  {
    "place_id": "ChIJ5Uf_GhG3j4ARlCKZWpm8IEI",
    "name": "Metro City Restaurant & Bar",
    "street_address": "919 East Duane Avenue",
    "city": "Sunnyvale",
    "state": "CA",
    "zip_code": "94085",
    "latitude": 37.3891478,
    "longitude": -122.0040162,
    "website": "https://www.metrocityduane.com/",
    "category": "Restaurant",
    "types": "restaurant, food, point_of_interest, establishment"
  },
  {
    "place_id": "ChIJaX-pQzy2j4ARBs8FLpVaZ5w",
    "name": "Agape Grill & Bar",
    "street_address": "845 Stewart Drive",
    "city": "Sunnyvale",
    "state": "CA",
    "zip_code": "94085",
    "latitude": 37.3842023,
    "longitude": -122.007912,
    "website": "http://www.agapegrill.com/",
    "category": "Restaurant",
    "types": "restaurant, food, point_of_interest, establishment"
  },
  {
    "place_id": "ChIJR3L__Ce3j4ARXa9aixECGrk",
    "name": "RBG Bar and Grill",
    "street_address": "1300 Chesapeake Terrace",
    "city": "Sunnyvale",
    "state": "CA",
    "zip_code": "94089",
    "latitude": 37.4095892,
    "longitude": -122.0022691,
    "website": "https://www.choicehotels.com/california/sunnyvale/radisson-hotels/cak33/dining?mc=llgoxxpx",
    "category": "Bar & Restaurant",
    "types": "bar, restaurant, food, point_of_interest, establishment"
  },
  {
    "place_id": "ChIJUfCDo0sAMhURSLx-iM2PiZQ",
    "name": "Local Cafe",
    "street_address": "20956 Homestead Road",
    "city": "Cupertino",
    "state": "CA",
    "zip_code": "95014",
    "latitude": 37.33699789999999,
    "longitude": -122.0403613,
    "website": "http://www.cupertinolocalcafe.com/",
    "category": "Restaurant",
    "types": "cafe, store, restaurant, food, point_of_interest, establishment"
  },
  {
    "place_id": "ChIJQfElblnJj4ARZBP6l2-olCM",
    "name": "Floodcraft Taproom",
    "street_address": "2732 Augustine Drive",
    "city": "Santa Clara",
    "state": "CA",
    "zip_code": "95054",
    "latitude": 37.3811845,
    "longitude": -121.9763484,
    "website": "http://www.wholefoodsmarket.com/stores/santaclara?utm_source=google&utm_medium=organic&utm_campaign=listings",
    "category": "Bar & Restaurant",
    "types": "bar, restaurant, food, point_of_interest, establishment"
  },
  {
    "place_id": "ChIJQWgraq7Lj4ARfdplePk4UMo",
    "name": "The Hut",
    "street_address": "3200 The Alameda",
    "city": "Santa Clara",
    "state": "CA",
    "zip_code": "95050",
    "latitude": 37.351461,
    "longitude": -121.9404057,
    "website": "http://www.thehutsantaclara.com/",
    "category": "Bar & Restaurant",
    "types": "bar, restaurant, food, point_of_interest, establishment"
  },
  {
    "place_id": "ChIJiQGaTSHJj4ARs8czYhBhTmI",
    "name": "Sevens Bar & Grill",
    "street_address": "777 Bellew Drive",
    "city": "Milpitas",
    "state": "CA",
    "zip_code": "95035",
    "latitude": 37.4225039,
    "longitude": -121.9191069,
    "website": null,
    "category": "Bar & Restaurant",
    "types": "bar, restaurant, food, point_of_interest, establishment"
  },
  {
    "place_id": "ChIJZbPUwQzJj4ARqppQ2EPTANs",
    "name": "Blast & Brew",
    "street_address": "55 River Oaks Place",
    "city": "San Jose",
    "state": "CA",
    "zip_code": "95134",
    "latitude": 37.40230679999999,
    "longitude": -121.9400802,
    "website": "https://blastandbrewsj.com/?utm_source=google",
    "category": "Bar & Restaurant",
    "types": "bar, restaurant, food, point_of_interest, establishment"
  },
  {
    "place_id": "ChIJY2tw5NXIj4AR74ntAxBgWLM",
    "name": "Tequila Shots Bar and Grill",
    "street_address": "38 North Main Street",
    "city": "Milpitas",
    "state": "CA",
    "zip_code": "95035",
    "latitude": 37.431205,
    "longitude": -121.9069214,
    "website": null,
    "category": "Bar & Restaurant",
    "types": "bar, restaurant, point_of_interest, food, establishment"
  },
  {
    "place_id": "ChIJS9okisvOj4ARbCJg2B0WpwE",
    "name": "Dave & Buster's Milpitas - San Jose",
    "street_address": "940 Great Mall Drive",
    "city": "Milpitas",
    "state": "CA",
    "zip_code": "95035",
    "latitude": 37.417728,
    "longitude": -121.8979516,
    "website": "https://www.daveandbusters.com/us/en/about/locations/milpitas",
    "category": "Bar & Restaurant",
    "types": "restaurant, bar, food, point_of_interest, establishment"
  },
  {
    "place_id": "ChIJr2cNa9_Ij4ARHwzgFd6fQZ0",
    "name": "Romano's Macaroni Grill",
    "street_address": "110 Ranch Drive",
    "city": "Milpitas",
    "state": "CA",
    "zip_code": "95035",
    "latitude": 37.427328,
    "longitude": -121.920594,
    "website": "https://www.macaronigrill.com/locations/location?id=1770",
    "category": "Bar & Restaurant",
    "types": "bar, restaurant, food, point_of_interest, establishment"
  },
  {
    "place_id": "ChIJ6cH_IG3Jj4ARTnyScHjs5Mc",
    "name": "Curry Up Now",
    "street_address": "3250 Zanker Road",
    "city": "San Jose",
    "state": "CA",
    "zip_code": "95134",
    "latitude": 37.402614,
    "longitude": -121.9329828,
    "website": "https://www.curryupnow.com/",
    "category": "Bar & Restaurant",
    "types": "night_club, bar, restaurant, food, point_of_interest, establishment"
  },
  {
    "place_id": "ChIJiUKp9JXOj4ARYMdt2AORofE",
    "name": "IBU Taproom & Bottle Shop",
    "street_address": "1422 Dempsey Road",
    "city": "Milpitas",
    "state": "CA",
    "zip_code": "95035",
    "latitude": 37.4163173,
    "longitude": -121.8786481,
    "website": "http://www.ibumilpitas.com/",
    "category": "Bar & Restaurant",
    "types": "bar, restaurant, food, point_of_interest, establishment"
  },
  {
    "place_id": "ChIJwU2TACrPj4ARTXnsS28wM7g",
    "name": "Giorgio's Italian Food and Pizzeria",
    "street_address": "643 East Calaveras Boulevard",
    "city": "Milpitas",
    "state": "CA",
    "zip_code": "95035",
    "latitude": 37.4350272,
    "longitude": -121.896029,
    "website": "https://www.giorgiositalianfood.com/",
    "category": "Restaurant",
    "types": "restaurant, food, point_of_interest, establishment"
  },
  {
    "place_id": "ChIJJRBu5bbIj4ARLQhJynrYXZA",
    "name": "Annapoorna Authentic Indian Cuisine",
    "street_address": "770 East Tasman Drive",
    "city": "Milpitas",
    "state": "CA",
    "zip_code": "95035",
    "latitude": 37.41202919999999,
    "longitude": -121.9183208,
    "website": "http://www.myannapoorna.com/",
    "category": "Restaurant",
    "types": "restaurant, food, point_of_interest, establishment"
  },
  {
    "place_id": "ChIJW7-tvZ7Aj4ARNngJG4kO7T8",
    "name": "Jack's Brewing Company",
    "street_address": "39176 Argonaut Way",
    "city": "Fremont",
    "state": "CA",
    "zip_code": "94538",
    "latitude": 37.544125,
    "longitude": -121.9874889,
    "website": "https://www.jacksbrewing.com/",
    "category": "Bar & Restaurant",
    "types": "bar, restaurant, food, point_of_interest, establishment"
  },
  {
    "place_id": "ChIJi6WdLo7Aj4ARVjrrc-eOkW0",
    "name": "Frodo Joe's Petit Cafe",
    "street_address": "39286 Paseo Padre Parkway",
    "city": "Fremont",
    "state": "CA",
    "zip_code": "94538",
    "latitude": 37.55320409999999,
    "longitude": -121.9782284,
    "website": "http://frodojoesfremont.withbites.com/",
    "category": "Restaurant",
    "types": "cafe, store, restaurant, food, point_of_interest, establishment"
  },
  {
    "place_id": "ChIJ93VghWGVj4ARCP1x6oSdlGE",
    "name": "JenJon's Cafe",
    "street_address": "1704 Decoto Road",
    "city": "Union City",
    "state": "CA",
    "zip_code": "94587",
    "latitude": 37.58904030000001,
    "longitude": -122.0187453,
    "website": "https://jenjons-cafe.square.site/",
    "category": "Restaurant",
    "types": "restaurant, food, point_of_interest, establishment"
  },
  {
    "place_id": "ChIJiwlH-VS_j4ARgvvQXnl8B8Y",
    "name": "Bonchon Newark",
    "street_address": "39770 Cedar Boulevard",
    "city": "Newark",
    "state": "CA",
    "zip_code": "94560",
    "latitude": 37.5208676,
    "longitude": -121.9960291,
    "website": "https://www.bonchon.com/locations/ll/us/ca/newark/39770-cedar-blvd",
    "category": "Restaurant",
    "types": "meal_takeaway, restaurant, food, point_of_interest, establishment"
  },
  {
    "place_id": "ChIJFw6qUg-_j4ARoK5bWrOQ6p0",
    "name": "My Cafe",
    "street_address": "5475 Thornton Avenue",
    "city": "Newark",
    "state": "CA",
    "zip_code": "94560",
    "latitude": 37.5430989,
    "longitude": -122.0263143,
    "website": "https://mycafego.com/",
    "category": "Restaurant",
    "types": "cafe, restaurant, food, point_of_interest, establishment"
  },
  {
    "place_id": "ChIJeedHdAK_j4AR6JHQFr7qUPw",
    "name": "Lazy Dog Restaurant & Bar",
    "street_address": "3100 Newpark Mall Road",
    "city": "Newark",
    "state": "CA",
    "zip_code": "94560",
    "latitude": 37.525746,
    "longitude": -122.0062397,
    "website": "https://www.lazydogrestaurants.com/locations/newark-ca",
    "category": "Bar & Restaurant",
    "types": "bar, restaurant, food, point_of_interest, establishment"
  },
  {
    "place_id": "ChIJ-YOO22rHj4AR30MpxuEGf4A",
    "name": "iTea Fremont",
    "street_address": "43421 Christy Street",
    "city": "Fremont",
    "state": "CA",
    "zip_code": "94538",
    "latitude": 37.5050633,
    "longitude": -121.9710475,
    "website": null,
    "category": "Restaurant",
    "types": "cafe, restaurant, food, point_of_interest, establishment"
  },
  {
    "place_id": "ChIJTy-W4tHGj4ARIOJ8U7RSKeA",
    "name": "Mission Pizza & Pub",
    "street_address": "1572 Washington Boulevard",
    "city": "Fremont",
    "state": "CA",
    "zip_code": "94539",
    "latitude": 37.5308458,
    "longitude": -121.9370904,
    "website": "http://missionpizza.com/",
    "category": "Bar & Restaurant",
    "types": "bar, restaurant, point_of_interest, food, establishment"
  },
  {
    "place_id": "ChIJx48n44TAj4ARpm4X_TE69V8",
    "name": "Smoking Pig BBQ",
    "street_address": "3340 Mowry Avenue",
    "city": "Fremont",
    "state": "CA",
    "zip_code": "94538",
    "latitude": 37.5526954,
    "longitude": -121.9844907,
    "website": "https://www.smokingpigbbq.net/",
    "category": "Bar & Restaurant",
    "types": "bar, restaurant, food, point_of_interest, establishment"
  },
  {
    "place_id": "ChIJL8EqkKK_j4ARa5_Wqgayo4w",
    "name": "La Cabana",
    "street_address": "7163 Rich Avenue",
    "city": "Newark",
    "state": "CA",
    "zip_code": "94560",
    "latitude": 37.5299042,
    "longitude": -122.0369907,
    "website": "https://www.lacabananewark.com/",
    "category": "Restaurant",
    "types": "restaurant, food, point_of_interest, establishment"
  },
  {
    "place_id": "ChIJa-E24V2_j4ARLoxQ89jcJQc",
    "name": "Paradise Biryani Pointe",
    "street_address": "5029 Mowry Avenue",
    "city": "Fremont",
    "state": "CA",
    "zip_code": "94538",
    "latitude": 37.536371,
    "longitude": -121.999091,
    "website": "https://cabiryani.com/",
    "category": "Restaurant",
    "types": "restaurant, food, point_of_interest, establishment"
  },
  {
    "place_id": "ChIJ4QAv8US_j4ARNmBNiyXpF64",
    "name": "BJ's Restaurant & Brewhouse",
    "street_address": "5699 Mowry Avenue",
    "city": "Newark",
    "state": "CA",
    "zip_code": "94560",
    "latitude": 37.5280768,
    "longitude": -122.0057685,
    "website": "https://www.bjsrestaurants.com/locations/ca/newark?utm_source=google&utm_medium=organic&utm_campaign=google_my_business",
    "category": "Bar & Restaurant",
    "types": "restaurant, bar, point_of_interest, food, establishment"
  },
  {
    "place_id": "ChIJ-beEESC_j4ARgwzPY2LGO6U",
    "name": "A Sack of Potatoes \u4e00\u888b\u99ac\u9234\u85af",
    "street_address": "37100 Fremont Boulevard",
    "city": "Fremont",
    "state": "CA",
    "zip_code": "94536",
    "latitude": 37.5603146,
    "longitude": -122.0105304,
    "website": "https://www.asackofpotatoes.com/ordernow",
    "category": "Restaurant",
    "types": "cafe, meal_takeaway, restaurant, food, point_of_interest, establishment"
  },
  {
    "place_id": "ChIJN5tpe1C_j4ARrzmA3xSRX4Q",
    "name": "Jack's Restaurant & Bar",
    "street_address": "1029 Newpark Mall Road",
    "city": "Newark",
    "state": "CA",
    "zip_code": "94560",
    "latitude": 37.5261282,
    "longitude": -122.0021815,
    "website": "https://www.ilovejacks.com/",
    "category": "Restaurant",
    "types": "restaurant, food, point_of_interest, establishment"
  },
  {
    "place_id": "ChIJ86Gf6YXAj4AR0jrh7ET-gH4",
    "name": "Strizzi's Restaurant - Fremont",
    "street_address": "2740 Mowry Avenue",
    "city": "Fremont",
    "state": "CA",
    "zip_code": "94538",
    "latitude": 37.5545335,
    "longitude": -121.9816144,
    "website": "https://www.strizzis.com/",
    "category": "Restaurant",
    "types": "restaurant, food, point_of_interest, establishment"
  },
  {
    "place_id": "ChIJn0zJr5vAj4ARqmA1ZypcxpM",
    "name": "Falafel, etc.",
    "street_address": "39200 Fremont Boulevard",
    "city": "Fremont",
    "state": "CA",
    "zip_code": "94538",
    "latitude": 37.5478029,
    "longitude": -121.9844664,
    "website": "http://www.falafeletc.com/",
    "category": "Restaurant",
    "types": "meal_takeaway, restaurant, food, point_of_interest, establishment"
  },
  {
    "place_id": "ChIJ7RNq_1u_j4ARi32Zo2qgKOw",
    "name": "Applebee's Grill + Bar",
    "street_address": "39139 Farwell Drive",
    "city": "Fremont",
    "state": "CA",
    "zip_code": "94538",
    "latitude": 37.5320984,
    "longitude": -121.9988045,
    "website": "https://restaurants.applebees.com/en-us/ca/fremont/39139-farwell-drive-77091?utm_source=google&utm_medium=organic&utm_campaign=google_my_business&utm_term=77091&utm_content=website",
    "category": "Bar & Restaurant",
    "types": "restaurant, bar, food, point_of_interest, establishment"
  },
  {
    "place_id": "ChIJ29T-llTHj4ARS0tlYtS2Sgo",
    "name": "California Billiards",
    "street_address": "40510 Albrae Street",
    "city": "Fremont",
    "state": "CA",
    "zip_code": "94538",
    "latitude": 37.5199674,
    "longitude": -121.9875482,
    "website": "http://www.californiabilliards.com/",
    "category": "Bar & Restaurant",
    "types": "bar, restaurant, food, point_of_interest, establishment"
  },
  {
    "place_id": "ChIJvVniW1y_j4ARFBZMZgKIJTg",
    "name": "Country Way",
    "street_address": "5325 Mowry Avenue",
    "city": "Fremont",
    "state": "CA",
    "zip_code": "94536",
    "latitude": 37.5329972,
    "longitude": -122.0016333,
    "website": "https://countrywayfremont.net/",
    "category": "Restaurant",
    "types": "restaurant, food, point_of_interest, establishment"
  },
  {
    "place_id": "ChIJM1xvuW7Aj4ARXc9c2XucacY",
    "name": "Joe's Corner",
    "street_address": "37713 Niles Boulevard",
    "city": "Fremont",
    "state": "CA",
    "zip_code": "94536",
    "latitude": 37.5762545,
    "longitude": -121.9767006,
    "website": "http://joescornerniles.com/",
    "category": "Bar & Restaurant",
    "types": "restaurant, bar, food, point_of_interest, establishment"
  },
  {
    "place_id": "ChIJr8hzZN-_j4ARUoNTLMXXTRE",
    "name": "Bar Bay Grill",
    "street_address": "1784 Decoto Road",
    "city": "Union City",
    "state": "CA",
    "zip_code": "94587",
    "latitude": 37.5881345,
    "longitude": -122.0195794,
    "website": "https://www.facebook.com/barbaygrill",
    "category": "Bar & Restaurant",
    "types": "bar, restaurant, food, point_of_interest, establishment"
  },
  {
    "place_id": "ChIJ74wPQEzHj4ARTn4Nq436Esw",
    "name": "The Fremont Clubhouse Sportsbar, Golf Club, and Event Center",
    "street_address": "4020 Technology Place",
    "city": "Fremont",
    "state": "CA",
    "zip_code": "94538",
    "latitude": 37.5103607,
    "longitude": -121.9510345,
    "website": "http://www.fremontclubhouse.com/",
    "category": "Bar & Restaurant",
    "types": "bar, store, restaurant, food, point_of_interest, health, establishment"
  },
  {
    "place_id": "ChIJoWiG71u_j4ARlU8LVrh_kwo",
    "name": "Olive Garden Italian Restaurant",
    "street_address": "39145 Farwell Drive",
    "city": "Fremont",
    "state": "CA",
    "zip_code": "94538",
    "latitude": 37.53135400000001,
    "longitude": -121.999346,
    "website": "https://www.olivegarden.com/locations/ca/fremont/fremont/1143?cmpid=br:og_ag:ie_ch:loc_ca:OGGMB_sn:gmb_gt:fremont-ca-1143_pl:locurl_rd:1095",
    "category": "Bar & Restaurant",
    "types": "meal_takeaway, bar, restaurant, food, point_of_interest, establishment"
  },
  {
    "place_id": "ChIJg0yWYlC_j4AReGW_QMsTsK4",
    "name": "Vinum Japanese Fusion & Bar",
    "street_address": "2025 Newpark Mall Road",
    "city": "Newark",
    "state": "CA",
    "zip_code": "94560",
    "latitude": 37.5261312,
    "longitude": -122.0019434,
    "website": "http://vinumbar.net/",
    "category": "Bar & Restaurant",
    "types": "bar, restaurant, point_of_interest, food, establishment"
  },
  {
    "place_id": "ChIJHf3w6NHGj4ARqgkdHRDaUK8",
    "name": "Cantaritos Restaurant & Bar",
    "street_address": "1530 Washington Boulevard",
    "city": "Fremont",
    "state": "CA",
    "zip_code": "94539",
    "latitude": 37.5308476,
    "longitude": -121.9364495,
    "website": "http://cantaritosrestaurantandbar.com/",
    "category": "Restaurant",
    "types": "restaurant, point_of_interest, food, establishment"
  },
  {
    "place_id": "ChIJ800PrkW_j4ARCEhHJ8YePlo",
    "name": "Swiss Park",
    "street_address": "5911 Mowry Avenue",
    "city": "Newark",
    "state": "CA",
    "zip_code": "94560",
    "latitude": 37.5268989,
    "longitude": -122.0073553,
    "website": "http://swissparknewark.com/",
    "category": "Bar & Restaurant",
    "types": "bar, restaurant, food, point_of_interest, establishment"
  },
  {
    "place_id": "ChIJLR9qwgi_j4ARMyUHEfAZjXM",
    "name": "Mountain Mike's Pizza",
    "street_address": "5333 Thornton Avenue",
    "city": "Newark",
    "state": "CA",
    "zip_code": "94560",
    "latitude": 37.5446,
    "longitude": -122.02516,
    "website": "https://www.mountainmikespizza.com/locations/newark-thornton/",
    "category": "Restaurant",
    "types": "meal_takeaway, meal_delivery, restaurant, food, point_of_interest, establishment"
  },
  {
    "place_id": "ChIJ_eDeeNLAj4ARGeit-lvegp8",
    "name": "Mountain Mike's Pizza",
    "street_address": "3952 Washington Boulevard",
    "city": "Fremont",
    "state": "CA",
    "zip_code": "94538",
    "latitude": 37.5320528,
    "longitude": -121.9581417,
    "website": "https://www.mountainmikespizza.com/locations/fremont-washington/",
    "category": "Restaurant",
    "types": "meal_takeaway, meal_delivery, restaurant, food, point_of_interest, establishment"
  },
  {
    "place_id": "ChIJvfSK1ZnAj4ARj-Cbn7zDS8Q",
    "name": "Mountain Mike's Pizza",
    "street_address": "39415 Fremont Boulevard",
    "city": "Fremont",
    "state": "CA",
    "zip_code": "94538",
    "latitude": 37.5445841,
    "longitude": -121.9813243,
    "website": "https://www.mountainmikespizza.com/locations/fremont-fremont-blvd/",
    "category": "Restaurant",
    "types": "meal_delivery, meal_takeaway, restaurant, food, point_of_interest, establishment"
  },
  {
    "place_id": "ChIJK1IWbg-_j4ARy5B7Or6lx-A",
    "name": "Round Table Pizza",
    "street_address": "5544 Thornton Avenue",
    "city": "Newark",
    "state": "CA",
    "zip_code": "94560",
    "latitude": 37.5412826,
    "longitude": -122.0258407,
    "website": "https://www.roundtablepizza.com/?olonwp=JjBtp_vMLk25gkYh_bnoiQ",
    "category": "Restaurant",
    "types": "meal_delivery, meal_takeaway, restaurant, food, point_of_interest, establishment"
  },
  {
    "place_id": "ChIJT8oEviqUj4ARjZPvItKHy_o",
    "name": "Chaplin\u2019s Sports Bistro",
    "street_address": "29200 Kohoutek Way",
    "city": "Union City",
    "state": "CA",
    "zip_code": "94587",
    "latitude": 37.60895229999999,
    "longitude": -122.0822176,
    "website": "https://www.chaplinssportsbistro.com/Home?y_source=1_MjYwMDE1MzctNzE1LWxvY2F0aW9uLndlYnNpdGU%3D",
    "category": "Restaurant",
    "types": "restaurant, food, point_of_interest, establishment"
  },
  {
    "place_id": "ChIJFZPUUcSVj4AR5AgIhH2-eF4",
    "name": "Pacific PourHouse",
    "street_address": "32216 Dyer Street",
    "city": "Union City",
    "state": "CA",
    "zip_code": "94587",
    "latitude": 37.5992012,
    "longitude": -122.0688526,
    "website": "https://pacificpourhouse.com/?utm_source=google",
    "category": "Bar & Restaurant",
    "types": "bar, restaurant, food, point_of_interest, establishment"
  },
  {
    "place_id": "ChIJu91P6qSVj4ARKSdgpvp9ewA",
    "name": "Ocean Oyster Bar & Grill",
    "street_address": "30980 Dyer Street",
    "city": "Union City",
    "state": "CA",
    "zip_code": "94587",
    "latitude": 37.6017794,
    "longitude": -122.0695017,
    "website": "https://oceanoysterbargrill.com/",
    "category": "Restaurant",
    "types": "restaurant, food, point_of_interest, establishment"
  },
  {
    "place_id": "ChIJ4T2_zMWVj4ARUKa01VRCCTU",
    "name": "Buffalo Wild Wings",
    "street_address": "32135 Union Landing Boulevard",
    "city": "Union City",
    "state": "CA",
    "zip_code": "94587",
    "latitude": 37.600022,
    "longitude": -122.0676389,
    "website": "https://www.buffalowildwings.com/locations/us/ca/union-city/32135-union-landing-blvd/sports-bar-1130?utm_source=google%20my%20business&utm_medium=organic&utm_campaign=website%20link",
    "category": "Bar & Restaurant",
    "types": "meal_takeaway, bar, restaurant, food, point_of_interest, establishment"
  },
  {
    "place_id": "ChIJM8rTs6GVj4ARzaETC0_6DZE",
    "name": "Birdhaus Beer Garden",
    "street_address": "3821 Smith Street",
    "city": "Union City",
    "state": "CA",
    "zip_code": "94587",
    "latitude": 37.59667,
    "longitude": -122.0774522,
    "website": "https://www.birdhausbeergarden.com/",
    "category": "Bar & Restaurant",
    "types": "bar, restaurant, food, point_of_interest, establishment"
  },
  {
    "place_id": "ChIJ_epnAsWVj4ARDXSiSf2y5wc",
    "name": "Chili's Grill & Bar",
    "street_address": "32120 Dyer Street",
    "city": "Union City",
    "state": "CA",
    "zip_code": "94587",
    "latitude": 37.599389,
    "longitude": -122.07012,
    "website": "https://www.chilis.com/locations/us/california/union-city/union-city?utm_source=google&utm_medium=local&utm_campaign=Chilis",
    "category": "Bar & Restaurant",
    "types": "restaurant, bar, food, point_of_interest, establishment"
  },
  {
    "place_id": "ChIJ41ntlMaVj4ARndbC_tyjSNc",
    "name": "Texas Roadhouse",
    "street_address": "32115 Union Landing Boulevard",
    "city": "Union City",
    "state": "CA",
    "zip_code": "94587",
    "latitude": 37.6014159,
    "longitude": -122.0672212,
    "website": "https://www.texasroadhouse.com/locations/california/union-city?utm_source=listing&utm_medium=search",
    "category": "Restaurant",
    "types": "restaurant, food, point_of_interest, establishment"
  },
  {
    "place_id": "ChIJ55Kh19u_j4ARTrtPURMcbaA",
    "name": "Baldie's Cafe",
    "street_address": "2649 Decoto Road",
    "city": "Union City",
    "state": "CA",
    "zip_code": "94587",
    "latitude": 37.5826272,
    "longitude": -122.0237482,
    "website": "http://www.baldiescafe.com/",
    "category": "Restaurant",
    "types": "restaurant, food, point_of_interest, establishment"
  },
  {
    "place_id": "ChIJcwyzn8-Vj4ARmfDxeBmiLzE",
    "name": "Gerry's Union City (Gerry's Grill)",
    "street_address": "31005 Courthouse Drive",
    "city": "Union City",
    "state": "CA",
    "zip_code": "94587",
    "latitude": 37.60299299999999,
    "longitude": -122.067632,
    "website": "https://gerrysgrill.com/usa/",
    "category": "Bar & Restaurant",
    "types": "bar, restaurant, food, point_of_interest, establishment"
  },
  {
    "place_id": "ChIJRYwcKEW-j4ARx8SfDi-k7p4",
    "name": "The Bistro - Eat. Drink. Connect.\u00ae",
    "street_address": "34905 Newark Boulevard",
    "city": "Newark",
    "state": "CA",
    "zip_code": "94560",
    "latitude": 37.55009039999999,
    "longitude": -122.0525257,
    "website": "https://www.marriott.com/hotels/hotel-information/restaurant/sjcft-courtyard-newark-silicon-valley/?scid=f2ae0541-1279-4f24-b197-a979c79310b0",
    "category": "Restaurant",
    "types": "restaurant, food, point_of_interest, establishment"
  },
  {
    "place_id": "ChIJU_VIKLWRj4ARv6oOSvvzdkA",
    "name": "TipTop Tavern",
    "street_address": "391 Lewelling Boulevard",
    "city": "San Lorenzo",
    "state": "CA",
    "zip_code": "94580",
    "latitude": 37.6868991,
    "longitude": -122.1285498,
    "website": "https://www.tiptoptavernsl.com/",
    "category": "Bar & Restaurant",
    "types": "bar, restaurant, food, point_of_interest, establishment"
  },
  {
    "place_id": "ChIJUxezkySTj4ARwLH1Ixh2DTo",
    "name": "Blue Crown Bar and Bistro",
    "street_address": "1061 B Street",
    "city": "Hayward",
    "state": "CA",
    "zip_code": "94541",
    "latitude": 37.6734658,
    "longitude": -122.0815814,
    "website": "https://www.blue-crown-bistro.com/",
    "category": "Bar & Restaurant",
    "types": "bar, restaurant, food, point_of_interest, establishment"
  },
  {
    "place_id": "ChIJWSqGNtiTj4ARvso-G_SLo9U",
    "name": "Buffalo Bill's Brewery",
    "street_address": "1082 B Street",
    "city": "Hayward",
    "state": "CA",
    "zip_code": "94541",
    "latitude": 37.6739679,
    "longitude": -122.0816287,
    "website": "https://www.buffalobillscerveceria.com/",
    "category": "Restaurant",
    "types": "restaurant, point_of_interest, food, establishment"
  },
  {
    "place_id": "ChIJSe9wpkCRj4AREoiqz-TDN9s",
    "name": "Applebee's Grill + Bar",
    "street_address": "24041 Southland Drive",
    "city": "Hayward",
    "state": "CA",
    "zip_code": "94545",
    "latitude": 37.654332,
    "longitude": -122.1057124,
    "website": "https://restaurants.applebees.com/en-us/ca/hayward/24041-southland-drive-77083?utm_source=google&utm_medium=organic&utm_campaign=google_my_business&utm_term=77083&utm_content=website",
    "category": "Bar & Restaurant",
    "types": "restaurant, bar, food, point_of_interest, establishment"
  },
  {
    "place_id": "ChIJPV0Z4C-Sj4ARHXvl2ZGRs68",
    "name": "JP's Family Restaurant",
    "street_address": "3600 Castro Valley Boulevard",
    "city": "Castro Valley",
    "state": "CA",
    "zip_code": "94546",
    "latitude": 37.6955134,
    "longitude": -122.072426,
    "website": "https://www.dinejps.com/",
    "category": "Restaurant",
    "types": "restaurant, food, point_of_interest, establishment"
  },
  {
    "place_id": "ChIJr6v-nWKRj4ARLtfYho4edMo",
    "name": "The Dirty Bird Lounge",
    "street_address": "926 B Street",
    "city": "Hayward",
    "state": "CA",
    "zip_code": "94541",
    "latitude": 37.67257419999999,
    "longitude": -122.0837248,
    "website": "http://thedirtybirdlounge.com/",
    "category": "Bar & Restaurant",
    "types": "bar, night_club, restaurant, food, point_of_interest, establishment"
  },
  {
    "place_id": "ChIJbwTWJ-CTj4AR3F4of2rqOks",
    "name": "United Mexican Restaurant Bar and Grill",
    "street_address": "467 East Jackson Street",
    "city": "Hayward",
    "state": "CA",
    "zip_code": "94544",
    "latitude": 37.6628634,
    "longitude": -122.0838046,
    "website": "https://order.online/store/UnitedMexicanRestaurantBarGrill-535167/en-US/?delivery=true&hideModal=true",
    "category": "Restaurant",
    "types": "restaurant, food, point_of_interest, establishment"
  },
  {
    "place_id": "ChIJn8PLYTiRj4AR7RTkGXzR4AQ",
    "name": "Buffalo Wild Wings",
    "street_address": "24542 Hesperian Boulevard",
    "city": "Hayward",
    "state": "CA",
    "zip_code": "94545",
    "latitude": 37.6500773,
    "longitude": -122.1076649,
    "website": "https://www.buffalowildwings.com/locations/us/ca/hayward/24542-hesperian-blvd/sports-bar-1414?utm_source=google%20my%20business&utm_medium=organic&utm_campaign=website%20link",
    "category": "Bar & Restaurant",
    "types": "meal_takeaway, bar, restaurant, food, point_of_interest, establishment"
  },
  {
    "place_id": "ChIJmQhkASWRj4ARdz6xIhaXD8c",
    "name": "Burger Road",
    "street_address": "2010 American Avenue",
    "city": "Hayward",
    "state": "CA",
    "zip_code": "94545",
    "latitude": 37.64599749999999,
    "longitude": -122.1204267,
    "website": null,
    "category": "Restaurant",
    "types": "restaurant, food, point_of_interest, establishment"
  },
  {
    "place_id": "ChIJG1rPl6CRj4ARNO5w5ruy7Ds",
    "name": "La Casita 2",
    "street_address": "48 Blossom Way",
    "city": "Hayward",
    "state": "CA",
    "zip_code": "94541",
    "latitude": 37.6763042,
    "longitude": -122.1106475,
    "website": "https://la-casita.shop/",
    "category": "Restaurant",
    "types": "restaurant, food, point_of_interest, establishment"
  },
  {
    "place_id": "ChIJgbqC-_uej4AR9hgwImYJcIc",
    "name": "The Swingin' Door",
    "street_address": "106 East 25th Avenue",
    "city": "San Mateo",
    "state": "CA",
    "zip_code": "94403",
    "latitude": 37.545086,
    "longitude": -122.3045991,
    "website": "http://theswingindoor.com/",
    "category": "Bar & Restaurant",
    "types": "night_club, bar, restaurant, food, point_of_interest, establishment"
  },
  {
    "place_id": "ChIJP2Uqw_Gdj4ARx2LPjRVSfU4",
    "name": "Paddy Flynn's",
    "street_address": "246 Lorton Avenue",
    "city": "Burlingame",
    "state": "CA",
    "zip_code": "94010",
    "latitude": 37.5786919,
    "longitude": -122.3454287,
    "website": null,
    "category": "Bar & Restaurant",
    "types": "bar, restaurant, food, point_of_interest, establishment"
  },
  {
    "place_id": "ChIJmUm103Cej4AROlDvaAdcuKk",
    "name": "O'Neills Irish Pub",
    "street_address": "34 South B Street",
    "city": "San Mateo",
    "state": "CA",
    "zip_code": "94401",
    "latitude": 37.5671074,
    "longitude": -122.3244377,
    "website": "http://www.oneillssanmateo.com/",
    "category": "Bar & Restaurant",
    "types": "night_club, bar, restaurant, point_of_interest, food, establishment"
  },
  {
    "place_id": "ChIJ_cu-CFSfj4ARID77KTIPlHY",
    "name": "St. James Gate",
    "street_address": "1410 Old County Road",
    "city": "Belmont",
    "state": "CA",
    "zip_code": "94002",
    "latitude": 37.516623,
    "longitude": -122.270285,
    "website": "https://thegatebelmont.com/",
    "category": "Bar & Restaurant",
    "types": "bar, restaurant, food, point_of_interest, establishment"
  },
  {
    "place_id": "ChIJofaR7yR2j4ARuKNI4uVDOKU",
    "name": "Behan's An Irish Pub",
    "street_address": "1327 Broadway",
    "city": "Burlingame",
    "state": "CA",
    "zip_code": "94010",
    "latitude": 37.58522780000001,
    "longitude": -122.3653139,
    "website": null,
    "category": "Bar & Restaurant",
    "types": "bar, restaurant, food, point_of_interest, establishment"
  },
  {
    "place_id": "ChIJ07ZqjBWfj4ARvQvro39bpdI",
    "name": "The Refuge (San Mateo)",
    "street_address": "66 31st Avenue",
    "city": "San Mateo",
    "state": "CA",
    "zip_code": "94403",
    "latitude": 37.5379766,
    "longitude": -122.3019319,
    "website": "https://www.refugesc.com/",
    "category": "Bar & Restaurant",
    "types": "meal_delivery, bar, restaurant, food, point_of_interest, store, establishment"
  },
  {
    "place_id": "ChIJCZRsgLN3j4ARbGSv7IQs284",
    "name": "American Bull Bar & Grill",
    "street_address": "1819 El Camino Real",
    "city": "Burlingame",
    "state": "CA",
    "zip_code": "94010",
    "latitude": 37.5942462,
    "longitude": -122.3847348,
    "website": "http://www.theamericanbull.com/",
    "category": "Bar & Restaurant",
    "types": "bar, restaurant, food, point_of_interest, establishment"
  },
  {
    "place_id": "ChIJo_9a_fufj4ARjlc_P089jEg",
    "name": "The Barrel Bistro and Wine Bar",
    "street_address": "246 South B Street",
    "city": "San Mateo",
    "state": "CA",
    "zip_code": "94401",
    "latitude": 37.56576849999999,
    "longitude": -122.3228797,
    "website": "https://www.thebarrelbistrowinebar.com/",
    "category": "Restaurant",
    "types": "restaurant, food, point_of_interest, establishment"
  },
  {
    "place_id": "ChIJIZyhM1Cfj4AR9QgFYPdBeo4",
    "name": "Marvin Gardens",
    "street_address": "1160 Old County Road",
    "city": "Belmont",
    "state": "CA",
    "zip_code": "94002",
    "latitude": 37.51973199999999,
    "longitude": -122.2740215,
    "website": "https://www.marvingardensrestaurantandbeer.com/",
    "category": "Bar & Restaurant",
    "types": "bar, restaurant, food, point_of_interest, establishment"
  },
  {
    "place_id": "ChIJUSuYArmfj4ARrq1hjNw2KwQ",
    "name": "Lazy Dog Restaurant & Bar",
    "street_address": "2208 Bridgepointe Parkway",
    "city": "San Mateo",
    "state": "CA",
    "zip_code": "94404",
    "latitude": 37.56051130000001,
    "longitude": -122.2830974,
    "website": "https://www.lazydogrestaurants.com/locations/san-mateo-ca",
    "category": "Bar & Restaurant",
    "types": "bar, restaurant, food, point_of_interest, establishment"
  },
  {
    "place_id": "ChIJjfYPxC52j4ARLlCAR6jjt9c",
    "name": "Max's of Burlingame",
    "street_address": "1250 Old Bayshore Highway",
    "city": "Burlingame",
    "state": "CA",
    "zip_code": "94010",
    "latitude": 37.5923271,
    "longitude": -122.3621063,
    "website": "https://www.maxsofburlingame.com/",
    "category": "Bar & Restaurant",
    "types": "bar, restaurant, food, point_of_interest, establishment"
  },
  {
    "place_id": "ChIJq2Lo6SR2j4ARZiFdFBGLo9w",
    "name": "Broadway Grill",
    "street_address": "1400 Broadway",
    "city": "Burlingame",
    "state": "CA",
    "zip_code": "94010",
    "latitude": 37.5848886,
    "longitude": -122.3658926,
    "website": "https://www.bwgrill.com/",
    "category": "Bar & Restaurant",
    "types": "bar, restaurant, food, point_of_interest, establishment"
  },
  {
    "place_id": "ChIJSS6QeHCej4ARAssTIDcQIiU",
    "name": "B Street & Vine",
    "street_address": "320 South B Street",
    "city": "San Mateo",
    "state": "CA",
    "zip_code": "94401",
    "latitude": 37.565168,
    "longitude": -122.322333,
    "website": "http://www.bstreetandvine.com/",
    "category": "Restaurant",
    "types": "restaurant, food, point_of_interest, establishment"
  },
  {
    "place_id": "ChIJbUWR7Zafj4ARMYECIC0Iey0",
    "name": "Pinstripes",
    "street_address": "36 Hillsdale Mall",
    "city": "San Mateo",
    "state": "CA",
    "zip_code": "94403",
    "latitude": 37.5391123,
    "longitude": -122.3014859,
    "website": "https://pinstripes.com/?utm_source=local&utm_medium=organic&utm_content=gmb",
    "category": "Bar & Restaurant",
    "types": "restaurant, bowling_alley, bar, food, point_of_interest, establishment"
  },
  {
    "place_id": "ChIJpw-ShBifj4AR0aDvQcLggMM",
    "name": "eCr Pub",
    "street_address": "864 El Camino Real",
    "city": "Belmont",
    "state": "CA",
    "zip_code": "94002",
    "latitude": 37.5214949,
    "longitude": -122.2776677,
    "website": "https://ecr.pub/",
    "category": "Bar & Restaurant",
    "types": "bar, restaurant, food, point_of_interest, establishment"
  },
  {
    "place_id": "ChIJqRUe40-fj4ARbnc8gAJcUUA",
    "name": "Dog Haus Biergarten",
    "street_address": "1000 El Camino Real",
    "city": "Belmont",
    "state": "CA",
    "zip_code": "94002",
    "latitude": 37.52011619999999,
    "longitude": -122.2759746,
    "website": "http://belmont.doghaus.com/",
    "category": "Restaurant",
    "types": "restaurant, food, point_of_interest, establishment"
  },
  {
    "place_id": "ChIJCzbe2Viej4ARxdm0aQzctUo",
    "name": "Jack's Restaurant & Bar",
    "street_address": "1750 South El Camino Real",
    "city": "San Mateo",
    "state": "CA",
    "zip_code": "94402",
    "latitude": 37.5510775,
    "longitude": -122.3134434,
    "website": "https://www.ilovejacks.com/",
    "category": "Restaurant",
    "types": "restaurant, food, point_of_interest, establishment"
  },
  {
    "place_id": "ChIJV_JyhqD1UocRck6StTwWwfA",
    "name": "Central Park Bistro",
    "street_address": "181 East 4th Avenue",
    "city": "San Mateo",
    "state": "CA",
    "zip_code": "94401",
    "latitude": 37.5642295,
    "longitude": -122.3228201,
    "website": "http://www.centralparkbistro.com/",
    "category": "Restaurant",
    "types": "restaurant, food, point_of_interest, establishment"
  },
  {
    "place_id": "ChIJQbf0I-ajj4AR13SzhQDrajo",
    "name": "Molly O's",
    "street_address": "1163 San Carlos Avenue",
    "city": "San Carlos",
    "state": "CA",
    "zip_code": "94070",
    "latitude": 37.5065766,
    "longitude": -122.2606365,
    "website": "http://molly-os.com/",
    "category": "Bar & Restaurant",
    "types": "restaurant, bar, food, point_of_interest, establishment"
  },
  {
    "place_id": "ChIJ8Sf6nw-jj4AR1bLIrhg2a4A",
    "name": "Highlands Sports Bar & Grill",
    "street_address": "644 Laurel Street",
    "city": "San Carlos",
    "state": "CA",
    "zip_code": "94070",
    "latitude": 37.50563959999999,
    "longitude": -122.2603296,
    "website": "https://highlandssportsbar.com/",
    "category": "Bar & Restaurant",
    "types": "restaurant, bar, food, point_of_interest, establishment"
  },
  {
    "place_id": "ChIJ786QQaOjj4ARnls1IisX1Vo",
    "name": "Out of the Barrel",
    "street_address": "555 El Camino Real",
    "city": "San Carlos",
    "state": "CA",
    "zip_code": "94070",
    "latitude": 37.50769030000001,
    "longitude": -122.2604257,
    "website": "https://www.outofthebarreltaproom.com/",
    "category": "Bar & Restaurant",
    "types": "bar, restaurant, food, point_of_interest, establishment"
  },
  {
    "place_id": "ChIJWwc6JK2jj4ARG10bkrc-8ok",
    "name": "Ghostwood Kitchen",
    "street_address": "911 Main Street",
    "city": "Redwood City",
    "state": "CA",
    "zip_code": "94063",
    "latitude": 37.4848492,
    "longitude": -122.2258798,
    "website": "https://www.ghostwood.com/",
    "category": "Bar & Restaurant",
    "types": "restaurant, bar, food, point_of_interest, establishment"
  },
  {
    "place_id": "ChIJF1bmK8Sjj4ARw0HRA7w1zro",
    "name": "Hidden Tap And Barrel Redwood City",
    "street_address": "900 Middlefield Road",
    "city": "Redwood City",
    "state": "CA",
    "zip_code": "94063",
    "latitude": 37.4851521,
    "longitude": -122.2296119,
    "website": "https://www.hiddentapandbarrel.com/",
    "category": "Bar & Restaurant",
    "types": "bar, night_club, restaurant, food, point_of_interest, establishment"
  },
  {
    "place_id": "ChIJWQPjv62Yj4ARxhVnzhBaSSs",
    "name": "Waterside Grill + Lounge",
    "street_address": "223 Twin Dolphin Drive",
    "city": "Redwood City",
    "state": "CA",
    "zip_code": "94065",
    "latitude": 37.5230476,
    "longitude": -122.2613165,
    "website": "https://grandbayhotelsf.com/dining/waterside-grill-and-lounge/",
    "category": "Restaurant",
    "types": "restaurant, food, point_of_interest, establishment"
  },
  {
    "place_id": "ChIJvQ1c7aWYj4ARhYCUHtYBVio",
    "name": "The Grill House",
    "street_address": "246 Redwood Shores Parkway",
    "city": "Redwood City",
    "state": "CA",
    "zip_code": "94065",
    "latitude": 37.522352,
    "longitude": -122.251571,
    "website": "http://www.grillhousebar.com/",
    "category": "Bar & Restaurant",
    "types": "bar, restaurant, food, point_of_interest, establishment"
  },
  {
    "place_id": "ChIJm47x8hmij4ARyiM10cY4Yno",
    "name": "The Refuge",
    "street_address": "963 Laurel Street",
    "city": "San Carlos",
    "state": "CA",
    "zip_code": "94070",
    "latitude": 37.50188289999999,
    "longitude": -122.2553303,
    "website": "http://www.refugesc.com/",
    "category": "Bar & Restaurant",
    "types": "bar, store, restaurant, food, point_of_interest, establishment"
  },
  {
    "place_id": "ChIJxdXENyKjj4ARbOiBdmpE9-E",
    "name": "Drakes",
    "street_address": "1101 San Carlos Avenue",
    "city": "San Carlos",
    "state": "CA",
    "zip_code": "94070",
    "latitude": 37.5070239,
    "longitude": -122.2602518,
    "website": "http://drakessancarlos.com/",
    "category": "Bar & Restaurant",
    "types": "bar, restaurant, food, point_of_interest, establishment"
  },
  {
    "place_id": "ChIJ_V6kIk2ij4ARmonRgzkKIkI",
    "name": "Gourmet Haus Staudt",
    "street_address": "2615 Broadway",
    "city": "Redwood City",
    "state": "CA",
    "zip_code": "94063",
    "latitude": 37.486054,
    "longitude": -122.233447,
    "website": "http://gourmethausstaudt.com/",
    "category": "Bar & Restaurant",
    "types": "restaurant, liquor_store, bar, grocery_or_supermarket, store, food, point_of_interest, establishment"
  },
  {
    "place_id": "ChIJf399Ja2jj4AR_dT4Cif26EQ",
    "name": "Timber & Salt",
    "street_address": "881 Middlefield Road",
    "city": "Redwood City",
    "state": "CA",
    "zip_code": "94063",
    "latitude": 37.4855245,
    "longitude": -122.2288606,
    "website": "http://www.timberandsalt.com/",
    "category": "Bar & Restaurant",
    "types": "bar, restaurant, food, point_of_interest, establishment"
  },
  {
    "place_id": "ChIJdT4tDwCjj4ARRa6aGp97gUw",
    "name": "Das Bierhauz",
    "street_address": "830 Middlefield Road",
    "city": "Redwood City",
    "state": "CA",
    "zip_code": "94063",
    "latitude": 37.4858284,
    "longitude": -122.2293064,
    "website": "http://dasbierhauz2.com/",
    "category": "Bar & Restaurant",
    "types": "bar, restaurant, food, point_of_interest, establishment"
  },
  {
    "place_id": "ChIJC-SVJiajj4ARDt4B4vYXM9s",
    "name": "Alhambra Irish House",
    "street_address": "831 Main Street",
    "city": "Redwood City",
    "state": "CA",
    "zip_code": "94063",
    "latitude": 37.4859807,
    "longitude": -122.2261374,
    "website": "http://alhambra-irish-house.com/",
    "category": "Bar & Restaurant",
    "types": "bar, restaurant, food, point_of_interest, establishment"
  },
  {
    "place_id": "ChIJA4uzEgCjj4ARiY62sWiquwE",
    "name": "Bistro Mitte",
    "street_address": "749 Laurel Street",
    "city": "San Carlos",
    "state": "CA",
    "zip_code": "94070",
    "latitude": 37.50470159999999,
    "longitude": -122.25872,
    "website": "http://bistromitte.com/",
    "category": "Restaurant",
    "types": "restaurant, point_of_interest, food, establishment"
  },
  {
    "place_id": "ChIJT_Z7eRyjj4ARYHsoLEJpiNk",
    "name": "Stamp Bar & Grill",
    "street_address": "773 Laurel Street",
    "city": "San Carlos",
    "state": "CA",
    "zip_code": "94070",
    "latitude": 37.5043568,
    "longitude": -122.2584081,
    "website": "http://www.stampbarandgrill.com/",
    "category": "Bar & Restaurant",
    "types": "bar, restaurant, food, point_of_interest, establishment"
  },
  {
    "place_id": "ChIJQ4mZBIWjj4AR6_hlIpJxwbI",
    "name": "Redwood Grill",
    "street_address": "356 Woodside Plaza",
    "city": "Redwood City",
    "state": "CA",
    "zip_code": "94061",
    "latitude": 37.455781,
    "longitude": -122.228909,
    "website": "https://www.rwgrill.com/",
    "category": "Restaurant",
    "types": "restaurant, point_of_interest, food, establishment"
  },
  {
    "place_id": "ChIJ___roiN2j4ARISJsK9I53tg",
    "name": "Franklin Street Caffe",
    "street_address": "1053 El Camino Real",
    "city": "Redwood City",
    "state": "CA",
    "zip_code": "94063",
    "latitude": 37.4852268,
    "longitude": -122.2309158,
    "website": "https://franklinstreetcaffe.net/",
    "category": "Restaurant",
    "types": "cafe, store, restaurant, food, point_of_interest, establishment"
  },
  {
    "place_id": "ChIJK_dRm6yjj4ARVkvgwklFI6w",
    "name": "Angelicas",
    "street_address": "863 Main Street",
    "city": "Redwood City",
    "state": "CA",
    "zip_code": "94063",
    "latitude": 37.4854458,
    "longitude": -122.2259079,
    "website": "http://angelicasllc.com/",
    "category": "Bar & Restaurant",
    "types": "bar, restaurant, food, point_of_interest, establishment"
  },
  {
    "place_id": "ChIJ05Ol40yij4ARvUw_3nCmvx4",
    "name": "The Hub RWC",
    "street_address": "2650 Broadway",
    "city": "Redwood City",
    "state": "CA",
    "zip_code": "94063",
    "latitude": 37.4863545,
    "longitude": -122.2344049,
    "website": "http://www.thehubrwc.com/",
    "category": "Bar & Restaurant",
    "types": "bar, restaurant, food, point_of_interest, establishment"
  },
  {
    "place_id": "ChIJdYu1chuij4ARujIuEgcV_jE",
    "name": "PRANZI",
    "street_address": "777 Laurel Street",
    "city": "San Carlos",
    "state": "CA",
    "zip_code": "94070",
    "latitude": 37.5043069,
    "longitude": -122.2583586,
    "website": "https://pranzisc.com/",
    "category": "Restaurant",
    "types": "restaurant, food, point_of_interest, establishment"
  },
  {
    "place_id": "ChIJiZIkB9Sjj4ARHAWDiFnDQS4",
    "name": "Canyon Inn",
    "street_address": "587 Canyon Road",
    "city": "Redwood City",
    "state": "CA",
    "zip_code": "94062",
    "latitude": 37.4726361,
    "longitude": -122.2598917,
    "website": "https://www.canyoninnrwc.com/",
    "category": "Restaurant",
    "types": "restaurant, food, point_of_interest, establishment"
  },
  {
    "place_id": "ChIJMcAME5ifj4ARq1hDHBhJzYY",
    "name": "TAPP'D by SHMASH'D",
    "street_address": "786 Old County Road",
    "city": "Belmont",
    "state": "CA",
    "zip_code": "94002",
    "latitude": 37.5235165,
    "longitude": -122.2786934,
    "website": "https://www.instagram.com/_tappd/",
    "category": "Bar & Restaurant",
    "types": "bar, restaurant, food, point_of_interest, establishment"
  },
  {
    "place_id": "ChIJp9_H3Kyjj4ARTvXmQwGc5fI",
    "name": "Pasha Mediterranean & Hookah Lounge",
    "street_address": "837 Jefferson Avenue",
    "city": "Redwood City",
    "state": "CA",
    "zip_code": "94063",
    "latitude": 37.485759,
    "longitude": -122.2278527,
    "website": "http://pashamed.com/",
    "category": "Restaurant",
    "types": "restaurant, point_of_interest, food, establishment"
  },
  {
    "place_id": "ChIJkwr5tayjj4ARkXakMZrJOYo",
    "name": "LV Mar Tapas & Cocktails",
    "street_address": "2042 Broadway",
    "city": "Redwood City",
    "state": "CA",
    "zip_code": "94063",
    "latitude": 37.4868371,
    "longitude": -122.2270622,
    "website": "https://www.lvmar.com/",
    "category": "Bar & Restaurant",
    "types": "bar, restaurant, food, point_of_interest, establishment"
  },
  {
    "place_id": "ChIJYeRadBuij4ARuEPXHiFSDAM",
    "name": "The Cask Wine Bar",
    "street_address": "782 Laurel Street",
    "city": "San Carlos",
    "state": "CA",
    "zip_code": "94070",
    "latitude": 37.5041059,
    "longitude": -122.2585178,
    "website": "http://www.thecaskwinebar.com/",
    "category": "Bar & Restaurant",
    "types": "bar, restaurant, food, point_of_interest, establishment"
  },
  {
    "place_id": "ChIJZ7aTcKyjj4ARkzKUPHGGGrA",
    "name": "Milagros Latin Kitchen",
    "street_address": "1099 Middlefield Road",
    "city": "Redwood City",
    "state": "CA",
    "zip_code": "94063",
    "latitude": 37.4843449,
    "longitude": -122.2264771,
    "website": "http://milagrosrc.com/",
    "category": "Restaurant",
    "types": "restaurant, food, point_of_interest, establishment"
  },
  {
    "place_id": "ChIJ2aR2-6-kj4ARCRsRgFybxcc",
    "name": "Coffeebar",
    "street_address": "1149 Chestnut Street",
    "city": "Menlo Park",
    "state": "CA",
    "zip_code": "94025",
    "latitude": 37.452,
    "longitude": -122.1855,
    "website": "https://www.coffeebar.com/pages/menlo",
    "category": "Restaurant",
    "types": "bakery, cafe, meal_takeaway, store, restaurant, food, point_of_interest, establishment"
  },
  {
    "place_id": "ChIJo4971K-kj4AReyDUlK6mSI0",
    "name": "Left Bank",
    "street_address": "635 Santa Cruz Avenue",
    "city": "Menlo Park",
    "state": "CA",
    "zip_code": "94025",
    "latitude": 37.452656,
    "longitude": -122.1833172,
    "website": "https://www.leftbank.com/",
    "category": "Bar & Restaurant",
    "types": "bar, restaurant, food, point_of_interest, establishment"
  },
  {
    "place_id": "ChIJP01j_qC8j4ARyxyiGFKN_rs",
    "name": "Back A Yard Caribbean Grill",
    "street_address": "1189 Willow Road",
    "city": "Menlo Park",
    "state": "CA",
    "zip_code": "94025",
    "latitude": 37.4727298,
    "longitude": -122.1550698,
    "website": "https://backayard.net/",
    "category": "Restaurant",
    "types": "restaurant, food, point_of_interest, establishment"
  },
  {
    "place_id": "ChIJ_-T3GD-lj4ARuK5KmNgcQBQ",
    "name": "Oak + Violet",
    "street_address": "1400 El Camino Real",
    "city": "Menlo Park",
    "state": "CA",
    "zip_code": "94025",
    "latitude": 37.4561654,
    "longitude": -122.1875838,
    "website": "https://parkjames.com/oak-violet/",
    "category": "Restaurant",
    "types": "restaurant, point_of_interest, food, establishment"
  },
  {
    "place_id": "ChIJc1ATKFa6j4ARZQoyTzpy0-8",
    "name": "Sancho's Taqueria",
    "street_address": "2723 Middlefield Road",
    "city": "Palo Alto",
    "state": "CA",
    "zip_code": "94306",
    "latitude": 37.4335341,
    "longitude": -122.1289761,
    "website": "https://sanchostaqueria.com/sanchostaqueria-midtown?utm_source=google",
    "category": "Restaurant",
    "types": "restaurant, food, point_of_interest, establishment"
  },
  {
    "place_id": "ChIJHUVxbf67j4ARDeXKRT7FmeA",
    "name": "Poke House - Palo Alto",
    "street_address": "855 El Camino Real",
    "city": "Palo Alto",
    "state": "CA",
    "zip_code": "94301",
    "latitude": 37.4384958,
    "longitude": -122.1606403,
    "website": "https://www.poke.house/locations/poke-el-camino-palo-alto",
    "category": "Restaurant",
    "types": "meal_takeaway, restaurant, point_of_interest, food, establishment"
  },
  {
    "place_id": "ChIJHbZpJ9Wkj4ARV6nV6sSjBcA",
    "name": "Coupa Cafe - Y2E2",
    "street_address": "473 Via Ortega",
    "city": "Stanford",
    "state": "CA",
    "zip_code": "94305",
    "latitude": 37.42833329999999,
    "longitude": -122.1755556,
    "website": "https://www.coupacafe.com/",
    "category": "Restaurant",
    "types": "cafe, store, restaurant, food, point_of_interest, establishment"
  },
  {
    "place_id": "ChIJMzIVsOW6j4ARuVSOvM3YcfY",
    "name": "Bistro Elan",
    "street_address": "2363 Birch Street",
    "city": "Palo Alto",
    "state": "CA",
    "zip_code": "94306",
    "latitude": 37.4277401,
    "longitude": -122.1443033,
    "website": "http://www.bistroelan.com/",
    "category": "Restaurant",
    "types": "restaurant, food, point_of_interest, establishment"
  },
  {
    "place_id": "ChIJq6CCdl-jj4ARjkoQDdcOsDE",
    "name": "Celia's",
    "street_address": "1850 El Camino Real",
    "city": "Menlo Park",
    "state": "CA",
    "zip_code": "94025",
    "latitude": 37.4595368,
    "longitude": -122.1943375,
    "website": "http://www.celiasrestaurants.com/",
    "category": "Restaurant",
    "types": "restaurant, food, point_of_interest, establishment"
  },
  {
    "place_id": "ChIJtYpHfUK7j4ARTWWW4_FP7DI",
    "name": "Cafe Zoe & Neighborhood Pizza Guy",
    "street_address": "1929 Menalto Avenue",
    "city": "Menlo Park",
    "state": "CA",
    "zip_code": "94025",
    "latitude": 37.4592632,
    "longitude": -122.1527961,
    "website": "https://neighborhood.pizza/",
    "category": "Bar & Restaurant",
    "types": "cafe, meal_takeaway, bar, store, restaurant, food, point_of_interest, establishment"
  },
  {
    "place_id": "ChIJm9IcbvW5j4ARA4qX8jpejtY",
    "name": "Shoreline Lake American Bistro",
    "street_address": "3160 North Shoreline Boulevard",
    "city": "Mountain View",
    "state": "CA",
    "zip_code": "94043",
    "latitude": 37.43261469999999,
    "longitude": -122.0881888,
    "website": "https://shorelinelake.com/unwind.html",
    "category": "Restaurant",
    "types": "cafe, restaurant, point_of_interest, food, store, establishment"
  },
  {
    "place_id": "ChIJaSemeTm7j4AR_Zs5k4tu6fU",
    "name": "Curry Up Now",
    "street_address": "321 Hamilton Avenue",
    "city": "Palo Alto",
    "state": "CA",
    "zip_code": "94301",
    "latitude": 37.44546,
    "longitude": -122.16021,
    "website": "https://www.curryupnow.com/",
    "category": "Restaurant",
    "types": "restaurant, food, point_of_interest, establishment"
  },
  {
    "place_id": "ChIJHbZpJ9Wkj4ARLAKdb9BaPAA",
    "name": "Coupa Cafe - Huang Engineering Center",
    "street_address": "475 Via Ortega",
    "city": "Stanford",
    "state": "CA",
    "zip_code": "94305",
    "latitude": 37.4281953,
    "longitude": -122.174204,
    "website": "https://www.coupacafe.com/Locations/Stanford-Huang/",
    "category": "Restaurant",
    "types": "cafe, store, restaurant, food, point_of_interest, establishment"
  },
  {
    "place_id": "ChIJaQ6tGDq7j4ARZ8PYbWmeW44",
    "name": "Thaiphoon restaurant",
    "street_address": "543 Emerson Street",
    "city": "Palo Alto",
    "state": "CA",
    "zip_code": "94301",
    "latitude": 37.4442391,
    "longitude": -122.1618761,
    "website": "http://thaiphoononline.net/",
    "category": "Bar & Restaurant",
    "types": "bar, restaurant, food, point_of_interest, establishment"
  },
  {
    "place_id": "ChIJmUWp5SS7j4ARwkXUtEmqFdc",
    "name": "Asian Box",
    "street_address": "855 El Camino Real",
    "city": "Palo Alto",
    "state": "CA",
    "zip_code": "94301",
    "latitude": 37.4387251,
    "longitude": -122.1598525,
    "website": "https://www.asianbox.com/",
    "category": "Restaurant",
    "types": "restaurant, food, point_of_interest, establishment"
  },
  {
    "place_id": "ChIJDzk2BW67j4AR_XinVoRubhI",
    "name": "[ESC]",
    "street_address": "2050 University Avenue",
    "city": "East Palo Alto",
    "state": "CA",
    "zip_code": "94303",
    "latitude": 37.4603816,
    "longitude": -122.1423245,
    "website": "https://www.fourseasons.com/siliconvalley/dining/restaurants/esc/?utm_source=google&utm_medium=organicsearch&utm_campaign=tor-pal-fab-mid-seo-na&utm_content=na-na&utm_term=na",
    "category": "Restaurant",
    "types": "cafe, meal_takeaway, bakery, restaurant, point_of_interest, food, store, establishment"
  },
  {
    "place_id": "ChIJU-h6-Q27j4AReNRuzo2WlTM",
    "name": "Telef\u00e8ric Barcelona Palo Alto",
    "street_address": "855 El Camino Real",
    "city": "Palo Alto",
    "state": "CA",
    "zip_code": "94301",
    "latitude": 37.4383765,
    "longitude": -122.1583028,
    "website": "https://www.telefericbarcelona.com/",
    "category": "Restaurant",
    "types": "restaurant, food, point_of_interest, establishment"
  }
]