[
  {
    "place_id": "ChIJPSVdmo6AhYARUg2U26c-XC0",
    "name": "Golden Gate Tap Room",
    "street_address": "449 Powell Street",
    "city": "San Francisco",
    "state": "CA",
    "zip_code": "94108",
    "latitude": 37.7889738,
    "longitude": -122.4086849,
    "website": "http://www.ggtaproom.com/",
    "category": "Bar & Restaurant",
    "types": "bar, restaurant, point_of_interest, food, establishment"
  },
  {
    "place_id": "ChIJl7WTv6aAhYAR-PflVqm6yoY",
    "name": "Mad Dog in the Fog",
    "street_address": "1568 Haight Street",
    "city": "San Francisco",
    "state": "CA",
    "zip_code": "94117",
    "latitude": 37.7701408,
    "longitude": -122.448136,
    "website": null,
    "category": "Bar & Restaurant",
    "types": "bar, restaurant, food, point_of_interest, establishment"
  },
  {
    "place_id": "ChIJRcqFN4aAhYARSvdFY6nNytM",
    "name": "The Harlequin",
    "street_address": "68 4th Street",
    "city": "San Francisco",
    "state": "CA",
    "zip_code": "94103",
    "latitude": 37.7848813,
    "longitude": -122.4050607,
    "website": "https://harlequinsf.com/",
    "category": "Bar & Restaurant",
    "types": "night_club, bar, restaurant, food, point_of_interest, establishment"
  },
  {
    "place_id": "ChIJ_ajJ82KAhYARFz06Pju-pUY",
    "name": "Louie's Bar",
    "street_address": "55 Stevenson Street",
    "city": "San Francisco",
    "state": "CA",
    "zip_code": "94105",
    "latitude": 37.7895444,
    "longitude": -122.3996028,
    "website": "https://louiesbar.pourguys.com/",
    "category": "Bar & Restaurant",
    "types": "bar, restaurant, food, point_of_interest, establishment"
  },
  {
    "place_id": "ChIJqXKCoJCAhYARAZIlAwc2JXE",
    "name": "Pomeroy Bar & Grill (Formerly Shovels)",
    "street_address": "460 Larkin Street",
    "city": "San Francisco",
    "state": "CA",
    "zip_code": "94102",
    "latitude": 37.782214,
    "longitude": -122.4171055,
    "website": "http://pomeroysf.com/",
    "category": "Bar & Restaurant",
    "types": "night_club, bar, restaurant, food, point_of_interest, establishment"
  },
  {
    "place_id": "ChIJ7aoc442AhYARkrbM7GU_5mc",
    "name": "Sutter Pub & Restaurant",
    "street_address": "700 Sutter Street",
    "city": "San Francisco",
    "state": "CA",
    "zip_code": "94109",
    "latitude": 37.7889228,
    "longitude": -122.4121485,
    "website": "http://sutterpubsf.com/",
    "category": "Bar & Restaurant",
    "types": "bar, restaurant, food, point_of_interest, establishment"
  },
  {
    "place_id": "ChIJCVl8EUd-j4ARGVQfw8O8U6I",
    "name": "The Napper Tandy",
    "street_address": "3200 24th Street",
    "city": "San Francisco",
    "state": "CA",
    "zip_code": "94110",
    "latitude": 37.7524774,
    "longitude": -122.4164941,
    "website": "https://www.thenappertandysf.com/",
    "category": "Bar & Restaurant",
    "types": "bar, restaurant, food, point_of_interest, establishment"
  },
  {
    "place_id": "ChIJE5T3YoqAhYARtxUohSbFVDc",
    "name": "Wayfare Tavern",
    "street_address": "201 Pine Street",
    "city": "San Francisco",
    "state": "CA",
    "zip_code": "94111",
    "latitude": 37.7921097,
    "longitude": -122.3999688,
    "website": "https://www.wayfaretavern.com/",
    "category": "Bar & Restaurant",
    "types": "bar, restaurant, food, point_of_interest, establishment"
  },
  {
    "place_id": "ChIJtbjafTWHhYARbxkpegkGNmY",
    "name": "The Pig and Whistle",
    "street_address": "2801 Geary Boulevard",
    "city": "San Francisco",
    "state": "CA",
    "zip_code": "94118",
    "latitude": 37.7819837,
    "longitude": -122.4491804,
    "website": "https://www.facebook.com/pages/category/Pub/Pig-and-Whistle-SF-118708431487082/",
    "category": "Bar & Restaurant",
    "types": "bar, restaurant, food, point_of_interest, establishment"
  },
  {
    "place_id": "ChIJC9wG8l-AhYARfSw_a7FX_VM",
    "name": "The Old Ship Saloon",
    "street_address": "298 Pacific Avenue",
    "city": "San Francisco",
    "state": "CA",
    "zip_code": "94111",
    "latitude": 37.7977532,
    "longitude": -122.4007788,
    "website": "https://www.oldshipsaloonsf.com/",
    "category": "Bar & Restaurant",
    "types": "bar, restaurant, food, point_of_interest, establishment"
  },
  {
    "place_id": "ChIJVZ_Ubit-j4ARVJIAqcfothk",
    "name": "Mars Bar & Restaurant",
    "street_address": "798 Brannan Street",
    "city": "San Francisco",
    "state": "CA",
    "zip_code": "94103",
    "latitude": 37.7732839,
    "longitude": -122.4032609,
    "website": "http://www.marsbarsf.com/",
    "category": "Bar & Restaurant",
    "types": "bar, restaurant, food, point_of_interest, establishment"
  },
  {
    "place_id": "ChIJO-TDcImAhYAR6O16Hgw4feE",
    "name": "The Irish Bank",
    "street_address": "10 Mark Lane",
    "city": "San Francisco",
    "state": "CA",
    "zip_code": "94108",
    "latitude": 37.7903952,
    "longitude": -122.4044881,
    "website": "http://theirishbank.com/",
    "category": "Bar & Restaurant",
    "types": "bar, restaurant, food, point_of_interest, establishment"
  },
  {
    "place_id": "ChIJafkb1mGAhYARsvWRNzHxt0w",
    "name": "Irish Times",
    "street_address": "500 Sacramento Street",
    "city": "San Francisco",
    "state": "CA",
    "zip_code": "94111",
    "latitude": 37.7940613,
    "longitude": -122.401694,
    "website": "http://www.sfirishtimes.com/",
    "category": "Bar & Restaurant",
    "types": "bar, restaurant, food, point_of_interest, establishment"
  },
  {
    "place_id": "ChIJY-YkpGGAhYARyWegtC5v6w4",
    "name": "Royal Exchange Restaurant",
    "street_address": "301 Sacramento Street",
    "city": "San Francisco",
    "state": "CA",
    "zip_code": "94111",
    "latitude": 37.7941431,
    "longitude": -122.3992091,
    "website": "https://www.royalexchange.com/",
    "category": "Bar & Restaurant",
    "types": "bar, restaurant, food, point_of_interest, establishment"
  },
  {
    "place_id": "ChIJ63DdwJOAhYARX262QiRI8bU",
    "name": "Ace's Bar",
    "street_address": "998 Sutter Street",
    "city": "San Francisco",
    "state": "CA",
    "zip_code": "94109",
    "latitude": 37.788311,
    "longitude": -122.4167098,
    "website": "http://www.acesbarsf.com/",
    "category": "Bar & Restaurant",
    "types": "bar, restaurant, food, point_of_interest, establishment"
  },
  {
    "place_id": "ChIJ14-vsD2HhYAR2bxlkIN_OXk",
    "name": "Steins",
    "street_address": "731 Clement Street",
    "city": "San Francisco",
    "state": "CA",
    "zip_code": "94118",
    "latitude": 37.7827208,
    "longitude": -122.4671833,
    "website": null,
    "category": "Bar & Restaurant",
    "types": "bar, restaurant, food, point_of_interest, establishment"
  },
  {
    "place_id": "ChIJ8SMqIoyAhYAR3YqQwKhcMpA",
    "name": "Last Drop Tavern",
    "street_address": "550 Powell Street",
    "city": "San Francisco",
    "state": "CA",
    "zip_code": "94108",
    "latitude": 37.7899597,
    "longitude": -122.4085332,
    "website": "https://www.lastdroptavernsf.com/",
    "category": "Bar & Restaurant",
    "types": "bar, restaurant, food, point_of_interest, establishment"
  },
  {
    "place_id": "ChIJ3UgDy6aAhYARdyIqpQ7ZoxU",
    "name": "Nickie's",
    "street_address": "466 Haight Street",
    "city": "San Francisco",
    "state": "CA",
    "zip_code": "94117",
    "latitude": 37.77234899999999,
    "longitude": -122.4298641,
    "website": "http://nickiesbarsf.com/",
    "category": "Bar & Restaurant",
    "types": "bar, restaurant, food, point_of_interest, establishment"
  },
  {
    "place_id": "ChIJa0LSlMmAhYARWfs7v7LHncc",
    "name": "The San Francisco Athletic Club",
    "street_address": "1750 Divisadero Street",
    "city": "San Francisco",
    "state": "CA",
    "zip_code": "94115",
    "latitude": 37.78610789999999,
    "longitude": -122.4398737,
    "website": "http://www.thesfac.com/",
    "category": "Bar & Restaurant",
    "types": "bar, restaurant, food, point_of_interest, establishment"
  },
  {
    "place_id": "ChIJsYeEyY-AhYARFukSYv7t_3Q",
    "name": "Jasper's Corner Tap and Kitchen",
    "street_address": "401 Taylor Street",
    "city": "San Francisco",
    "state": "CA",
    "zip_code": "94102",
    "latitude": 37.7861185,
    "longitude": -122.4115102,
    "website": "https://jasperscornertap.com/?utm_source=google&utm_medium=organic&utm_campaign=business_listing",
    "category": "Bar & Restaurant",
    "types": "bar, night_club, restaurant, food, point_of_interest, establishment"
  },
  {
    "place_id": "ChIJkfstTDyHhYARJPNuk4E0SFE",
    "name": "Richmond Republic Draught House",
    "street_address": "642 Clement Street",
    "city": "San Francisco",
    "state": "CA",
    "zip_code": "94118",
    "latitude": 37.7830143,
    "longitude": -122.4662435,
    "website": "http://www.richmondrepublicsf.com/",
    "category": "Bar & Restaurant",
    "types": "bar, restaurant, food, point_of_interest, establishment"
  },
  {
    "place_id": "ChIJrRKGrYaAhYARKatnpmluuMM",
    "name": "Tempest Bar & Box Kitchen",
    "street_address": "2940 431 Natoma Street",
    "city": "San Francisco",
    "state": "CA",
    "zip_code": "94103",
    "latitude": 37.7811475,
    "longitude": -122.4063767,
    "website": "https://tempest.pourguys.com/",
    "category": "Bar & Restaurant",
    "types": "bar, restaurant, food, point_of_interest, establishment"
  },
  {
    "place_id": "ChIJYQrxFI-AhYARSkQbx58DuHE",
    "name": "Johnny Foley's Irish House",
    "street_address": "243 O'Farrell Street",
    "city": "San Francisco",
    "state": "CA",
    "zip_code": "94102",
    "latitude": 37.7862083,
    "longitude": -122.4087528,
    "website": "https://www.johnnyfoleys.com/eat",
    "category": "Bar & Restaurant",
    "types": "bar, restaurant, food, point_of_interest, establishment"
  },
  {
    "place_id": "ChIJZ76fAGGAhYARjl9r8Nnoo6w",
    "name": "Patriot House Pub",
    "street_address": "2 Embarcadero Center",
    "city": "San Francisco",
    "state": "CA",
    "zip_code": "94111",
    "latitude": 37.795,
    "longitude": -122.3988889,
    "website": "http://www.patriothousepub.com/",
    "category": "Bar & Restaurant",
    "types": "bar, restaurant, food, point_of_interest, establishment"
  },
  {
    "place_id": "ChIJ09vW_fOAhYARl-pf9DO3S4M",
    "name": "Maggie McGarry's",
    "street_address": "1353 Grant Avenue",
    "city": "San Francisco",
    "state": "CA",
    "zip_code": "94133",
    "latitude": 37.7994421,
    "longitude": -122.4074913,
    "website": "http://maggiemcgarrys.com/",
    "category": "Bar & Restaurant",
    "types": "bar, restaurant, food, point_of_interest, establishment"
  },
  {
    "place_id": "ChIJFw3ArCd-j4AR5T85mhj6N5Y",
    "name": "The Willows",
    "street_address": "1582 Folsom Street",
    "city": "San Francisco",
    "state": "CA",
    "zip_code": "94103",
    "latitude": 37.7711332,
    "longitude": -122.4150232,
    "website": "http://thewillowssf.com/",
    "category": "Bar & Restaurant",
    "types": "bar, restaurant, food, point_of_interest, establishment"
  },
  {
    "place_id": "ChIJHSGzi_yAhYARl_ENLPKvLdQ",
    "name": "Wipeout Bar & Grill",
    "street_address": "Pier 39",
    "city": "San Francisco",
    "state": "CA",
    "zip_code": "94133",
    "latitude": 37.80895659999999,
    "longitude": -122.4102775,
    "website": "https://www.wipeoutbarandgrill.com/?utm_source=google&utm_medium=organic&utm_campaign=gmb_listing",
    "category": "Bar & Restaurant",
    "types": "bar, restaurant, food, point_of_interest, establishment"
  },
  {
    "place_id": "ChIJtX1s3tqAhYAR8RDMpH2eHbw",
    "name": "Palm House",
    "street_address": "2032 Union Street",
    "city": "San Francisco",
    "state": "CA",
    "zip_code": "94123",
    "latitude": 37.79763579999999,
    "longitude": -122.4328896,
    "website": "https://www.palmhousesf.com/",
    "category": "Bar & Restaurant",
    "types": "restaurant, bar, food, point_of_interest, establishment"
  },
  {
    "place_id": "ChIJl1AbEh5_j4ARwMkM4PNfZL0",
    "name": "Question Mark Bar & Restaurant",
    "street_address": "312 Harriet Street",
    "city": "San Francisco",
    "state": "CA",
    "zip_code": "94103",
    "latitude": 37.7752983,
    "longitude": -122.4029017,
    "website": "https://questionmarksf.com/",
    "category": "Bar & Restaurant",
    "types": "night_club, bar, restaurant, food, point_of_interest, establishment"
  },
  {
    "place_id": "ChIJ6ctEXHCHhYARTZL5GaJSTP4",
    "name": "Durty Nelly's",
    "street_address": "2328 Irving Street",
    "city": "San Francisco",
    "state": "CA",
    "zip_code": "94122",
    "latitude": 37.7634454,
    "longitude": -122.483051,
    "website": null,
    "category": "Bar & Restaurant",
    "types": "bar, restaurant, food, point_of_interest, establishment"
  },
  {
    "place_id": "ChIJQzfPo2GAhYAR6KAo1xHUw_k",
    "name": "Harrington's Bar and Grill",
    "street_address": "245 Front Street",
    "city": "San Francisco",
    "state": "CA",
    "zip_code": "94111",
    "latitude": 37.7940272,
    "longitude": -122.399087,
    "website": "https://www.harringtonssf.com/",
    "category": "Bar & Restaurant",
    "types": "bar, restaurant, food, point_of_interest, establishment"
  },
  {
    "place_id": "ChIJ3VJvKxx-j4AR5PnwzAq_Ln8",
    "name": "San Francisco Brewing Co.",
    "street_address": "3150 Polk Street",
    "city": "San Francisco",
    "state": "CA",
    "zip_code": "94109",
    "latitude": 37.8055723,
    "longitude": -122.4235068,
    "website": "http://www.sfbrewingco.com/",
    "category": "Bar & Restaurant",
    "types": "bar, restaurant, food, point_of_interest, establishment"
  },
  {
    "place_id": "ChIJQ7-WcoiAhYARhy9j17oeBCA",
    "name": "The Lark",
    "street_address": "685 Market Street",
    "city": "San Francisco",
    "state": "CA",
    "zip_code": "94105",
    "latitude": 37.7877269,
    "longitude": -122.4026141,
    "website": "http://www.thelarkbar.com/",
    "category": "Bar & Restaurant",
    "types": "bar, restaurant, food, point_of_interest, establishment"
  },
  {
    "place_id": "ChIJcwEUd1-AhYARidAew0zJil0",
    "name": "Grumpy's Restaurant & Pub",
    "street_address": "125 Vallejo Street",
    "city": "San Francisco",
    "state": "CA",
    "zip_code": "94111",
    "latitude": 37.7994947,
    "longitude": -122.4005959,
    "website": "https://grumpyspubsf.com/",
    "category": "Bar & Restaurant",
    "types": "meal_delivery, bar, restaurant, food, point_of_interest, establishment"
  },
  {
    "place_id": "ChIJwR8dNeqAhYARhTfTijtXhAs",
    "name": "Bell Tower",
    "street_address": "1900 Polk Street",
    "city": "San Francisco",
    "state": "CA",
    "zip_code": "94109",
    "latitude": 37.79430609999999,
    "longitude": -122.4212502,
    "website": null,
    "category": "Bar & Restaurant",
    "types": "restaurant, bar, food, point_of_interest, establishment"
  },
  {
    "place_id": "ChIJE0grwKyAhYARYEGINq3LTPQ",
    "name": "Magnolia SF - Haight",
    "street_address": "1398 Haight Street",
    "city": "San Francisco",
    "state": "CA",
    "zip_code": "94117",
    "latitude": 37.7703753,
    "longitude": -122.4451778,
    "website": "http://magnoliabrewing.com/",
    "category": "Bar & Restaurant",
    "types": "bar, restaurant, food, point_of_interest, establishment"
  },
  {
    "place_id": "ChIJNVzjV-p9j4ARGvZLgdajefY",
    "name": "McCarthy's Irish Bar",
    "street_address": "46 West Portal Avenue",
    "city": "San Francisco",
    "state": "CA",
    "zip_code": "94127",
    "latitude": 37.7403984,
    "longitude": -122.4665246,
    "website": "https://www.mccarthysirishbarsf.com/",
    "category": "Bar & Restaurant",
    "types": "bar, restaurant, food, point_of_interest, establishment"
  },
  {
    "place_id": "ChIJa4YhPX-AhYARrErOCjyrOBw",
    "name": "Black Hammer Brewing Company",
    "street_address": "544 Bryant Street",
    "city": "San Francisco",
    "state": "CA",
    "zip_code": "94107",
    "latitude": 37.7806806,
    "longitude": -122.3969583,
    "website": "http://blackhammerbrewing.com/",
    "category": "Bar & Restaurant",
    "types": "bar, restaurant, food, point_of_interest, establishment"
  },
  {
    "place_id": "ChIJl1L3AAqBhYARfrEds4G_pEU",
    "name": "ZO\u00cb Cocktail Bar & Bites",
    "street_address": "579 Howard Street",
    "city": "San Francisco",
    "state": "CA",
    "zip_code": "94105",
    "latitude": 37.7870655,
    "longitude": -122.3974916,
    "website": "http://www.zoebarsf.com/",
    "category": "Bar & Restaurant",
    "types": "night_club, bar, restaurant, point_of_interest, food, establishment"
  },
  {
    "place_id": "ChIJt29ThNeBhYARQnKR8tuqOgM",
    "name": "THE SOCIALITE KITCHEN & BREWERY- Fisherman's Wharf- SFO",
    "street_address": "79 Jefferson Street",
    "city": "San Francisco",
    "state": "CA",
    "zip_code": "94133",
    "latitude": 37.8083348,
    "longitude": -122.4135805,
    "website": "http://www.thesocialitekitchenbrewery.com/",
    "category": "Bar & Restaurant",
    "types": "bar, restaurant, food, point_of_interest, establishment"
  },
  {
    "place_id": "ChIJMZ7bkYJ9j4ARdAWz3Vy5k1Q",
    "name": "The Four Deuces",
    "street_address": "2319 Taraval Street",
    "city": "San Francisco",
    "state": "CA",
    "zip_code": "94116",
    "latitude": 37.7422,
    "longitude": -122.4911389,
    "website": "http://4deuces.com/",
    "category": "Bar & Restaurant",
    "types": "bar, restaurant, point_of_interest, food, establishment"
  },
  {
    "place_id": "ChIJAQBFvIh-j4ARUyEYIXXBBpA",
    "name": "Recovery Room",
    "street_address": "4528 Mission Street",
    "city": "San Francisco",
    "state": "CA",
    "zip_code": "94112",
    "latitude": 37.7255762,
    "longitude": -122.4344595,
    "website": null,
    "category": "Bar & Restaurant",
    "types": "bar, restaurant, food, point_of_interest, establishment"
  }
]