[
  {
    "place_id": "ChIJibX4ME8VkFQRypD16V31l-Q",
    "name": "The 5 Point Cafe",
    "street_address": "415 Cedar Street",
    "city": "Seattle",
    "state": "WA",
    "zip_code": "98121",
    "latitude": 47.6180712,
    "longitude": -122.3473786,
    "website": "http://www.the5pointcafe.com/",
    "category": "Bar & Restaurant",
    "types": "bar, restaurant, food, point_of_interest, establishment"
  },
  {
    "place_id": "ChIJSxHAcbNqkFQRimpTht7bPsM",
    "name": "Yard House",
    "street_address": "1501 4th Avenue",
    "city": "Seattle",
    "state": "WA",
    "zip_code": "98101",
    "latitude": 47.61051,
    "longitude": -122.33735,
    "website": "https://www.yardhouse.com/locations/wa/seattle/seattle-4th-and-pike/8343?cmpid=br:yh_ag:ie_ch:loc_ca:YHGMB_sn:gmb_gt:seattle-wa-8343_pl:locurl_rd:1041",
    "category": "Bar & Restaurant",
    "types": "meal_takeaway, bar, restaurant, food, point_of_interest, establishment"
  },
  {
    "place_id": "ChIJYSjPILJqkFQRE-m7s1g6K0Y",
    "name": "Von's 1000Spirits",
    "street_address": "1225 1st Avenue",
    "city": "Seattle",
    "state": "WA",
    "zip_code": "98101",
    "latitude": 47.6066052,
    "longitude": -122.3384085,
    "website": "https://www.vons1000spirits.com/?utm_source=gmb&utm_medium=organic&utm_campaign=gmbpost",
    "category": "Bar & Restaurant",
    "types": "bar, restaurant, food, point_of_interest, establishment"
  },
  {
    "place_id": "ChIJy5yh7LJqkFQRwDkAcw9At84",
    "name": "Old Stove Brewing Co \u2014 Pike Place",
    "street_address": "1901 Western Avenue",
    "city": "Seattle",
    "state": "WA",
    "zip_code": "98101",
    "latitude": 47.609483,
    "longitude": -122.3430118,
    "website": "http://www.oldstove.com/",
    "category": "Bar & Restaurant",
    "types": "bar, restaurant, point_of_interest, food, establishment"
  },
  {
    "place_id": "ChIJFWNgXgIVkFQRFnIMzElGH94",
    "name": "Pub 70",
    "street_address": "2801 Alaskan Way",
    "city": "Seattle",
    "state": "WA",
    "zip_code": "98121",
    "latitude": 47.6146509,
    "longitude": -122.354731,
    "website": "https://www.pub70.com/",
    "category": "Bar & Restaurant",
    "types": "bar, restaurant, food, point_of_interest, establishment"
  },
  {
    "place_id": "ChIJw3ZPO7BqkFQRwt9kLngxs4w",
    "name": "Owl N' Thistle",
    "street_address": "808 Post Avenue",
    "city": "Seattle",
    "state": "WA",
    "zip_code": "98104",
    "latitude": 47.6032446,
    "longitude": -122.3355958,
    "website": "http://www.owlnthistle.com/",
    "category": "Bar & Restaurant",
    "types": "bar, restaurant, food, point_of_interest, establishment"
  },
  {
    "place_id": "ChIJ5-MKSkwVkFQR6uTnu8Akzf0",
    "name": "ROCCO'S",
    "street_address": "2312 2nd Avenue",
    "city": "Seattle",
    "state": "WA",
    "zip_code": "98121",
    "latitude": 47.6145021,
    "longitude": -122.3460224,
    "website": "http://www.roccosseattle.com/",
    "category": "Bar & Restaurant",
    "types": "night_club, bar, restaurant, food, point_of_interest, establishment"
  },
  {
    "place_id": "ChIJUfxntbpqkFQRxoN_1GvKcTU",
    "name": "Damn the Weather",
    "street_address": "116 1st Avenue South",
    "city": "Seattle",
    "state": "WA",
    "zip_code": "98104",
    "latitude": 47.601122,
    "longitude": -122.333951,
    "website": "http://www.damntheweather.com/",
    "category": "Bar & Restaurant",
    "types": "bar, restaurant, point_of_interest, food, establishment"
  },
  {
    "place_id": "ChIJF7ZkqaRqkFQRbhNt6fDQljQ",
    "name": "13 Coins Seattle",
    "street_address": "255 South King Street",
    "city": "Seattle",
    "state": "WA",
    "zip_code": "98104",
    "latitude": 47.59815829999999,
    "longitude": -122.3311639,
    "website": "https://www.13coins.com/",
    "category": "Bar & Restaurant",
    "types": "bar, restaurant, point_of_interest, food, establishment"
  },
  {
    "place_id": "ChIJWVuUkLpqkFQRjAp4gthzzdo",
    "name": "Collins Pub",
    "street_address": "526 2nd Avenue",
    "city": "Seattle",
    "state": "WA",
    "zip_code": "98104",
    "latitude": 47.6022337,
    "longitude": -122.3321354,
    "website": "http://www.collinspubseattle.com/",
    "category": "Bar & Restaurant",
    "types": "bar, restaurant, food, point_of_interest, establishment"
  },
  {
    "place_id": "ChIJLYDanzcVkFQRtGt9wJI_AnQ",
    "name": "LOCAL Public Eatery Terry Ave",
    "street_address": "404 Terry Avenue North",
    "city": "Seattle",
    "state": "WA",
    "zip_code": "98109",
    "latitude": 47.62231999999999,
    "longitude": -122.336965,
    "website": "https://localpubliceatery.com/neighbourhoods/terry-ave/",
    "category": "Bar & Restaurant",
    "types": "restaurant, bar, point_of_interest, food, establishment"
  },
  {
    "place_id": "ChIJX-GRYhIVkFQR0pVAbeAeH-0",
    "name": "Hilltop Ale House",
    "street_address": "2129 Queen Anne Avenue North",
    "city": "Seattle",
    "state": "WA",
    "zip_code": "98109",
    "latitude": 47.6380685,
    "longitude": -122.3570943,
    "website": "http://www.hilltopalehouse.com/",
    "category": "Bar & Restaurant",
    "types": "bar, restaurant, food, point_of_interest, establishment"
  },
  {
    "place_id": "ChIJ2fJh2RoVkFQRm2sEB9TX1bo",
    "name": "The Victor Tavern - 6th & Lenora",
    "street_address": "2121 6th Avenue",
    "city": "Seattle",
    "state": "WA",
    "zip_code": "98121",
    "latitude": 47.6153686,
    "longitude": -122.3403288,
    "website": "https://ethanstowellrestaurants.com/restaurants/the-victor-tavern-south-lake-union-seattle",
    "category": "Bar & Restaurant",
    "types": "restaurant, bar, food, point_of_interest, establishment"
  },
  {
    "place_id": "ChIJdwN6RbJqkFQRTcV4uKGf5jE",
    "name": "Pike Pub",
    "street_address": "1415 1st Avenue",
    "city": "Seattle",
    "state": "WA",
    "zip_code": "98101",
    "latitude": 47.608232,
    "longitude": -122.339743,
    "website": "http://www.pikebrewing.com/",
    "category": "Bar & Restaurant",
    "types": "bar, restaurant, food, point_of_interest, establishment"
  },
  {
    "place_id": "ChIJfz0mN6VqkFQRKduJIM2Kskw",
    "name": "Central Saloon",
    "street_address": "207 1st Avenue South",
    "city": "Seattle",
    "state": "WA",
    "zip_code": "98104",
    "latitude": 47.600613,
    "longitude": -122.3343911,
    "website": "http://www.centralsaloon.com/",
    "category": "Bar & Restaurant",
    "types": "bar, clothing_store, restaurant, point_of_interest, food, store, establishment"
  },
  {
    "place_id": "ChIJyflW1E0VkFQR0ONRNk5ABdQ",
    "name": "Buckley's in Belltown",
    "street_address": "2331 2nd Avenue",
    "city": "Seattle",
    "state": "WA",
    "zip_code": "98121",
    "latitude": 47.61459250000001,
    "longitude": -122.3469495,
    "website": "http://buckleyspubs.com/",
    "category": "Bar & Restaurant",
    "types": "bar, restaurant, food, point_of_interest, establishment"
  },
  {
    "place_id": "ChIJqV5Gv7sVkFQRPHC25ryBJaY",
    "name": "The Raven",
    "street_address": "1809 Minor Avenue",
    "city": "Seattle",
    "state": "WA",
    "zip_code": "98101",
    "latitude": 47.6169729,
    "longitude": -122.3310974,
    "website": "https://theravenseattle.com/",
    "category": "Bar & Restaurant",
    "types": "bar, restaurant, food, point_of_interest, establishment"
  },
  {
    "place_id": "ChIJWalY97JqkFQR03-hwcBDefo",
    "name": "Pike Place Bar & Grill",
    "street_address": "90 Pike Street",
    "city": "Seattle",
    "state": "WA",
    "zip_code": "98101",
    "latitude": 47.6089274,
    "longitude": -122.340594,
    "website": "https://www.eatatpikeplace.com/",
    "category": "Bar & Restaurant",
    "types": "bar, restaurant, food, point_of_interest, establishment"
  },
  {
    "place_id": "ChIJ2Rza3cpqkFQRZdmDkG51JUc",
    "name": "McMenamins Six Arms",
    "street_address": "300 East Pike Street",
    "city": "Seattle",
    "state": "WA",
    "zip_code": "98122",
    "latitude": 47.6141304,
    "longitude": -122.3277592,
    "website": "https://www.mcmenamins.com/six-arms?utm_source=Google%20Maps&utm_medium=Website%20Button&utm_campaign=Six%20Arms",
    "category": "Bar & Restaurant",
    "types": "bar, restaurant, food, point_of_interest, establishment"
  },
  {
    "place_id": "ChIJHVmPk7pqkFQRekQgR8tHgw0",
    "name": "Shawn O'Donnell's American Grill and Irish Pub",
    "street_address": "508 2nd Avenue",
    "city": "Seattle",
    "state": "WA",
    "zip_code": "98104",
    "latitude": 47.60197869999999,
    "longitude": -122.3319805,
    "website": "http://www.shawnodonnells.com/",
    "category": "Bar & Restaurant",
    "types": "bar, restaurant, food, point_of_interest, establishment"
  },
  {
    "place_id": "ChIJZ7vyKjgVkFQR5znRuHMGFxg",
    "name": "re:public",
    "street_address": "429 Westlake Avenue North",
    "city": "Seattle",
    "state": "WA",
    "zip_code": "98109",
    "latitude": 47.6229107,
    "longitude": -122.3386494,
    "website": "http://www.republicseattle.com/",
    "category": "Bar & Restaurant",
    "types": "bar, restaurant, food, point_of_interest, establishment"
  },
  {
    "place_id": "ChIJHS_tx0QVkFQRAiGCRT8xYLA",
    "name": "Buckley's On Queen Anne",
    "street_address": "232 1st Avenue West",
    "city": "Seattle",
    "state": "WA",
    "zip_code": "98119",
    "latitude": 47.6207704,
    "longitude": -122.3579012,
    "website": "http://buckleyspubs.com/",
    "category": "Bar & Restaurant",
    "types": "bar, restaurant, food, point_of_interest, establishment"
  },
  {
    "place_id": "ChIJs0wbQE4VkFQRXDfBCoEe708",
    "name": "Some Random Bar",
    "street_address": "2604 1st Avenue",
    "city": "Seattle",
    "state": "WA",
    "zip_code": "98121",
    "latitude": 47.6155026,
    "longitude": -122.349845,
    "website": "http://somerandombar.com/",
    "category": "Bar & Restaurant",
    "types": "bar, restaurant, point_of_interest, food, establishment"
  },
  {
    "place_id": "ChIJVX9sGEEVkFQRcY5jfK6aCIM",
    "name": "McMenamins Queen Anne",
    "street_address": "200 Roy Street",
    "city": "Seattle",
    "state": "WA",
    "zip_code": "98109",
    "latitude": 47.62560269999999,
    "longitude": -122.3517331,
    "website": "https://www.mcmenamins.com/queen-anne?utm_source=Google%20Maps&utm_medium=Website%20Button&utm_campaign=Queen%20Anne",
    "category": "Bar & Restaurant",
    "types": "bar, restaurant, point_of_interest, food, establishment"
  },
  {
    "place_id": "ChIJq5DYhdtqkFQRKuNQOa__yQY",
    "name": "Twilight Exit",
    "street_address": "2514 East Cherry Street",
    "city": "Seattle",
    "state": "WA",
    "zip_code": "98122",
    "latitude": 47.6082183,
    "longitude": -122.2994555,
    "website": "http://www.facebook.com/Twilight-Exit-133599351440/",
    "category": "Bar & Restaurant",
    "types": "bar, restaurant, food, point_of_interest, establishment"
  },
  {
    "place_id": "ChIJ6x4V3LpqkFQRWDvyzCe4vz0",
    "name": "McCoy's Firehouse Bar & Grill",
    "street_address": "173 South Washington Street",
    "city": "Seattle",
    "state": "WA",
    "zip_code": "98104",
    "latitude": 47.60078889999999,
    "longitude": -122.3318556,
    "website": "http://mccoysfirehouse.com/",
    "category": "Bar & Restaurant",
    "types": "bar, restaurant, food, point_of_interest, establishment"
  },
  {
    "place_id": "ChIJXxhTmrxqkFQRQsJTGJGjAn8",
    "name": "Joe's Bar & Grill",
    "street_address": "500 South King Street",
    "city": "Seattle",
    "state": "WA",
    "zip_code": "98104",
    "latitude": 47.5984675,
    "longitude": -122.3275052,
    "website": null,
    "category": "Bar & Restaurant",
    "types": "bar, restaurant, food, point_of_interest, establishment"
  },
  {
    "place_id": "ChIJ7ff2EmkVkFQRwqnH9wP5eJ8",
    "name": "Just The Tap",
    "street_address": "90 Blanchard Street",
    "city": "Seattle",
    "state": "WA",
    "zip_code": "98121",
    "latitude": 47.6124491,
    "longitude": -122.3456823,
    "website": "https://jttsea.com/",
    "category": "Bar & Restaurant",
    "types": "restaurant, bar, food, point_of_interest, establishment"
  },
  {
    "place_id": "ChIJrwaaUuoVkFQRkQIBZ4Er8po",
    "name": "Imperial kitchen and bar",
    "street_address": "2400 1st Avenue",
    "city": "Seattle",
    "state": "WA",
    "zip_code": "98121",
    "latitude": 47.6143211,
    "longitude": -122.3478279,
    "website": "http://imperialbelltown.com/",
    "category": "Bar & Restaurant",
    "types": "restaurant, bar, food, point_of_interest, establishment"
  },
  {
    "place_id": "ChIJB9c1hrRqkFQRAdly96gziZ4",
    "name": "Elephant & Castle",
    "street_address": "1415 5th Avenue",
    "city": "Seattle",
    "state": "WA",
    "zip_code": "98101",
    "latitude": 47.6099215,
    "longitude": -122.3355269,
    "website": "https://www.elephantcastle.com/en/locations/wa/seattle/1415-fifth-avenue",
    "category": "Restaurant",
    "types": "restaurant, food, point_of_interest, establishment"
  },
  {
    "place_id": "ChIJWVBFYDBrkFQRe3izcKdQSYg",
    "name": "Olympic Bar",
    "street_address": "411 University Street",
    "city": "Seattle",
    "state": "WA",
    "zip_code": "98101",
    "latitude": 47.6079956,
    "longitude": -122.3338074,
    "website": "https://www.fairmont.com/seattle/dining/olympic-bar/",
    "category": "Bar & Restaurant",
    "types": "restaurant, bar, food, point_of_interest, establishment"
  },
  {
    "place_id": "ChIJI9HnJrQUkFQRgfVglJxLOVU",
    "name": "The Attic",
    "street_address": "4226 East Madison Street",
    "city": "Seattle",
    "state": "WA",
    "zip_code": "98112",
    "latitude": 47.6363301,
    "longitude": -122.2776335,
    "website": "https://www.theatticmadpark.com/",
    "category": "Bar & Restaurant",
    "types": "bar, restaurant, food, point_of_interest, establishment"
  },
  {
    "place_id": "ChIJ17JXsvgVkFQRSaTeLD1nwsA",
    "name": "Shawn O'Donnell's American Grill and Irish Pub",
    "street_address": "3601 Fremont Avenue North",
    "city": "Seattle",
    "state": "WA",
    "zip_code": "98103",
    "latitude": 47.651538,
    "longitude": -122.3501511,
    "website": "https://www.shawnodonnells.com/",
    "category": "Bar & Restaurant",
    "types": "bar, restaurant, food, point_of_interest, establishment"
  },
  {
    "place_id": "ChIJKaC2QvMUkFQRWVvn71SBmuY",
    "name": "Big Time Brewery & Alehouse",
    "street_address": "4133 University Way Northeast",
    "city": "Seattle",
    "state": "WA",
    "zip_code": "98105",
    "latitude": 47.657851,
    "longitude": -122.313492,
    "website": "http://www.bigtimebrewery.com/",
    "category": "Bar & Restaurant",
    "types": "bar, restaurant, food, point_of_interest, establishment"
  },
  {
    "place_id": "ChIJgbiD5rJqkFQRI-lpw4TzU8Q",
    "name": "The Taproom at Pike Place",
    "street_address": "1525 1st Avenue",
    "city": "Seattle",
    "state": "WA",
    "zip_code": "98101",
    "latitude": 47.60966029999999,
    "longitude": -122.3410152,
    "website": "http://www.taproomatpikeplace.com/",
    "category": "Bar & Restaurant",
    "types": "bar, restaurant, food, point_of_interest, establishment"
  },
  {
    "place_id": "ChIJq8IeNsxqkFQRwmLlcAn5WdY",
    "name": "Sam's Tavern",
    "street_address": "1024 East Pike Street",
    "city": "Seattle",
    "state": "WA",
    "zip_code": "98122",
    "latitude": 47.614225,
    "longitude": -122.3183556,
    "website": "https://samstavernseattle.com/",
    "category": "Bar & Restaurant",
    "types": "bar, restaurant, food, point_of_interest, establishment"
  },
  {
    "place_id": "ChIJd9VulcgVkFQRhIy3px_poc8",
    "name": "The Old Pequliar",
    "street_address": "1722 Northwest Market Street",
    "city": "Seattle",
    "state": "WA",
    "zip_code": "98107",
    "latitude": 47.66890600000001,
    "longitude": -122.3799354,
    "website": null,
    "category": "Bar & Restaurant",
    "types": "bar, restaurant, food, point_of_interest, establishment"
  },
  {
    "place_id": "ChIJmT4pzrJqkFQRGIQO7h3UiMY",
    "name": "Kells Irish Restaurant & Pub",
    "street_address": "1916 Post Alley Walk Way",
    "city": "Seattle",
    "state": "WA",
    "zip_code": "98101",
    "latitude": 47.6103865,
    "longitude": -122.3422223,
    "website": "https://kellsirish.com/home/",
    "category": "Bar & Restaurant",
    "types": "bar, restaurant, point_of_interest, food, establishment"
  },
  {
    "place_id": "ChIJ5fmEMrQUkFQR6vKgjzXVefs",
    "name": "McGilvra's Bar & Restaurant",
    "street_address": "4234 East Madison Street",
    "city": "Seattle",
    "state": "WA",
    "zip_code": "98112",
    "latitude": 47.6364549,
    "longitude": -122.2772943,
    "website": "https://www.mcgilvraspub.com/",
    "category": "Restaurant",
    "types": "restaurant, food, point_of_interest, establishment"
  },
  {
    "place_id": "ChIJtVDdgaRqkFQRhDvm3aMU498",
    "name": "Sluggers",
    "street_address": "538 1st Avenue South",
    "city": "Seattle",
    "state": "WA",
    "zip_code": "98104",
    "latitude": 47.5971349,
    "longitude": -122.3337008,
    "website": null,
    "category": "Bar & Restaurant",
    "types": "bar, restaurant, point_of_interest, food, establishment"
  },
  {
    "place_id": "ChIJr7ZhkQkUkFQRHGHBBROFzEA",
    "name": "Reservoir Bar & Grill",
    "street_address": "8509 Roosevelt Way Northeast",
    "city": "Seattle",
    "state": "WA",
    "zip_code": "98115",
    "latitude": 47.6906292,
    "longitude": -122.3178463,
    "website": "https://m.facebook.com/Reservoir-Bar-Grill-111665005537344/?ref=page_internal&mt_nav=0",
    "category": "Bar & Restaurant",
    "types": "bar, restaurant, food, point_of_interest, establishment"
  },
  {
    "place_id": "ChIJvQsVTc4XkFQR4pwHp0H1J_s",
    "name": "The Vibe Pub & Grill",
    "street_address": "10000 Aurora Avenue North",
    "city": "Seattle",
    "state": "WA",
    "zip_code": "98133",
    "latitude": 47.7016756,
    "longitude": -122.3439547,
    "website": "http://thevibepubandgrill.in/",
    "category": "Bar & Restaurant",
    "types": "bar, restaurant, food, point_of_interest, establishment"
  },
  {
    "place_id": "ChIJI5IJOjsUkFQR8o8_fd2qa_4",
    "name": "74th St Ale House",
    "street_address": "7401 Greenwood Avenue North",
    "city": "Seattle",
    "state": "WA",
    "zip_code": "98103",
    "latitude": 47.6826808,
    "longitude": -122.3555491,
    "website": "https://www.74thst.com/",
    "category": "Bar & Restaurant",
    "types": "bar, restaurant, food, point_of_interest, establishment"
  },
  {
    "place_id": "ChIJ9fU9z1YVkFQRCKT8tkqPGNQ",
    "name": "The Atlantic Crossing",
    "street_address": "7200 Woodlawn Avenue Northeast",
    "city": "Seattle",
    "state": "WA",
    "zip_code": "98115",
    "latitude": 47.6806858,
    "longitude": -122.3244846,
    "website": "https://www.theatlanticcrossing.com/",
    "category": "Bar & Restaurant",
    "types": "restaurant, bar, food, point_of_interest, establishment"
  },
  {
    "place_id": "ChIJcy9dwjEUkFQRitOfpPUALPg",
    "name": "The Barking Dog Alehouse",
    "street_address": "705 Northwest 70th Street",
    "city": "Seattle",
    "state": "WA",
    "zip_code": "98117",
    "latitude": 47.67942960000001,
    "longitude": -122.3648327,
    "website": "https://thebarkingdogalehouse.com/",
    "category": "Bar & Restaurant",
    "types": "bar, restaurant, food, point_of_interest, establishment"
  },
  {
    "place_id": "ChIJn8hBPZMTkFQRcIzeiopC1OE",
    "name": "Wedgwood Public house",
    "street_address": "8515 35th Avenue Northeast",
    "city": "Seattle",
    "state": "WA",
    "zip_code": "98115",
    "latitude": 47.69062009999999,
    "longitude": -122.2909153,
    "website": "https://www.wedgwoodpublichouse.com/",
    "category": "Bar & Restaurant",
    "types": "bar, restaurant, food, point_of_interest, establishment"
  },
  {
    "place_id": "ChIJgexusP8TkFQRbL-n7XJMhdc",
    "name": "Watershed Pub & Kitchen",
    "street_address": "10104 3rd Avenue Northeast",
    "city": "Seattle",
    "state": "WA",
    "zip_code": "98125",
    "latitude": 47.7019568,
    "longitude": -122.325515,
    "website": "http://www.watershedpub.com/",
    "category": "Bar & Restaurant",
    "types": "meal_takeaway, bar, restaurant, food, point_of_interest, establishment"
  },
  {
    "place_id": "ChIJu5v9U5gVkFQRbqxFLxfo2J0",
    "name": "Boxcar Ale House",
    "street_address": "3407 Gilman Avenue West",
    "city": "Seattle",
    "state": "WA",
    "zip_code": "98199",
    "latitude": 47.6506141,
    "longitude": -122.3823128,
    "website": "https://m.facebook.com/The-Boxcar-Ale-House-121355571211217/",
    "category": "Bar & Restaurant",
    "types": "bar, night_club, restaurant, food, point_of_interest, establishment"
  },
  {
    "place_id": "ChIJjQ5WUGkUkFQRqqckLhz94Wc",
    "name": "Latona Pub",
    "street_address": "6423 Latona Avenue Northeast",
    "city": "Seattle",
    "state": "WA",
    "zip_code": "98115",
    "latitude": 47.6758019,
    "longitude": -122.3255776,
    "website": "http://www.latonapub.com/",
    "category": "Bar & Restaurant",
    "types": "restaurant, bar, meal_takeaway, food, point_of_interest, establishment"
  },
  {
    "place_id": "ChIJre3SmiEUkFQR3028IPupazk",
    "name": "The Yard Cafe",
    "street_address": "8313 Greenwood Avenue North",
    "city": "Seattle",
    "state": "WA",
    "zip_code": "98103",
    "latitude": 47.6895738,
    "longitude": -122.3556577,
    "website": "http://theyardcafe.com/",
    "category": "Bar & Restaurant",
    "types": "restaurant, bar, food, point_of_interest, establishment"
  },
  {
    "place_id": "ChIJBx0cfQEVkFQRbPxpskiyLy8",
    "name": "The Dock Sports Bar & Grill",
    "street_address": "1102 North 34th Street",
    "city": "Seattle",
    "state": "WA",
    "zip_code": "98103",
    "latitude": 47.6488847,
    "longitude": -122.3437382,
    "website": "http://www.fremontdock.com/",
    "category": "Bar & Restaurant",
    "types": "bar, restaurant, food, point_of_interest, establishment"
  },
  {
    "place_id": "ChIJAQBLC8MVkFQRRi3YD6GMyIo",
    "name": "Sloop Tavern",
    "street_address": "2830 Northwest Market Street",
    "city": "Seattle",
    "state": "WA",
    "zip_code": "98107",
    "latitude": 47.6688714,
    "longitude": -122.3943177,
    "website": "https://theslooptavern.com/",
    "category": "Bar & Restaurant",
    "types": "bar, restaurant, food, point_of_interest, establishment"
  },
  {
    "place_id": "ChIJU5QShscVkFQR5DarKH3dPLc",
    "name": "Bad Albert's Tap & Grill",
    "street_address": "5100 Ballard Avenue Northwest",
    "city": "Seattle",
    "state": "WA",
    "zip_code": "98107",
    "latitude": 47.664599,
    "longitude": -122.380848,
    "website": "http://badalberts.com/",
    "category": "Bar & Restaurant",
    "types": "night_club, bar, restaurant, food, point_of_interest, establishment"
  },
  {
    "place_id": "ChIJX1xU6jMUkFQRJri4uN7vU6g",
    "name": "The Dray",
    "street_address": "708 Northwest 65th Street",
    "city": "Seattle",
    "state": "WA",
    "zip_code": "98117",
    "latitude": 47.6760618,
    "longitude": -122.3650341,
    "website": "http://thedray.com/",
    "category": "Bar & Restaurant",
    "types": "cafe, bar, restaurant, food, point_of_interest, store, establishment"
  },
  {
    "place_id": "ChIJ651CSQcVkFQRp9_FCrmFAfQ",
    "name": "Triangle Spirits",
    "street_address": "3507 Fremont Place North",
    "city": "Seattle",
    "state": "WA",
    "zip_code": "98103",
    "latitude": 47.65085180000001,
    "longitude": -122.350878,
    "website": "http://www.trianglefremont.com/",
    "category": "Bar & Restaurant",
    "types": "bar, meal_takeaway, restaurant, food, point_of_interest, establishment"
  },
  {
    "place_id": "ChIJhSXzfCsVkFQRz72dnQ993A0",
    "name": "Bar Vacilando",
    "street_address": "405 15th Avenue East",
    "city": "Seattle",
    "state": "WA",
    "zip_code": "98112",
    "latitude": 47.62217159999999,
    "longitude": -122.3127963,
    "website": "http://www.barvacilando.com/",
    "category": "Bar & Restaurant",
    "types": "restaurant, bar, point_of_interest, food, establishment"
  },
  {
    "place_id": "ChIJIXGeJDcVkFQRoS1IiN9C3TY",
    "name": "Bar Harbor",
    "street_address": "400 Fairview Avenue North",
    "city": "Seattle",
    "state": "WA",
    "zip_code": "98109",
    "latitude": 47.622485,
    "longitude": -122.3338633,
    "website": "https://www.barharborbar.com/",
    "category": "Bar & Restaurant",
    "types": "bar, restaurant, point_of_interest, food, establishment"
  },
  {
    "place_id": "ChIJ17bj5_cTkFQRufkt2lLuh6k",
    "name": "The Maple",
    "street_address": "8929 Roosevelt Way Northeast",
    "city": "Seattle",
    "state": "WA",
    "zip_code": "98115",
    "latitude": 47.693897,
    "longitude": -122.317821,
    "website": "http://www.themaplepub.com/",
    "category": "Bar & Restaurant",
    "types": "bar, restaurant, food, point_of_interest, establishment"
  },
  {
    "place_id": "ChIJQeT5OTURkFQRq1YBP7bm4JU",
    "name": "32 Bar & Grill",
    "street_address": "10601 5th Avenue Northeast",
    "city": "Seattle",
    "state": "WA",
    "zip_code": "98125",
    "latitude": 47.7064058,
    "longitude": -122.3252257,
    "website": "https://www.krakencommunityiceplex.com/venue/32-bar-grill/",
    "category": "Bar & Restaurant",
    "types": "bar, restaurant, point_of_interest, food, establishment"
  },
  {
    "place_id": "ChIJm0y6wj0UkFQRaCwgaprPMGs",
    "name": "Kangaroo & Kiwi",
    "street_address": "2026 Northwest Market Street",
    "city": "Seattle",
    "state": "WA",
    "zip_code": "98107",
    "latitude": 47.66890759999999,
    "longitude": -122.3834085,
    "website": "https://kangarooandkiwi.com/",
    "category": "Bar & Restaurant",
    "types": "bar, restaurant, food, point_of_interest, establishment"
  },
  {
    "place_id": "ChIJEZ4GIG0UkFQR7PTWzWPbIuE",
    "name": "Greenlake Bar & Grill",
    "street_address": "7200 East Green Lake Drive North",
    "city": "Seattle",
    "state": "WA",
    "zip_code": "98115",
    "latitude": 47.6804742,
    "longitude": -122.3257103,
    "website": "https://neighborhoodgrills.com/",
    "category": "Bar & Restaurant",
    "types": "bar, restaurant, food, point_of_interest, establishment"
  },
  {
    "place_id": "ChIJB8QAYIAVkFQRwixAYBqZ0Fk",
    "name": "Magnolia Village Pub",
    "street_address": "3221 West McGraw Street",
    "city": "Seattle",
    "state": "WA",
    "zip_code": "98199",
    "latitude": 47.6394232,
    "longitude": -122.3993286,
    "website": "http://magnolia-village-pub.com/",
    "category": "Bar & Restaurant",
    "types": "bar, restaurant, point_of_interest, food, establishment"
  },
  {
    "place_id": "ChIJ-zfeXY8UkFQRnaZKtrG60go",
    "name": "Ba Bar University Village",
    "street_address": "2685 Northeast 46th Street",
    "city": "Seattle",
    "state": "WA",
    "zip_code": "98105",
    "latitude": 47.6617806,
    "longitude": -122.297975,
    "website": "http://babarseattle.com/",
    "category": "Bar & Restaurant",
    "types": "bar, restaurant, food, point_of_interest, establishment"
  },
  {
    "place_id": "ChIJ-XauFlEUkFQRTT4mA9zfJE0",
    "name": "Blue Star Cafe & Pub",
    "street_address": "4512 Stone Way North",
    "city": "Seattle",
    "state": "WA",
    "zip_code": "98103",
    "latitude": 47.6619391,
    "longitude": -122.34187,
    "website": "https://www.bluestarcafeandpub.com/",
    "category": "Restaurant",
    "types": "restaurant, food, point_of_interest, establishment"
  },
  {
    "place_id": "ChIJAwwZrvQUkFQRu6zb8LQWYig",
    "name": "Finn MacCool\u2019s Irish Public House",
    "street_address": "4217 University Way Northeast",
    "city": "Seattle",
    "state": "WA",
    "zip_code": "98105",
    "latitude": 47.658867,
    "longitude": -122.31339,
    "website": "https://www.finnmaccools.com/",
    "category": "Bar & Restaurant",
    "types": "bar, restaurant, food, point_of_interest, establishment"
  },
  {
    "place_id": "ChIJDeE7A0gTkFQRnNbfi0p_jO4",
    "name": "Magnuson Cafe & Brewery",
    "street_address": "7801 62nd Avenue Northeast",
    "city": "Seattle",
    "state": "WA",
    "zip_code": "98115",
    "latitude": 47.6881624,
    "longitude": -122.2649722,
    "website": "http://www.magnusonbrewery.com/",
    "category": "Bar & Restaurant",
    "types": "restaurant, bar, food, point_of_interest, establishment"
  },
  {
    "place_id": "ChIJf5UFmJIVkFQRo4-A8RDXcQI",
    "name": "Wooden City Tavern",
    "street_address": "7110 East Green Lake Drive North",
    "city": "Seattle",
    "state": "WA",
    "zip_code": "98115",
    "latitude": 47.68019109999999,
    "longitude": -122.3254123,
    "website": "http://woodencitytavern.com/",
    "category": "Restaurant",
    "types": "restaurant, food, point_of_interest, establishment"
  },
  {
    "place_id": "ChIJ74deTF8UkFQR5XyMRQ7lDz4",
    "name": "Kate's Pub",
    "street_address": "309 Northeast 45th Street",
    "city": "Seattle",
    "state": "WA",
    "zip_code": "98105",
    "latitude": 47.6612167,
    "longitude": -122.3246122,
    "website": "http://katespub.com/",
    "category": "Bar & Restaurant",
    "types": "bar, restaurant, food, point_of_interest, establishment"
  },
  {
    "place_id": "ChIJo511lSEUkFQRq2RafMfHyow",
    "name": "The Angry Beaver",
    "street_address": "8412 Greenwood Avenue North",
    "city": "Seattle",
    "state": "WA",
    "zip_code": "98103",
    "latitude": 47.6902649,
    "longitude": -122.3549237,
    "website": "http://www.theangrybeaverseattle.com/",
    "category": "Restaurant",
    "types": "restaurant, point_of_interest, food, establishment"
  },
  {
    "place_id": "ChIJS16mOLJqkFQRYjIriZs1pHQ",
    "name": "Goldfinch Tavern",
    "street_address": "99 Union Street",
    "city": "Seattle",
    "state": "WA",
    "zip_code": "98101",
    "latitude": 47.6076795,
    "longitude": -122.3393039,
    "website": "https://www.fourseasons.com/seattle/dining/restaurants/goldfinch_tavern/?utm_source=google&utm_medium=organicsearch&utm_campaign=tor-sew-fab-mid-seo-na&utm_content=na-na&utm_term=na",
    "category": "Bar & Restaurant",
    "types": "night_club, bar, restaurant, food, point_of_interest, establishment"
  },
  {
    "place_id": "ChIJu-DFfW9AkFQRDg08txAbIh4",
    "name": "Admiral Pub",
    "street_address": "2306 California Avenue Southwest",
    "city": "Seattle",
    "state": "WA",
    "zip_code": "98116",
    "latitude": 47.5826887,
    "longitude": -122.3862453,
    "website": "https://admiralpubseattle.com/",
    "category": "Bar & Restaurant",
    "types": "bar, restaurant, food, point_of_interest, establishment"
  },
  {
    "place_id": "ChIJNU1WMlJrkFQRmuueEp3Rtn0",
    "name": "Hatback Bar & Grille",
    "street_address": "1201 1st Avenue South",
    "city": "Seattle",
    "state": "WA",
    "zip_code": "98134",
    "latitude": 47.59203290000001,
    "longitude": -122.334836,
    "website": "https://www.hatback.com/",
    "category": "Restaurant",
    "types": "restaurant, food, point_of_interest, establishment"
  },
  {
    "place_id": "ChIJsbwagA5qkFQRqyybGMmg57s",
    "name": "Rookies Sports Bar and Grill",
    "street_address": "3820 South Ferdinand Street",
    "city": "Seattle",
    "state": "WA",
    "zip_code": "98118",
    "latitude": 47.5580441,
    "longitude": -122.2842277,
    "website": "https://www.rookiesseattle.com/",
    "category": "Bar & Restaurant",
    "types": "bar, restaurant, food, point_of_interest, establishment"
  },
  {
    "place_id": "ChIJC2j55LNqkFQRRqBoRA_a_3A",
    "name": "Purple Caf\u00e9 and Wine Bar",
    "street_address": "1225 4th Avenue",
    "city": "Seattle",
    "state": "WA",
    "zip_code": "98101",
    "latitude": 47.6079573,
    "longitude": -122.3352017,
    "website": "https://www.purplecafe.com/",
    "category": "Bar & Restaurant",
    "types": "cafe, bar, restaurant, food, point_of_interest, establishment"
  },
  {
    "place_id": "ChIJ41Yt9lZAkFQRKopihc3WjN8",
    "name": "The Bridge",
    "street_address": "6301 California Avenue Southwest",
    "city": "Seattle",
    "state": "WA",
    "zip_code": "98136",
    "latitude": 47.5465853,
    "longitude": -122.3874025,
    "website": "http://www.thebridgeseattle.com/",
    "category": "Bar & Restaurant",
    "types": "bar, restaurant, food, point_of_interest, establishment"
  },
  {
    "place_id": "ChIJ74zDqihCkFQRm9M4MFyvPRo",
    "name": "Uncle Eddie's Public House",
    "street_address": "8601 14th Avenue South",
    "city": "Seattle",
    "state": "WA",
    "zip_code": "98108",
    "latitude": 47.52633549999999,
    "longitude": -122.3151659,
    "website": "http://www.eddiesp.com/",
    "category": "Restaurant",
    "types": "restaurant, food, point_of_interest, establishment"
  },
  {
    "place_id": "ChIJw6b4J79BkFQR1W-mSBXCwWk",
    "name": "Slim's Last Chance",
    "street_address": "5606 1st Avenue South",
    "city": "Seattle",
    "state": "WA",
    "zip_code": "98108",
    "latitude": 47.5524917,
    "longitude": -122.334001,
    "website": "http://www.slimslastchance.com/?utm_source=google&utm_medium=wix_google_business_profile&utm_campaign=5022933790111679099",
    "category": "Bar & Restaurant",
    "types": "bar, restaurant, food, point_of_interest, establishment"
  },
  {
    "place_id": "ChIJKdCRYvlAkFQR4o1cPE_IfQI",
    "name": "Elliott Bay Brewing - West Seattle",
    "street_address": "4720 California Avenue Southwest",
    "city": "Seattle",
    "state": "WA",
    "zip_code": "98116",
    "latitude": 47.56039,
    "longitude": -122.386425,
    "website": "http://www.elliottbaybrewing.com/",
    "category": "Bar & Restaurant",
    "types": "bar, restaurant, food, point_of_interest, establishment"
  },
  {
    "place_id": "ChIJkV5Uwg5qkFQRvKA7wyqgRP8",
    "name": "Flying Lion Brewing",
    "street_address": "5041 Rainier Avenue South",
    "city": "Seattle",
    "state": "WA",
    "zip_code": "98118",
    "latitude": 47.5559973,
    "longitude": -122.2843434,
    "website": "https://flyinglionbrewing.com/",
    "category": "Bar & Restaurant",
    "types": "liquor_store, bar, store, restaurant, food, point_of_interest, establishment"
  },
  {
    "place_id": "ChIJVUAqYGpBkFQRvUbcuoz_spk",
    "name": "The Westy Sports & Spirits",
    "street_address": "7908 35th Avenue Southwest",
    "city": "Seattle",
    "state": "WA",
    "zip_code": "98126",
    "latitude": 47.5315813,
    "longitude": -122.3762598,
    "website": "https://thewestyseattle.com/",
    "category": "Bar & Restaurant",
    "types": "bar, restaurant, food, point_of_interest, establishment"
  },
  {
    "place_id": "ChIJV1otlL9BkFQRqW1bqx2ddtE",
    "name": "The Dog House Bar and Grill",
    "street_address": "5800 4th Avenue South",
    "city": "Seattle",
    "state": "WA",
    "zip_code": "98108",
    "latitude": 47.5509376,
    "longitude": -122.3291549,
    "website": "http://thedoghousebarandgrill.co/",
    "category": "Bar & Restaurant",
    "types": "bar, restaurant, point_of_interest, food, establishment"
  },
  {
    "place_id": "ChIJj-RLZRlBkFQRTllxF5FC4E0",
    "name": "Whisky West",
    "street_address": "6451 California Avenue Southwest",
    "city": "Seattle",
    "state": "WA",
    "zip_code": "98136",
    "latitude": 47.545167,
    "longitude": -122.387485,
    "website": "http://whiskywest.com/",
    "category": "Bar & Restaurant",
    "types": "restaurant, bar, food, point_of_interest, establishment"
  },
  {
    "place_id": "ChIJGZzHwmVAkFQRjxStmRpUwUI",
    "name": "Circa Grill & Alehouse",
    "street_address": "2605 California Avenue Southwest",
    "city": "Seattle",
    "state": "WA",
    "zip_code": "98116",
    "latitude": 47.5809276,
    "longitude": -122.386809,
    "website": "https://www.circalove.com/",
    "category": "Bar & Restaurant",
    "types": "bar, restaurant, food, point_of_interest, establishment"
  },
  {
    "place_id": "ChIJC0uH591rkFQRFUxZUiEuHOI",
    "name": "Fable All Day",
    "street_address": "3309A Beacon Avenue South",
    "city": "Seattle",
    "state": "WA",
    "zip_code": "98144",
    "latitude": 47.5737178,
    "longitude": -122.3090782,
    "website": "http://fableallday.com/",
    "category": "Bar & Restaurant",
    "types": "cafe, liquor_store, bar, store, restaurant, food, point_of_interest, establishment"
  },
  {
    "place_id": "ChIJlyhG6EVCkFQRT4nnvIEsRno",
    "name": "Lucky Liquor",
    "street_address": "10325 East Marginal Way South",
    "city": "Tukwila",
    "state": "WA",
    "zip_code": "98168",
    "latitude": 47.5105005,
    "longitude": -122.2930052,
    "website": "http://luckyliquor.online/",
    "category": "Bar & Restaurant",
    "types": "bar, restaurant, point_of_interest, food, establishment"
  },
  {
    "place_id": "ChIJ-14lzutBkFQRaCVjzITxbr0",
    "name": "Jules Maes Saloon",
    "street_address": "5919 Airport Way South",
    "city": "Seattle",
    "state": "WA",
    "zip_code": "98108",
    "latitude": 47.5495806,
    "longitude": -122.3174944,
    "website": "https://www.julesmaessaloon.com/",
    "category": "Bar & Restaurant",
    "types": "bar, restaurant, food, point_of_interest, establishment"
  },
  {
    "place_id": "ChIJEVENnw5qkFQRzD5hUt_scBQ",
    "name": "Marination Columbia City",
    "street_address": "3714 South Hudson Street",
    "city": "Seattle",
    "state": "WA",
    "zip_code": "98118",
    "latitude": 47.5572346,
    "longitude": -122.2854177,
    "website": "http://marinationmobile.com/",
    "category": "Restaurant",
    "types": "restaurant, food, point_of_interest, establishment"
  },
  {
    "place_id": "ChIJGYr4hbdBkFQRLbLyoaTl960",
    "name": "Hudson",
    "street_address": "5000 East Marginal Way South",
    "city": "Seattle",
    "state": "WA",
    "zip_code": "98134",
    "latitude": 47.55724379999999,
    "longitude": -122.3384273,
    "website": "http://www.hudsonseattle.com/",
    "category": "Bar & Restaurant",
    "types": "bar, restaurant, food, point_of_interest, establishment"
  },
  {
    "place_id": "ChIJ1_awlC5AkFQRBnDtU94HEN8",
    "name": "Ghostfish Brewing Company",
    "street_address": "2942 1st Avenue South",
    "city": "Seattle",
    "state": "WA",
    "zip_code": "98134",
    "latitude": 47.5763583,
    "longitude": -122.3339694,
    "website": "http://ghostfishbrewing.com/",
    "category": "Bar & Restaurant",
    "types": "bar, restaurant, food, point_of_interest, establishment"
  },
  {
    "place_id": "ChIJP4n66OtBkFQR75_9B9pkPb4",
    "name": "Smarty Pants",
    "street_address": "6017 Airport Way South",
    "city": "Seattle",
    "state": "WA",
    "zip_code": "98108",
    "latitude": 47.5488766,
    "longitude": -122.3167214,
    "website": "http://www.smartypantsseattle.com/",
    "category": "Bar & Restaurant",
    "types": "restaurant, bar, food, point_of_interest, establishment"
  },
  {
    "place_id": "ChIJr4GB5vtAkFQRcw8Mdx--86M",
    "name": "Bang Bar Thai Restaurant & Lounge",
    "street_address": "4750 California Avenue Southwest",
    "city": "Seattle",
    "state": "WA",
    "zip_code": "98116",
    "latitude": 47.5595874,
    "longitude": -122.3864457,
    "website": "http://www.bangbarthai.com/",
    "category": "Bar & Restaurant",
    "types": "night_club, bar, restaurant, food, point_of_interest, establishment"
  },
  {
    "place_id": "ChIJGVVVhmVAkFQRpqe7kNp5bJY",
    "name": "Arthur's",
    "street_address": "2311 California Avenue Southwest",
    "city": "Seattle",
    "state": "WA",
    "zip_code": "98116",
    "latitude": 47.5825166,
    "longitude": -122.3867093,
    "website": "http://www.arthursseattle.com/",
    "category": "Bar & Restaurant",
    "types": "restaurant, bar, food, point_of_interest, establishment"
  },
  {
    "place_id": "ChIJobVter9BkFQRguz5ZXT_CM4",
    "name": "Marco Polo Bar & Grill",
    "street_address": "5613 4th Avenue South",
    "city": "Seattle",
    "state": "WA",
    "zip_code": "98108",
    "latitude": 47.55204699999999,
    "longitude": -122.3298175,
    "website": "http://www.marcopolopub.com/",
    "category": "Bar & Restaurant",
    "types": "bar, night_club, restaurant, food, point_of_interest, establishment"
  },
  {
    "place_id": "ChIJMzFYM51qkFQRpMWvFRYiuNM",
    "name": "Derby",
    "street_address": "2233 6th Avenue South",
    "city": "Seattle",
    "state": "WA",
    "zip_code": "98134",
    "latitude": 47.582849,
    "longitude": -122.326789,
    "website": "https://derbyrestaurants.com/seattle/",
    "category": "Bar & Restaurant",
    "types": "storage, parking, bar, restaurant, food, point_of_interest, establishment"
  },
  {
    "place_id": "ChIJqcqAi8FBkFQR60tWBX9F4u4",
    "name": "Georgetown Liquor Company",
    "street_address": "5501 Airport Way South",
    "city": "Seattle",
    "state": "WA",
    "zip_code": "98108",
    "latitude": 47.5532593,
    "longitude": -122.3214127,
    "website": "https://glcseattle.com/",
    "category": "Bar & Restaurant",
    "types": "bar, restaurant, point_of_interest, food, establishment"
  },
  {
    "place_id": "ChIJBfruPU9AkFQRM6jfkctfnDI",
    "name": "Ounces Taproom & Beer Garden",
    "street_address": "3809 Delridge Way Southwest",
    "city": "Seattle",
    "state": "WA",
    "zip_code": "98106",
    "latitude": 47.5696312,
    "longitude": -122.3626865,
    "website": "http://www.ounceswestseattle.com/",
    "category": "Bar & Restaurant",
    "types": "bar, restaurant, food, point_of_interest, establishment"
  },
  {
    "place_id": "ChIJT3FOLepBkFQRryyWQ_M2iRA",
    "name": "Fonda La Catrina",
    "street_address": "5905 Airport Way South",
    "city": "Seattle",
    "state": "WA",
    "zip_code": "98108",
    "latitude": 47.549903,
    "longitude": -122.3178861,
    "website": "http://www.fondalacatrina.com/",
    "category": "Bar & Restaurant",
    "types": "bar, restaurant, food, point_of_interest, establishment"
  },
  {
    "place_id": "ChIJPaX-Pl5AkFQRSekO3MmQhTo",
    "name": "Prost! West Seattle",
    "street_address": "3407 California Avenue Southwest",
    "city": "Seattle",
    "state": "WA",
    "zip_code": "98116",
    "latitude": 47.57349999999999,
    "longitude": -122.3870333,
    "website": "https://www.prostwestseattle.com/",
    "category": "Bar & Restaurant",
    "types": "bar, restaurant, food, point_of_interest, establishment"
  },
  {
    "place_id": "ChIJTX350fNBkFQRja8alrtZTSQ",
    "name": "Camp West",
    "street_address": "4539 California Avenue Southwest",
    "city": "Seattle",
    "state": "WA",
    "zip_code": "98116",
    "latitude": 47.56181209999999,
    "longitude": -122.3869781,
    "website": "http://www.thecampwest.com/",
    "category": "Restaurant",
    "types": "restaurant, food, point_of_interest, establishment"
  },
  {
    "place_id": "ChIJWTFRkq8WkFQRkULPl-tme-0",
    "name": "Tim's Tavern",
    "street_address": "9655 16th Avenue Southwest",
    "city": "Seattle",
    "state": "WA",
    "zip_code": "98106",
    "latitude": 47.5158568,
    "longitude": -122.3556874,
    "website": "http://timslivemusic.com/",
    "category": "Bar & Restaurant",
    "types": "bar, restaurant, food, point_of_interest, establishment"
  },
  {
    "place_id": "ChIJR-ixww5qkFQRkzON-I9zJ6Q",
    "name": "Rumba Notes Lounge",
    "street_address": "5041 Rainier Avenue South",
    "city": "Seattle",
    "state": "WA",
    "zip_code": "98118",
    "latitude": 47.55604519999999,
    "longitude": -122.2846099,
    "website": "http://www.rumbanotes.com/",
    "category": "Restaurant",
    "types": "restaurant, food, point_of_interest, establishment"
  },
  {
    "place_id": "ChIJ9-a5YQ9qkFQRwaiJ829Wtms",
    "name": "Hill City Tap House & Bottle Shop",
    "street_address": "5303 Rainier Avenue South",
    "city": "Seattle",
    "state": "WA",
    "zip_code": "98118",
    "latitude": 47.5536239,
    "longitude": -122.2805749,
    "website": "https://www.hillcitytapandbottle.com/",
    "category": "Bar & Restaurant",
    "types": "bar, restaurant, point_of_interest, food, establishment"
  },
  {
    "place_id": "ChIJWUknvuEUkFQRtmUTS82M1kc",
    "name": "Otter Bar and Burger",
    "street_address": "2379 Eastlake Avenue East",
    "city": "Seattle",
    "state": "WA",
    "zip_code": "98102",
    "latitude": 47.641854,
    "longitude": -122.326194,
    "website": "http://www.otterbarandburger.com/",
    "category": "Bar & Restaurant",
    "types": "bar, restaurant, point_of_interest, food, store, establishment"
  },
  {
    "place_id": "ChIJG1fMRwcVkFQRvdZr5ZGXYw8",
    "name": "El Camino",
    "street_address": "607 North 35th Street",
    "city": "Seattle",
    "state": "WA",
    "zip_code": "98103",
    "latitude": 47.6504867,
    "longitude": -122.350945,
    "website": "http://www.elcaminorestaurant.com/",
    "category": "Bar & Restaurant",
    "types": "bar, restaurant, food, point_of_interest, establishment"
  },
  {
    "place_id": "ChIJVVVVVUkQkFQR7O6mdrhQ6BI",
    "name": "Elliott Bay Brewing - Lake City",
    "street_address": "12537 Lake City Way Northeast",
    "city": "Seattle",
    "state": "WA",
    "zip_code": "98125",
    "latitude": 47.720375,
    "longitude": -122.29507,
    "website": "http://www.elliottbaybrewing.com/",
    "category": "Bar & Restaurant",
    "types": "bar, restaurant, food, point_of_interest, establishment"
  },
  {
    "place_id": "ChIJbT3UxJsVkFQRTHpHuIDQR7c",
    "name": "RidgeWood Bottle & Tap",
    "street_address": "316 North 67th Street",
    "city": "Seattle",
    "state": "WA",
    "zip_code": "98103",
    "latitude": 47.67788669999999,
    "longitude": -122.354581,
    "website": "https://ridgewoodbottleandtap.com/",
    "category": "Bar & Restaurant",
    "types": "liquor_store, bar, store, restaurant, food, point_of_interest, establishment"
  },
  {
    "place_id": "ChIJQ_GzSVMUkFQRk0IS72xin9M",
    "name": "Ha!",
    "street_address": "4256 Fremont Avenue North",
    "city": "Seattle",
    "state": "WA",
    "zip_code": "98103",
    "latitude": 47.6589406,
    "longitude": -122.3498869,
    "website": "http://hafremont.com/",
    "category": "Bar & Restaurant",
    "types": "bar, restaurant, food, point_of_interest, establishment"
  },
  {
    "place_id": "ChIJmxEIVwcVkFQRZdwm_jhbodk",
    "name": "Red Star Taco Bar",
    "street_address": "513 North 36th Street",
    "city": "Seattle",
    "state": "WA",
    "zip_code": "98103",
    "latitude": 47.65139659999999,
    "longitude": -122.3515767,
    "website": "https://www.redstartacobar.com/",
    "category": "Bar & Restaurant",
    "types": "bar, restaurant, food, point_of_interest, establishment"
  },
  {
    "place_id": "ChIJ64Y17zMUkFQRNcnPH8VPdus",
    "name": "STUMBLETOWN",
    "street_address": "618 Northwest 65th Street",
    "city": "Seattle",
    "state": "WA",
    "zip_code": "98117",
    "latitude": 47.6760947,
    "longitude": -122.3643654,
    "website": "http://stumbletownseattle.com/",
    "category": "Bar & Restaurant",
    "types": "bar, restaurant, food, point_of_interest, establishment"
  },
  {
    "place_id": "ChIJd4j2RhgVkFQRkihP2mZxdqQ",
    "name": "Cafe Arta & Pub at Third Place",
    "street_address": "6504 20th Avenue Northeast",
    "city": "Seattle",
    "state": "WA",
    "zip_code": "98115",
    "latitude": 47.6760117,
    "longitude": -122.306388,
    "website": "https://www.cafearta.com/",
    "category": "Restaurant",
    "types": "restaurant, food, point_of_interest, establishment"
  },
  {
    "place_id": "ChIJ06rZ_joUkFQRfWYYAWWRMQY",
    "name": "Ridge Pizza",
    "street_address": "7217 Greenwood Avenue North",
    "city": "Seattle",
    "state": "WA",
    "zip_code": "98103",
    "latitude": 47.68126520000001,
    "longitude": -122.355511,
    "website": "http://www.ridgepizza.com/",
    "category": "Bar & Restaurant",
    "types": "bar, restaurant, food, point_of_interest, establishment"
  },
  {
    "place_id": "ChIJGXjUq8cVkFQRV4d2uOjOrkI",
    "name": "Hattie's Hat Restaurant",
    "street_address": "5231 Ballard Avenue Northwest",
    "city": "Seattle",
    "state": "WA",
    "zip_code": "98107",
    "latitude": 47.666085,
    "longitude": -122.383182,
    "website": "http://hatties-hat.com/",
    "category": "Bar & Restaurant",
    "types": "bar, restaurant, food, point_of_interest, establishment"
  },
  {
    "place_id": "ChIJlz6esoAUkFQRk-LGyWBGGxU",
    "name": "Duchess Tavern",
    "street_address": "2827 Northeast 55th Street",
    "city": "Seattle",
    "state": "WA",
    "zip_code": "98105",
    "latitude": 47.66833330000001,
    "longitude": -122.2961111,
    "website": "https://www.facebook.com/Duchessbarandsocialclub/",
    "category": "Bar & Restaurant",
    "types": "bar, restaurant, food, point_of_interest, establishment"
  },
  {
    "place_id": "ChIJ-xq6S48UkFQRtxK9xo82ji8",
    "name": "rachel\u2019s ginger beer - u village",
    "street_address": "4626 26th Avenue Northeast",
    "city": "Seattle",
    "state": "WA",
    "zip_code": "98105",
    "latitude": 47.6624603,
    "longitude": -122.299611,
    "website": "http://rachelsgingerbeer.com/",
    "category": "Bar & Restaurant",
    "types": "bar, restaurant, food, point_of_interest, establishment"
  },
  {
    "place_id": "ChIJO7gmTFsVkFQRNNpkaQOnKyQ",
    "name": "Queen Anne Beerhall",
    "street_address": "203 West Thomas Street",
    "city": "Seattle",
    "state": "WA",
    "zip_code": "98119",
    "latitude": 47.62079199999999,
    "longitude": -122.3599513,
    "website": "https://thehall.group/queen-anne",
    "category": "Bar & Restaurant",
    "types": "bar, restaurant, food, point_of_interest, establishment"
  },
  {
    "place_id": "ChIJs7SarkMVkFQR9wIn1ZsZNac",
    "name": "Ozzie's",
    "street_address": "105 West Mercer Street",
    "city": "Seattle",
    "state": "WA",
    "zip_code": "98119",
    "latitude": 47.624325,
    "longitude": -122.3583655,
    "website": "http://www.ozziesinseattle.com/",
    "category": "Bar & Restaurant",
    "types": "bar, restaurant, food, point_of_interest, establishment"
  },
  {
    "place_id": "ChIJXYP1FlsVkFQRb3S6OT3ADEo",
    "name": "The Bar at Chihuly Garden and Glass",
    "street_address": "305 Harrison Street",
    "city": "Seattle",
    "state": "WA",
    "zip_code": "98109",
    "latitude": 47.62088660000001,
    "longitude": -122.350314,
    "website": "https://www.chihulygardenandglass.com/bar?utm_source=2060digital&utm_medium=localseo&utm_campaign=gbp",
    "category": "Bar & Restaurant",
    "types": "bar, tourist_attraction, restaurant, point_of_interest, food, establishment"
  },
  {
    "place_id": "ChIJSQ3hHUZAkFQRilQStXap7Jk",
    "name": "Chelan Cafe",
    "street_address": "3527 Chelan Avenue Southwest",
    "city": "Seattle",
    "state": "WA",
    "zip_code": "98106",
    "latitude": 47.5718578,
    "longitude": -122.3615458,
    "website": "http://thechelancafe.com/",
    "category": "Bar & Restaurant",
    "types": "cafe, bar, restaurant, food, point_of_interest, establishment"
  },
  {
    "place_id": "ChIJS4Si86FqkFQRFIbEYf1YIIU",
    "name": "Jimmy's On First",
    "street_address": "1046 1st Avenue South",
    "city": "Seattle",
    "state": "WA",
    "zip_code": "98134",
    "latitude": 47.5925805,
    "longitude": -122.3334978,
    "website": "http://www.jimmysonfirst.com/",
    "category": "Bar & Restaurant",
    "types": "restaurant, bar, food, point_of_interest, establishment"
  },
  {
    "place_id": "ChIJm-BauqRqkFQRPYkzYuSkmTo",
    "name": "King Street Bar & Oven",
    "street_address": "170 South King Street",
    "city": "Seattle",
    "state": "WA",
    "zip_code": "98104",
    "latitude": 47.5984214,
    "longitude": -122.3321055,
    "website": "http://www.kingstreetbar.com/",
    "category": "Bar & Restaurant",
    "types": "restaurant, bar, food, point_of_interest, establishment"
  },
  {
    "place_id": "ChIJ3-GfowBrkFQRBObKAzpBs3A",
    "name": "Gantry Public House",
    "street_address": "904 Occidental Avenue South",
    "city": "Seattle",
    "state": "WA",
    "zip_code": "98134",
    "latitude": 47.59442019999999,
    "longitude": -122.3334439,
    "website": "http://www.gantryseattle.com/",
    "category": "Restaurant",
    "types": "restaurant, food, point_of_interest, establishment"
  },
  {
    "place_id": "ChIJSzof86ZrkFQRE1BllraLEJk",
    "name": "Roanoke Inn",
    "street_address": "1825 72nd Avenue Southeast",
    "city": "Mercer Island",
    "state": "WA",
    "zip_code": "98040",
    "latitude": 47.59403820000001,
    "longitude": -122.2433676,
    "website": "http://theroanokeinn.com/",
    "category": "Bar & Restaurant",
    "types": "bar, restaurant, food, point_of_interest, establishment"
  },
  {
    "place_id": "ChIJG3m2gg5qkFQRhRjCBsykVmY",
    "name": "Taproot Cafe & Bar",
    "street_address": "4908 Rainier Avenue South",
    "city": "Seattle",
    "state": "WA",
    "zip_code": "98118",
    "latitude": 47.5575523,
    "longitude": -122.2846261,
    "website": "https://www.taprootseattle.com/",
    "category": "Bar & Restaurant",
    "types": "restaurant, bar, food, point_of_interest, establishment"
  },
  {
    "place_id": "ChIJaXPrIp5rkFQRA7784_H_4cY",
    "name": "The Crawlspace Gastropub",
    "street_address": "3041 78th Avenue Southeast",
    "city": "Mercer Island",
    "state": "WA",
    "zip_code": "98040",
    "latitude": 47.5823504,
    "longitude": -122.2346699,
    "website": "http://www.thecrawlspacegastropub.com/",
    "category": "Bar & Restaurant",
    "types": "restaurant, bar, food, point_of_interest, establishment"
  },
  {
    "place_id": "ChIJ-es3tCwVkFQRncKjKTrntwY",
    "name": "Thomas Street Warehouse",
    "street_address": "915 Thomas Street",
    "city": "Seattle",
    "state": "WA",
    "zip_code": "98109",
    "latitude": 47.62069169999999,
    "longitude": -122.3392551,
    "website": "https://www.facebook.com/thomasstwarehouse",
    "category": "Restaurant",
    "types": "restaurant, point_of_interest, food, establishment"
  },
  {
    "place_id": "ChIJLckY2M5qkFQRxZklSNYs2sk",
    "name": "Chieftain Irish Pub & Restaurant",
    "street_address": "908 12th Avenue",
    "city": "Seattle",
    "state": "WA",
    "zip_code": "98122",
    "latitude": 47.6107209,
    "longitude": -122.3164464,
    "website": "http://thechieftainseattle.com/",
    "category": "Bar & Restaurant",
    "types": "bar, restaurant, food, point_of_interest, establishment"
  },
  {
    "place_id": "ChIJKT3o281qkFQRYihojLVigIU",
    "name": "Elysian Capitol Hill Brewery",
    "street_address": "1221 East Pike Street",
    "city": "Seattle",
    "state": "WA",
    "zip_code": "98122",
    "latitude": 47.613963,
    "longitude": -122.315851,
    "website": "http://www.elysianbrewing.com/",
    "category": "Bar & Restaurant",
    "types": "bar, restaurant, food, point_of_interest, establishment"
  },
  {
    "place_id": "ChIJ-eTKYTcVkFQRCflfu7QDS_s",
    "name": "Ba Bar South Lake Union",
    "street_address": "500 Terry Avenue North",
    "city": "Seattle",
    "state": "WA",
    "zip_code": "98109",
    "latitude": 47.6233692,
    "longitude": -122.3369207,
    "website": "http://babarseattle.com/",
    "category": "Bar & Restaurant",
    "types": "cafe, bar, store, restaurant, food, point_of_interest, establishment"
  },
  {
    "place_id": "ChIJB_s4tUwVkFQRmjJhGfNaMiw",
    "name": "Retro Restaurant & Lounge",
    "street_address": "216 Stewart Street",
    "city": "Seattle",
    "state": "WA",
    "zip_code": "98101",
    "latitude": 47.611442,
    "longitude": -122.3400435,
    "website": "http://theretroseattle.com/",
    "category": "Bar & Restaurant",
    "types": "bar, restaurant, food, point_of_interest, establishment"
  },
  {
    "place_id": "ChIJq4Ith8tqkFQRTOMUEwJG3bo",
    "name": "Ayutthaya Thai Restaurant",
    "street_address": "727 East Pike Street",
    "city": "Seattle",
    "state": "WA",
    "zip_code": "98122",
    "latitude": 47.613916,
    "longitude": -122.322265,
    "website": "http://ayutthayathaiseattle.com/",
    "category": "Bar & Restaurant",
    "types": "bar, restaurant, food, point_of_interest, establishment"
  }
]