[
  {
    "place_id": "ChIJdd5wB0zDwogRMowZSgASa9U",
    "name": "Riveters Tampa",
    "street_address": "2301 North Dale Mabry Highway",
    "city": "Tampa",
    "state": "FL",
    "zip_code": "33607",
    "latitude": 27.9618382,
    "longitude": -82.5050866,
    "website": "http://riveterstampa.com/",
    "category": "Restaurant",
    "types": "restaurant, food, point_of_interest, establishment"
  },
  {
    "place_id": "ChIJ95-AYwzFwogRJUMNa8f4Uug",
    "name": "Yard House",
    "street_address": "450 Channelside Drive",
    "city": "Tampa",
    "state": "FL",
    "zip_code": "33602",
    "latitude": 27.9437329,
    "longitude": -82.4516433,
    "website": "https://www.yardhouse.com/locations/fl/tampa/tampa-water-street/8394?cmpid=br:yh_ag:ie_ch:loc_ca:YHGMB_sn:gmb_gt:tampa-fl-8394_pl:locurl_rd:1088",
    "category": "Bar & Restaurant",
    "types": "meal_takeaway, bar, restaurant, food, point_of_interest, establishment"
  },
  {
    "place_id": "ChIJn6X9ZlDEwogRJXyfaIg_cak",
    "name": "Ybor City Tap House",
    "street_address": "1600 East 7th Avenue",
    "city": "Tampa",
    "state": "FL",
    "zip_code": "33605",
    "latitude": 27.960592,
    "longitude": -82.4413659,
    "website": "https://m.facebook.com/YborCityTapHouse/",
    "category": "Bar & Restaurant",
    "types": "bar, night_club, restaurant, food, point_of_interest, establishment"
  },
  {
    "place_id": "ChIJqT3OQwjDwogRjZa2tEx-8E4",
    "name": "Brick House Tavern + Tap",
    "street_address": "1102 North Dale Mabry Highway",
    "city": "Tampa",
    "state": "FL",
    "zip_code": "33607",
    "latitude": 27.9530595,
    "longitude": -82.50628549999999,
    "website": "https://www.brickhousetavernandtap.com/location/brick-house-tavern-and-tap-tampa-fl/",
    "category": "Bar & Restaurant",
    "types": "bar, restaurant, food, point_of_interest, establishment"
  },
  {
    "place_id": "ChIJ1yQNClHEwogRaCW7u5bgT0Y",
    "name": "Gaspar's Grotto",
    "street_address": "1805 East 7th Avenue",
    "city": "Tampa",
    "state": "FL",
    "zip_code": "33605",
    "latitude": 27.9601078,
    "longitude": -82.4389619,
    "website": "https://gasparsgrotto.com/",
    "category": "Bar & Restaurant",
    "types": "restaurant, bar, food, point_of_interest, establishment"
  },
  {
    "place_id": "ChIJq2_lAFHEwogRRCeJJ77fHgg",
    "name": "Bad Monkey Ybor",
    "street_address": "1717 East 7th Avenue",
    "city": "Tampa",
    "state": "FL",
    "zip_code": "33605",
    "latitude": 27.9601478,
    "longitude": -82.4399117,
    "website": "https://badmonkeyybor.com/?utm_source=GBP&utm_medium=Organic&utm_id=1",
    "category": "Bar & Restaurant",
    "types": "bar, restaurant, point_of_interest, food, establishment"
  },
  {
    "place_id": "ChIJzyHjx5LEwogRuGs9V-RMHrA",
    "name": "American Social - Tampa",
    "street_address": "601 South Harbour Island Boulevard",
    "city": "Tampa",
    "state": "FL",
    "zip_code": "33602",
    "latitude": 27.9384058,
    "longitude": -82.454863,
    "website": "https://americansocialbar.com/locations/tampa/",
    "category": "Bar & Restaurant",
    "types": "bar, restaurant, food, point_of_interest, establishment"
  },
  {
    "place_id": "ChIJS21014vEwogRXMNoxBIrzGg",
    "name": "Anchor Tavern",
    "street_address": "514 North Franklin Street",
    "city": "Tampa",
    "state": "FL",
    "zip_code": "33602",
    "latitude": 27.9488889,
    "longitude": -82.45888889999999,
    "website": "http://www.anchortaverntampa.com/",
    "category": "Bar & Restaurant",
    "types": "bar, restaurant, food, point_of_interest, establishment"
  },
  {
    "place_id": "ChIJB1L_XIzEwogR1Eslu42A1NQ",
    "name": "Hattricks",
    "street_address": "107 South Franklin Street",
    "city": "Tampa",
    "state": "FL",
    "zip_code": "33602",
    "latitude": 27.9448659,
    "longitude": -82.4569758,
    "website": "http://www.hattrickstavern.com/",
    "category": "Bar & Restaurant",
    "types": "bar, restaurant, food, point_of_interest, establishment"
  },
  {
    "place_id": "ChIJQ27bQovEwogRaTOvsjTavhk",
    "name": "Yeoman's Topgolf Swing Suite",
    "street_address": "202 North Morgan Street",
    "city": "Tampa",
    "state": "FL",
    "zip_code": "33602",
    "latitude": 27.9473185,
    "longitude": -82.4550874,
    "website": "https://yeomanstopgolfswingsuite.com/",
    "category": "Bar & Restaurant",
    "types": "bar, restaurant, food, point_of_interest, establishment"
  },
  {
    "place_id": "ChIJK031VFDEwogRA-CPh1rNsnQ",
    "name": "James Joyce Irish Pub & Eatery",
    "street_address": "1724 East 8th Avenue",
    "city": "Tampa",
    "state": "FL",
    "zip_code": "33605",
    "latitude": 27.9611501,
    "longitude": -82.43935640000001,
    "website": null,
    "category": "Bar & Restaurant",
    "types": "bar, restaurant, food, point_of_interest, establishment"
  },
  {
    "place_id": "ChIJTSQO5GTDwogR5VNtdse_zBw",
    "name": "MacDinton's Irish Pub",
    "street_address": "405 South Howard Avenue",
    "city": "Tampa",
    "state": "FL",
    "zip_code": "33606",
    "latitude": 27.9405322,
    "longitude": -82.48318139999999,
    "website": "https://macdintons.com/",
    "category": "Bar & Restaurant",
    "types": "bar, restaurant, food, point_of_interest, establishment"
  },
  {
    "place_id": "ChIJZXQ_k_bEwogRtcdeOZB4QDM",
    "name": "District Tavern",
    "street_address": "116 North 12th Street",
    "city": "Tampa",
    "state": "FL",
    "zip_code": "33602",
    "latitude": 27.9480452,
    "longitude": -82.446901,
    "website": "http://www.districttaverntampa.com/",
    "category": "Bar & Restaurant",
    "types": "restaurant, bar, food, point_of_interest, establishment"
  },
  {
    "place_id": "ChIJC-lGFOfFwogRYH3SdaBsiXw",
    "name": "Paddy Wagon Irish Pub (Downtown Tampa)",
    "street_address": "813 North Tampa Street",
    "city": "Tampa",
    "state": "FL",
    "zip_code": "33602",
    "latitude": 27.9510318,
    "longitude": -82.4601608,
    "website": "https://www.paddywagonirishpub.com/locations/paddywagon-irish-pub/tampa-n-tampa-st",
    "category": "Bar & Restaurant",
    "types": "bar, restaurant, point_of_interest, food, establishment"
  },
  {
    "place_id": "ChIJL9xPE9zFwogRgTF4FiaUM80",
    "name": "Top Shelf Sports Lounge",
    "street_address": "401 East Jackson Street",
    "city": "Tampa",
    "state": "FL",
    "zip_code": "33602",
    "latitude": 27.9471554,
    "longitude": -82.4561358,
    "website": "https://topshelfsportslounge.com/",
    "category": "Bar & Restaurant",
    "types": "restaurant, bar, food, point_of_interest, establishment"
  },
  {
    "place_id": "ChIJGV9nNxDDwogR6ri42TBYlK8",
    "name": "Walter's Press Box Sports Emporium",
    "street_address": "222 South Dale Mabry Highway",
    "city": "Tampa",
    "state": "FL",
    "zip_code": "33609",
    "latitude": 27.9422848,
    "longitude": -82.50532799999999,
    "website": "http://pressboxsports.com/",
    "category": "Bar & Restaurant",
    "types": "bar, restaurant, food, point_of_interest, establishment"
  },
  {
    "place_id": "ChIJS4AtxNfFwogReG60gXMaVEo",
    "name": "The Pearl Tampa",
    "street_address": "823 Water Street",
    "city": "Tampa",
    "state": "FL",
    "zip_code": "33602",
    "latitude": 27.9433114,
    "longitude": -82.4500879,
    "website": "https://thepearlrestaurant.com/locations-menus/tampa/",
    "category": "Bar & Restaurant",
    "types": "restaurant, bar, food, point_of_interest, establishment"
  },
  {
    "place_id": "ChIJa9RzQ4_FwogR0sd6GJw8_JM",
    "name": "The Copper Shaker Ybor",
    "street_address": "1502 East 7th Avenue",
    "city": "Tampa",
    "state": "FL",
    "zip_code": "33605",
    "latitude": 27.9604664,
    "longitude": -82.4428191,
    "website": "http://coppershaker.com/",
    "category": "Bar & Restaurant",
    "types": "bar, restaurant, food, point_of_interest, establishment"
  },
  {
    "place_id": "ChIJ4ZU3B6rFwogRLL4kEl0S4y4",
    "name": "Four Green Fields",
    "street_address": "802 North 12th Street",
    "city": "Tampa",
    "state": "FL",
    "zip_code": "33602",
    "latitude": 27.9551845,
    "longitude": -82.447137,
    "website": "https://fourgreenfields.com/",
    "category": "Bar & Restaurant",
    "types": "bar, restaurant, food, point_of_interest, establishment"
  },
  {
    "place_id": "ChIJJdlxv2XDwogRNuXcBHP8lHQ",
    "name": "The Soho Backyard",
    "street_address": "610 South Armenia Avenue",
    "city": "Tampa",
    "state": "FL",
    "zip_code": "33609",
    "latitude": 27.9379349,
    "longitude": -82.48446249999999,
    "website": "http://sohobackyard.com/",
    "category": "Bar & Restaurant",
    "types": "bar, restaurant, food, point_of_interest, establishment"
  },
  {
    "place_id": "ChIJb79cUkPFwogRzUUKtiwlFmY",
    "name": "The Pint and Brew",
    "street_address": "200 North Tampa Street",
    "city": "Tampa",
    "state": "FL",
    "zip_code": "33602",
    "latitude": 27.9462511,
    "longitude": -82.45841680000001,
    "website": "http://thepintandbrew.com/",
    "category": "Bar & Restaurant",
    "types": "restaurant, liquor_store, bar, food, point_of_interest, store, establishment"
  },
  {
    "place_id": "ChIJmfFGVBPFwogRIYyNhvz3X9Y",
    "name": "7th + Grove",
    "street_address": "1930 East 7th Avenue",
    "city": "Tampa",
    "state": "FL",
    "zip_code": "33605",
    "latitude": 27.9604164,
    "longitude": -82.43687779999999,
    "website": "https://7thandgrove.com/",
    "category": "Bar & Restaurant",
    "types": "night_club, bar, restaurant, food, point_of_interest, establishment"
  },
  {
    "place_id": "ChIJf_GumVXFwogR3KW00_zdKw0",
    "name": "Florida Avenue Brewing Co.",
    "street_address": "4315 North Florida Avenue",
    "city": "Tampa",
    "state": "FL",
    "zip_code": "33603",
    "latitude": 27.9849057,
    "longitude": -82.4591232,
    "website": "http://floridaavebrewing.com/",
    "category": "Bar & Restaurant",
    "types": "bar, restaurant, food, point_of_interest, establishment"
  },
  {
    "place_id": "ChIJy3uaZKvFwogRpk-ruMef9nE",
    "name": "Coppertail Brewing Co.",
    "street_address": "2601 East 2nd Avenue",
    "city": "Tampa",
    "state": "FL",
    "zip_code": "33605",
    "latitude": 27.9562878,
    "longitude": -82.430219,
    "website": "http://coppertailbrewing.com/",
    "category": "Bar & Restaurant",
    "types": "liquor_store, bar, store, restaurant, food, point_of_interest, establishment"
  },
  {
    "place_id": "ChIJO8XxhcDEwogR-GfpZLGsQUM",
    "name": "Anchor Tavern (Davis Islands)",
    "street_address": "304 East Davis Boulevard",
    "city": "Tampa",
    "state": "FL",
    "zip_code": "33606",
    "latitude": 27.925652,
    "longitude": -82.4530843,
    "website": "https://anchortaverntampa.com/",
    "category": "Bar & Restaurant",
    "types": "bar, restaurant, food, point_of_interest, establishment"
  },
  {
    "place_id": "ChIJM4Mm0svFwogRzDot6XjUIUw",
    "name": "IMPERIAL DRAFT BEER",
    "street_address": "232 North 11th Street",
    "city": "Tampa",
    "state": "FL",
    "zip_code": "33602",
    "latitude": 27.9499512,
    "longitude": -82.44780709999999,
    "website": "https://thedraftbeer.com/",
    "category": "Bar & Restaurant",
    "types": "bar, meal_delivery, meal_takeaway, restaurant, food, point_of_interest, establishment"
  },
  {
    "place_id": "ChIJfUWpN4nEwogRN7P8m628hvQ",
    "name": "Malio's",
    "street_address": "400 North Ashley Drive",
    "city": "Tampa",
    "state": "FL",
    "zip_code": "33602",
    "latitude": 27.9470311,
    "longitude": -82.4606125,
    "website": "http://www.maliosprime.com/",
    "category": "Bar & Restaurant",
    "types": "bar, restaurant, food, point_of_interest, establishment"
  },
  {
    "place_id": "ChIJfcB8glrEwogRJNp7zPM6ywM",
    "name": "Barterhouse Ybor",
    "street_address": "1811 North 15th Street",
    "city": "Tampa",
    "state": "FL",
    "zip_code": "33605",
    "latitude": 27.9608582,
    "longitude": -82.442786,
    "website": "https://www.barterhouseybor.com/",
    "category": "Bar & Restaurant",
    "types": "restaurant, bar, food, point_of_interest, establishment"
  },
  {
    "place_id": "ChIJn9vJ6n7dwogRf0_trgctUOo",
    "name": "Bar Ten & Cheese Please",
    "street_address": "4205 South MacDill Avenue",
    "city": "Tampa",
    "state": "FL",
    "zip_code": "33611",
    "latitude": 27.9035472,
    "longitude": -82.49416889999999,
    "website": "http://cheesepleasetampa.com/",
    "category": "Bar & Restaurant",
    "types": "bar, store, restaurant, food, point_of_interest, establishment"
  },
  {
    "place_id": "ChIJ0ZWO3ITFwogRgsOtiYnV1bI",
    "name": "Tori Bar",
    "street_address": "442 West Grand Central Avenue",
    "city": "Tampa",
    "state": "FL",
    "zip_code": "33606",
    "latitude": 27.944767,
    "longitude": -82.465638,
    "website": "http://www.toribartampa.com/",
    "category": "Bar & Restaurant",
    "types": "night_club, bar, restaurant, food, point_of_interest, establishment"
  },
  {
    "place_id": "ChIJU223fBfFwogR752IRYZZTjg",
    "name": "GenX Tavern",
    "street_address": "103 East Jackson Street",
    "city": "Tampa",
    "state": "FL",
    "zip_code": "33602",
    "latitude": 27.94634499999999,
    "longitude": -82.4588646,
    "website": "http://genxtavern.com/",
    "category": "Bar & Restaurant",
    "types": "bar, restaurant, food, point_of_interest, establishment"
  },
  {
    "place_id": "ChIJgVXfQFDEwogRW-6mIk_NnEo",
    "name": "Tampa Bay Brewing Company",
    "street_address": "1600 East 8th Avenue",
    "city": "Tampa",
    "state": "FL",
    "zip_code": "33605",
    "latitude": 27.9613765,
    "longitude": -82.4416305,
    "website": "https://www.tbbc.beer/",
    "category": "Bar & Restaurant",
    "types": "bar, restaurant, food, point_of_interest, establishment"
  },
  {
    "place_id": "ChIJUVX3MWXEwogRMmHunvjE6xY",
    "name": "Strandhill Public (Tampa Heights)",
    "street_address": "309 West Palm Avenue",
    "city": "Tampa",
    "state": "FL",
    "zip_code": "33602",
    "latitude": 27.9624253,
    "longitude": -82.4643986,
    "website": "http://www.strandhillpublic.com/",
    "category": "Bar & Restaurant",
    "types": "bar, restaurant, food, point_of_interest, establishment"
  },
  {
    "place_id": "ChIJf4TWHkPFwogRm4rNhzTIPC8",
    "name": "BarrieHaus Beer Co",
    "street_address": "1403 East 5th Avenue",
    "city": "Tampa",
    "state": "FL",
    "zip_code": "33605",
    "latitude": 27.9586543,
    "longitude": -82.44385079999999,
    "website": "https://barriehaus.com/",
    "category": "Bar & Restaurant",
    "types": "bar, restaurant, food, point_of_interest, establishment"
  },
  {
    "place_id": "ChIJzXMD72bDwogRUmY0GaY63xI",
    "name": "Bulla Gastrobar",
    "street_address": "930 South Howard Avenue",
    "city": "Tampa",
    "state": "FL",
    "zip_code": "33606",
    "latitude": 27.9342131,
    "longitude": -82.4829034,
    "website": "https://bullagastrobar.com/locations/tampa",
    "category": "Bar & Restaurant",
    "types": "bar, restaurant, point_of_interest, food, establishment"
  },
  {
    "place_id": "ChIJ7QVjUK_FwogRaTLY8uxOico",
    "name": "SpookEasy Lounge",
    "street_address": "1909 North 15th Street",
    "city": "Tampa",
    "state": "FL",
    "zip_code": "33605",
    "latitude": 27.9614157,
    "longitude": -82.44272680000002,
    "website": "http://spookeasylounge.com/?utm_source=google&utm_medium=wix_google_business_profile&utm_campaign=2383020484045406313",
    "category": "Bar & Restaurant",
    "types": "restaurant, night_club, bar, tourist_attraction, cafe, store, food, point_of_interest, establishment"
  },
  {
    "place_id": "ChIJOUXBQtzFwogRT8QEhWpsGjU",
    "name": "Motorworks Brewing Taproom",
    "street_address": "707 Harbour Post Drive",
    "city": "Tampa",
    "state": "FL",
    "zip_code": "33602",
    "latitude": 27.939717,
    "longitude": -82.4518049,
    "website": "http://www.motorworksbrewingtaproomtampa.com/",
    "category": "Bar & Restaurant",
    "types": "bar, restaurant, food, point_of_interest, establishment"
  },
  {
    "place_id": "ChIJtYpseS7HwogR6cjj8liGlX0",
    "name": "Corner Club Tampa",
    "street_address": "1502 East Sligh Avenue",
    "city": "Tampa",
    "state": "FL",
    "zip_code": "33610",
    "latitude": 28.0107849,
    "longitude": -82.4427651,
    "website": "http://cornerclubtampa.com/",
    "category": "Bar & Restaurant",
    "types": "restaurant, bar, food, point_of_interest, establishment"
  },
  {
    "place_id": "ChIJCzJTnonEwogRc9J0WsqUMsc",
    "name": "Taps Restaurant Bar & Lounge",
    "street_address": "777 North Ashley Drive",
    "city": "Tampa",
    "state": "FL",
    "zip_code": "33602",
    "latitude": 27.9500125,
    "longitude": -82.46066920000001,
    "website": "http://www.tampataps.com/",
    "category": "Bar & Restaurant",
    "types": "night_club, bar, restaurant, food, point_of_interest, establishment"
  },
  {
    "place_id": "ChIJQ87WJKfGwogR8SQudyerGMk",
    "name": "Front Porch & Bart's Tavern",
    "street_address": "5924 North Florida Avenue",
    "city": "Tampa",
    "state": "FL",
    "zip_code": "33604",
    "latitude": 28.0013141,
    "longitude": -82.4597812,
    "website": "http://www.frontporchgrill.com/",
    "category": "Bar & Restaurant",
    "types": "restaurant, bar, food, point_of_interest, establishment"
  },
  {
    "place_id": "ChIJlTWphcDEwogR5lSL8BjLKVE",
    "name": "Molly Malone's Irish Pub",
    "street_address": "304 East Davis Boulevard",
    "city": "Tampa",
    "state": "FL",
    "zip_code": "33606",
    "latitude": 27.925421,
    "longitude": -82.453062,
    "website": "http://mollymalonestampa.com/",
    "category": "Bar & Restaurant",
    "types": "bar, restaurant, food, point_of_interest, establishment"
  },
  {
    "place_id": "ChIJv4dyuXnPwogRMK5yN-Ke2Iw",
    "name": "Hammered Harry's Tampa",
    "street_address": "6807 East Adamo Drive",
    "city": "Tampa",
    "state": "FL",
    "zip_code": "33619",
    "latitude": 27.951388,
    "longitude": -82.37944399999999,
    "website": "https://hammeredharrys.com/locations/tampa-florida/",
    "category": "Bar & Restaurant",
    "types": "night_club, bar, restaurant, food, point_of_interest, establishment"
  },
  {
    "place_id": "ChIJY_4LBvbEwogRXKN8x63qgN8",
    "name": "Maloney's Local Irish Pub Downtown",
    "street_address": "1120 East Kennedy Boulevard",
    "city": "Tampa",
    "state": "FL",
    "zip_code": "33602",
    "latitude": 27.9512832,
    "longitude": -82.44862289999999,
    "website": "https://www.maloneyslocalirishpub.com/",
    "category": "Bar & Restaurant",
    "types": "bar, restaurant, point_of_interest, food, establishment"
  },
  {
    "place_id": "ChIJJboiOBnGwogRvfaFGLRqfhc",
    "name": "Tally Ho Bar Lounge & Grill",
    "street_address": "7402 North 56th Street",
    "city": "Tampa",
    "state": "FL",
    "zip_code": "33617",
    "latitude": 28.014272,
    "longitude": -82.393958,
    "website": "http://www.tallyhotampa.com/",
    "category": "Bar & Restaurant",
    "types": "night_club, bar, restaurant, point_of_interest, food, establishment"
  },
  {
    "place_id": "ChIJK_D-ZlDEwogRF4DfkIKdlBs",
    "name": "Centro Cantina",
    "street_address": "1600 East 8th Avenue",
    "city": "Tampa",
    "state": "FL",
    "zip_code": "33605",
    "latitude": 27.9605773,
    "longitude": -82.44157059999999,
    "website": "http://www.centrocantinayborcity.com/",
    "category": "Bar & Restaurant",
    "types": "bar, restaurant, food, point_of_interest, establishment"
  },
  {
    "place_id": "ChIJYzSxe63GwogRijxTl7U0E9U",
    "name": "c.1949",
    "street_address": "6905 North Orleans Avenue",
    "city": "Tampa",
    "state": "FL",
    "zip_code": "33604",
    "latitude": 28.0110519,
    "longitude": -82.47310159999999,
    "website": "http://www.c1949.com/",
    "category": "Bar & Restaurant",
    "types": "bar, restaurant, food, point_of_interest, establishment"
  },
  {
    "place_id": "ChIJeadUwiPDwogRu8Gq_Qf8cLw",
    "name": "The Blind Goat Food & Drink Co.",
    "street_address": "4106 Henderson Boulevard",
    "city": "Tampa",
    "state": "FL",
    "zip_code": "33629",
    "latitude": 27.92786989999999,
    "longitude": -82.5122459,
    "website": "https://www.blindgoattampa.com/",
    "category": "Bar & Restaurant",
    "types": "bar, restaurant, food, point_of_interest, establishment"
  },
  {
    "place_id": "ChIJM8VKwq_DwogR1syjySCWcOg",
    "name": "Miller's Ale House",
    "street_address": "3860 West Columbus Drive",
    "city": "Tampa",
    "state": "FL",
    "zip_code": "33607",
    "latitude": 27.9664417,
    "longitude": -82.5093637,
    "website": "https://millersalehouse.com/locations/tampa-airport/?utm_source=gmb&utm_medium=organic",
    "category": "Bar & Restaurant",
    "types": "restaurant, bar, meal_takeaway, food, point_of_interest, establishment"
  },
  {
    "place_id": "ChIJufAqa2LDwogRlL9MutPaUdI",
    "name": "Irish 31 Pub House & Eatery",
    "street_address": "1611 West Swann Avenue",
    "city": "Tampa",
    "state": "FL",
    "zip_code": "33606",
    "latitude": 27.9375123,
    "longitude": -82.4765736,
    "website": "https://irish31.com/",
    "category": "Bar & Restaurant",
    "types": "bar, restaurant, food, point_of_interest, establishment"
  },
  {
    "place_id": "ChIJrXsy_aDDwogRHvSQTV8x0dM",
    "name": "Henderson's",
    "street_address": "4110 Henderson Boulevard",
    "city": "Tampa",
    "state": "FL",
    "zip_code": "33629",
    "latitude": 27.9273597,
    "longitude": -82.5125375,
    "website": "https://www.hendersonstampa.com/",
    "category": "Bar & Restaurant",
    "types": "bar, restaurant, food, point_of_interest, establishment"
  },
  {
    "place_id": "ChIJIQxWr5TDwogR__pVjyWacMM",
    "name": "Burnz Restaurant Bar & Grill",
    "street_address": "1704 North Howard Avenue",
    "city": "Tampa",
    "state": "FL",
    "zip_code": "33607",
    "latitude": 27.9573411,
    "longitude": -82.48304610000001,
    "website": null,
    "category": "Bar & Restaurant",
    "types": "restaurant, bar, store, food, point_of_interest, establishment"
  },
  {
    "place_id": "ChIJAd9H1c_pwogR_lKi_TH7qx0",
    "name": "Whiskey Joe's | Tampa",
    "street_address": "7720 West Courtney Campbell Causeway",
    "city": "Tampa",
    "state": "FL",
    "zip_code": "33607",
    "latitude": 27.967593,
    "longitude": -82.57298999999999,
    "website": "https://www.thewhiskeyjoes.com/",
    "category": "Bar & Restaurant",
    "types": "bar, restaurant, point_of_interest, food, establishment"
  },
  {
    "place_id": "ChIJVdT9P3jEwogRaJV9QTenmCg",
    "name": "Rick's on the River",
    "street_address": "2305 North Willow Avenue",
    "city": "Tampa",
    "state": "FL",
    "zip_code": "33607",
    "latitude": 27.9628309,
    "longitude": -82.47381209999999,
    "website": "http://www.ricksontheriver.com/",
    "category": "Bar & Restaurant",
    "types": "bar, restaurant, food, point_of_interest, establishment"
  },
  {
    "place_id": "ChIJP9I8xtDpwogRCgan4OapFus",
    "name": "Bahama Breeze",
    "street_address": "3045 North Rocky Point Drive East",
    "city": "Tampa",
    "state": "FL",
    "zip_code": "33607",
    "latitude": 27.96982999999999,
    "longitude": -82.56264,
    "website": "https://www.bahamabreeze.com/locations/fl/tampa/tampa/3004?cmpid=br:bb_ag:ie_ch:loc_ca:BBGMB_sn:gmb_gt:tampa-fl-3004_pl:locurl_rd:1004",
    "category": "Bar & Restaurant",
    "types": "bar, meal_takeaway, restaurant, food, point_of_interest, establishment"
  },
  {
    "place_id": "ChIJraVcblPCwogRgJZTR_h9S3Y",
    "name": "Bar Louie - Tampa",
    "street_address": "2223 North Westshore Boulevard",
    "city": "Tampa",
    "state": "FL",
    "zip_code": "33607",
    "latitude": 27.9661556,
    "longitude": -82.52096809999999,
    "website": "https://www.barlouie.com/locations/us/fl/tampa/international-plaza?utm_source=google&utm_medium=gmb&utm_campaign=listings",
    "category": "Bar & Restaurant",
    "types": "night_club, bar, restaurant, point_of_interest, food, establishment"
  },
  {
    "place_id": "ChIJRdMLbYvDwogReC2WN2YpVEA",
    "name": "Walk-On's Sports Bistreaux - Tampa (Midtown)",
    "street_address": "1140 Gramercy Lane",
    "city": "Tampa",
    "state": "FL",
    "zip_code": "33607",
    "latitude": 27.9535475,
    "longitude": -82.50247949999999,
    "website": "https://locate.walk-ons.com/fl/tampa/restaurants-441.html",
    "category": "Bar & Restaurant",
    "types": "restaurant, bar, food, point_of_interest, establishment"
  },
  {
    "place_id": "ChIJqxZnQubpwogRc7QJYdWiDuM",
    "name": "The Long Bar Pub & Grill",
    "street_address": "4701 Normandy Drive",
    "city": "Tampa",
    "state": "FL",
    "zip_code": "33615",
    "latitude": 27.9868457,
    "longitude": -82.5705268,
    "website": "https://www.longbarpubtampa.com/",
    "category": "Bar & Restaurant",
    "types": "bar, restaurant, food, point_of_interest, establishment"
  },
  {
    "place_id": "ChIJbX6C-kbDwogROi0OP8OlaS0",
    "name": "Cru Cellars - Wine Bar",
    "street_address": "2506 South MacDill Avenue",
    "city": "Tampa",
    "state": "FL",
    "zip_code": "33629",
    "latitude": 27.922753,
    "longitude": -82.493402,
    "website": "http://crucellars.com/",
    "category": "Bar & Restaurant",
    "types": "liquor_store, bar, store, restaurant, food, point_of_interest, establishment"
  },
  {
    "place_id": "ChIJ-xSpHzjDwogRdbOKqf0ctEc",
    "name": "The Dog Saloon",
    "street_address": "3311 West Bay to Bay Boulevard",
    "city": "Tampa",
    "state": "FL",
    "zip_code": "33629",
    "latitude": 27.919958,
    "longitude": -82.49810029999999,
    "website": null,
    "category": "Bar & Restaurant",
    "types": "bar, restaurant, food, point_of_interest, establishment"
  },
  {
    "place_id": "ChIJl0Q94EbCwogRkSVqo_VWbpA",
    "name": "The Skyye Bar and Grille",
    "street_address": "4200 George J Bean Parkway",
    "city": "Tampa",
    "state": "FL",
    "zip_code": "33607",
    "latitude": 27.9816065,
    "longitude": -82.5346472,
    "website": "https://www.marriott.com/en-us/hotels/tpaap-tampa-airport-marriott/dining/?scid=feed67b0-9a2f-4de1-8df6-114544116108",
    "category": "Bar & Restaurant",
    "types": "bar, restaurant, food, point_of_interest, establishment"
  },
  {
    "place_id": "ChIJIUpfJ1TCwogRDsxgDUkhIJg",
    "name": "Ocean Prime",
    "street_address": "2205 North Westshore Boulevard",
    "city": "Tampa",
    "state": "FL",
    "zip_code": "33607",
    "latitude": 27.9611977,
    "longitude": -82.52312769999999,
    "website": "https://www.ocean-prime.com/locations-menus/tampa",
    "category": "Bar & Restaurant",
    "types": "night_club, bar, restaurant, food, point_of_interest, establishment"
  },
  {
    "place_id": "ChIJgRnlVLTcwogRMpK1Jh5BdbA",
    "name": "Mad Dogs and Englishmen",
    "street_address": "4914 South MacDill Avenue",
    "city": "Tampa",
    "state": "FL",
    "zip_code": "33611",
    "latitude": 27.8926986,
    "longitude": -82.4937317,
    "website": "http://maddogs.com/",
    "category": "Restaurant",
    "types": "restaurant, food, point_of_interest, establishment"
  },
  {
    "place_id": "ChIJ-xbQjFjCwogR3PrS9znSO38",
    "name": "World of Beer",
    "street_address": "5311 Avion Park Drive",
    "city": "Tampa",
    "state": "FL",
    "zip_code": "33607",
    "latitude": 27.959398,
    "longitude": -82.5328305,
    "website": "https://worldofbeer.com/Locations/Tampa-International",
    "category": "Bar & Restaurant",
    "types": "bar, restaurant, food, point_of_interest, establishment"
  },
  {
    "place_id": "ChIJmQXsuKfDwogRizjQK_7v4G4",
    "name": "Duffy's Sports Grill",
    "street_address": "1580 North Dale Mabry Highway",
    "city": "Tampa",
    "state": "FL",
    "zip_code": "33607",
    "latitude": 27.9569874,
    "longitude": -82.5063234,
    "website": "https://www.duffysmvp.com/",
    "category": "Restaurant",
    "types": "restaurant, food, point_of_interest, establishment"
  },
  {
    "place_id": "ChIJqwo10S3dwogRnC3CEXFQNwI",
    "name": "Green Iguana Bar & Grill",
    "street_address": "4029 South West Shore Boulevard",
    "city": "Tampa",
    "state": "FL",
    "zip_code": "33611",
    "latitude": 27.9042631,
    "longitude": -82.5270571,
    "website": "http://greeniguana.com/",
    "category": "Bar & Restaurant",
    "types": "bar, restaurant, food, point_of_interest, establishment"
  },
  {
    "place_id": "ChIJVeWohCrDwogRpaBh96R11Yo",
    "name": "Bel Mar Saloon",
    "street_address": "3501 South Manhattan Avenue",
    "city": "Tampa",
    "state": "FL",
    "zip_code": "33629",
    "latitude": 27.9113799,
    "longitude": -82.51822779999999,
    "website": "http://www.belmarsaloon.com/",
    "category": "Bar & Restaurant",
    "types": "restaurant, bar, food, point_of_interest, establishment"
  },
  {
    "place_id": "ChIJvcipLLvDwogRz2ucxRUKmJ8",
    "name": "WingHouse Bar & Grill - Tampa Stadium",
    "street_address": "3712 West Columbus Drive",
    "city": "Tampa",
    "state": "FL",
    "zip_code": "33607",
    "latitude": 27.9664705,
    "longitude": -82.5040365,
    "website": "https://winghouse.com/locations/tampa-stadium/",
    "category": "Bar & Restaurant",
    "types": "meal_delivery, meal_takeaway, bar, restaurant, point_of_interest, food, establishment"
  },
  {
    "place_id": "ChIJGSuR8FrEwogRutYYeYqDT8U",
    "name": "New World Tampa",
    "street_address": "810 East Skagway Avenue",
    "city": "Tampa",
    "state": "FL",
    "zip_code": "33604",
    "latitude": 28.0324123,
    "longitude": -82.4524689,
    "website": "http://www.newworldtampa.com/",
    "category": "Bar & Restaurant",
    "types": "restaurant, bar, point_of_interest, food, establishment"
  },
  {
    "place_id": "ChIJrZyHcxzBwogRivnWHJrgot8",
    "name": "The Brass Tap",
    "street_address": "10047 North Dale Mabry Highway",
    "city": "Tampa",
    "state": "FL",
    "zip_code": "33618",
    "latitude": 28.0426409,
    "longitude": -82.5042016,
    "website": "https://www.brasstapbeerbar.com/carrollwood",
    "category": "Bar & Restaurant",
    "types": "bar, restaurant, food, point_of_interest, establishment"
  },
  {
    "place_id": "ChIJ4QBuHQDHwogR0oS_u_dAIRA",
    "name": "Bohemia Restaurant Bar",
    "street_address": "10509 North Nebraska Avenue",
    "city": "Tampa",
    "state": "FL",
    "zip_code": "33612",
    "latitude": 28.0446875,
    "longitude": -82.4506971,
    "website": null,
    "category": "Bar & Restaurant",
    "types": "restaurant, bar, food, point_of_interest, establishment"
  },
  {
    "place_id": "ChIJq6p21abGwogRXkK7RWeInyI",
    "name": "The C House",
    "street_address": "6005 North Florida Avenue",
    "city": "Tampa",
    "state": "FL",
    "zip_code": "33604",
    "latitude": 28.0020765,
    "longitude": -82.4591725,
    "website": "http://thechouse.com/",
    "category": "Bar & Restaurant",
    "types": "bar, store, restaurant, food, point_of_interest, establishment"
  },
  {
    "place_id": "ChIJ2a9NMEbDwogRZ2JKOblLdrA",
    "name": "Beef 'O' Brady's",
    "street_address": "2819 South MacDill Avenue",
    "city": "Tampa",
    "state": "FL",
    "zip_code": "33629",
    "latitude": 27.92015899999999,
    "longitude": -82.4939302,
    "website": "https://www.beefobradys.com/palmaceia",
    "category": "Bar & Restaurant",
    "types": "bar, meal_takeaway, restaurant, food, point_of_interest, establishment"
  },
  {
    "place_id": "ChIJybNfJEbDwogR-vrD6iDDmvE",
    "name": "Byblos",
    "street_address": "2832 South MacDill Avenue",
    "city": "Tampa",
    "state": "FL",
    "zip_code": "33629",
    "latitude": 27.9201529,
    "longitude": -82.4934016,
    "website": "https://byblostampa.com/?utm_source=google",
    "category": "Bar & Restaurant",
    "types": "restaurant, bar, food, point_of_interest, establishment"
  },
  {
    "place_id": "ChIJx6seCQnDwogRrmwJmPNl0Iw",
    "name": "J. Alexander's Restaurant",
    "street_address": "913 North Dale Mabry Highway",
    "city": "Tampa",
    "state": "FL",
    "zip_code": "33609",
    "latitude": 27.9517202,
    "longitude": -82.5040404,
    "website": "https://jalexanders.com/",
    "category": "Bar & Restaurant",
    "types": "bar, restaurant, food, point_of_interest, establishment"
  },
  {
    "place_id": "ChIJhSNL6WjDwogRo9PNhilE_EQ",
    "name": "Taco Dirty",
    "street_address": "2221 West Platt Street",
    "city": "Tampa",
    "state": "FL",
    "zip_code": "33606",
    "latitude": 27.9420709,
    "longitude": -82.4827784,
    "website": "http://tacodirty.com/",
    "category": "Restaurant",
    "types": "restaurant, food, point_of_interest, establishment"
  },
  {
    "place_id": "ChIJJXKWXwTDwogRc1gTDwl5wc4",
    "name": "Colony Grill - Tampa Midtown",
    "street_address": "3640 Midtown Drive",
    "city": "Tampa",
    "state": "FL",
    "zip_code": "33607",
    "latitude": 27.9530013,
    "longitude": -82.5023551,
    "website": "https://www.colonygrill.com/",
    "category": "Restaurant",
    "types": "restaurant, food, point_of_interest, establishment"
  },
  {
    "place_id": "ChIJZfpLdMDEwogRnxYq-T1QPdY",
    "name": "Margaritas Mexican Restaurant",
    "street_address": "209 East Davis Boulevard",
    "city": "Tampa",
    "state": "FL",
    "zip_code": "33606",
    "latitude": 27.9272311,
    "longitude": -82.4533503,
    "website": "http://www.margaritasmexicanrestaurant.com/",
    "category": "Bar & Restaurant",
    "types": "bar, restaurant, food, point_of_interest, establishment"
  },
  {
    "place_id": "ChIJsUQ7whbDwogRzDgLX8FA5kE",
    "name": "Bonefish Grill",
    "street_address": "3665 Henderson Boulevard",
    "city": "Tampa",
    "state": "FL",
    "zip_code": "33609",
    "latitude": 27.93598369999999,
    "longitude": -82.5039441,
    "website": "https://locations.bonefishgrill.com/florida/tampa/3665-henderson-boulevard?y_source=1_MTU1MDI2OTEtNzE1LWxvY2F0aW9uLndlYnNpdGU%3D",
    "category": "Bar & Restaurant",
    "types": "meal_takeaway, bar, restaurant, food, point_of_interest, establishment"
  },
  {
    "place_id": "ChIJv73rGvbEwogR6pYyYlqVivw",
    "name": "City Dog Cantina",
    "street_address": "1208 East Kennedy Boulevard",
    "city": "Tampa",
    "state": "FL",
    "zip_code": "33602",
    "latitude": 27.9510689,
    "longitude": -82.44749720000002,
    "website": "http://www.citydogcantina.com/",
    "category": "Bar & Restaurant",
    "types": "bar, restaurant, food, point_of_interest, establishment"
  },
  {
    "place_id": "ChIJjW2AtBrdwogR4C3zJHvM8cM",
    "name": "Chuck Lager America's Tavern",
    "street_address": "5224 Bridge Street",
    "city": "Tampa",
    "state": "FL",
    "zip_code": "33611",
    "latitude": 27.89000990000001,
    "longitude": -82.52939479999999,
    "website": "https://www.chucklager.com/",
    "category": "Restaurant",
    "types": "restaurant, food, point_of_interest, establishment"
  },
  {
    "place_id": "ChIJuSleXdjDwogRrL-rlcOWhZ0",
    "name": "District South Kitchen & Craft",
    "street_address": "3301 South Dale Mabry Highway",
    "city": "Tampa",
    "state": "FL",
    "zip_code": "33629",
    "latitude": 27.9152761,
    "longitude": -82.50635869999999,
    "website": "https://www.districtsouthtampa.com/",
    "category": "Restaurant",
    "types": "restaurant, food, point_of_interest, establishment"
  },
  {
    "place_id": "ChIJz67_9RXdwogRdi8N166RLWE",
    "name": "Hula Bay Club",
    "street_address": "5210 West Tyson Avenue",
    "city": "Tampa",
    "state": "FL",
    "zip_code": "33611",
    "latitude": 27.8855063,
    "longitude": -82.5345656,
    "website": "http://hulabayclub.com/",
    "category": "Bar & Restaurant",
    "types": "bar, restaurant, point_of_interest, food, establishment"
  },
  {
    "place_id": "ChIJuTfsECPdwogReTzPNgh68yQ",
    "name": "Dead Bob's Too",
    "street_address": "3681 South West Shore Boulevard",
    "city": "Tampa",
    "state": "FL",
    "zip_code": "33629",
    "latitude": 27.909007,
    "longitude": -82.5269904,
    "website": "https://www.deadbobstoo.com/",
    "category": "Restaurant",
    "types": "restaurant, food, point_of_interest, establishment"
  },
  {
    "place_id": "ChIJL2sVkPbdwogRZhGmMjDWIQg",
    "name": "Boomers Bar and Grill",
    "street_address": "7315 Bayshore Boulevard",
    "city": "Tampa",
    "state": "FL",
    "zip_code": "33621",
    "latitude": 27.85907899999999,
    "longitude": -82.4864111,
    "website": "https://macdillfss.com/boomers/",
    "category": "Bar & Restaurant",
    "types": "bar, restaurant, food, point_of_interest, establishment"
  },
  {
    "place_id": "ChIJ_3psxGTCwogRSVYXzCn3ryc",
    "name": "1823 Kitchen And Bar",
    "street_address": "3000 Bayport Drive",
    "city": "Tampa",
    "state": "FL",
    "zip_code": "33607",
    "latitude": 27.965215,
    "longitude": -82.550094,
    "website": "https://tampabay.grand.hyatt.com/en/hotel/dining/1823-kitchen-and-bar.html",
    "category": "Bar & Restaurant",
    "types": "bar, restaurant, food, point_of_interest, establishment"
  },
  {
    "place_id": "ChIJ-_nX0NnDwogRU3LDjvNyBv4",
    "name": "Graze South Tampa",
    "street_address": "2219 South Dale Mabry Highway",
    "city": "Tampa",
    "state": "FL",
    "zip_code": "33629",
    "latitude": 27.92513809999999,
    "longitude": -82.50611420000001,
    "website": "http://www.graze1910.com/",
    "category": "Restaurant",
    "types": "restaurant, food, point_of_interest, establishment"
  },
  {
    "place_id": "ChIJs-gB_yndwogRnYkkyCHrO6Y",
    "name": "Bar Ten & Cheese Please",
    "street_address": "4205 South MacDill Avenue",
    "city": "Tampa",
    "state": "FL",
    "zip_code": "33611",
    "latitude": 27.9035472,
    "longitude": -82.49416889999999,
    "website": "http://www.cheesepleasetampa.com/",
    "category": "Bar & Restaurant",
    "types": "bar, meal_takeaway, restaurant, food, point_of_interest, store, establishment"
  },
  {
    "place_id": "ChIJISPK1O3AwogR2LouQ7gF7vo",
    "name": "Tampa Tap Room",
    "street_address": "13150 North Dale Mabry Highway",
    "city": "Tampa",
    "state": "FL",
    "zip_code": "33618",
    "latitude": 28.0661134,
    "longitude": -82.50725159999999,
    "website": "http://www.tampataproom.com/",
    "category": "Bar & Restaurant",
    "types": "bar, restaurant, food, point_of_interest, establishment"
  },
  {
    "place_id": "ChIJX8ufO8vHwogR7z8v7MfGyC4",
    "name": "Paddy Wagon Irish Pub",
    "street_address": "2711 University Square Drive",
    "city": "Tampa",
    "state": "FL",
    "zip_code": "33612",
    "latitude": 28.05665209999999,
    "longitude": -82.429807,
    "website": "https://paddywagonirishpub.com/",
    "category": "Bar & Restaurant",
    "types": "bar, restaurant, food, point_of_interest, establishment"
  },
  {
    "place_id": "ChIJF95dwajHwogRmyAzOrTu1nI",
    "name": "World of Beer",
    "street_address": "2815 East Fowler Avenue",
    "city": "Tampa",
    "state": "FL",
    "zip_code": "33612",
    "latitude": 28.0538125,
    "longitude": -82.4276509,
    "website": "http://worldofbeer.com/Locations/Fowler",
    "category": "Bar & Restaurant",
    "types": "bar, restaurant, food, point_of_interest, establishment"
  },
  {
    "place_id": "ChIJj395K6nHwogR3Ef1Lx37IXg",
    "name": "North 30th Sports Pub & Grille USF",
    "street_address": "11402 North 30th Street",
    "city": "Tampa",
    "state": "FL",
    "zip_code": "33612",
    "latitude": 28.0522565,
    "longitude": -82.42667039999999,
    "website": "https://north30pub.com/",
    "category": "Bar & Restaurant",
    "types": "bar, restaurant, food, point_of_interest, establishment"
  },
  {
    "place_id": "ChIJeXMqEwbHwogRQ7xf877N1hU",
    "name": "Miller's Ale House",
    "street_address": "2108 East Fowler Avenue",
    "city": "Tampa",
    "state": "FL",
    "zip_code": "33612",
    "latitude": 28.0550788,
    "longitude": -82.4375247,
    "website": "https://millersalehouse.com/locations/tampa-usf/?utm_source=gmb&utm_medium=organic",
    "category": "Bar & Restaurant",
    "types": "restaurant, meal_takeaway, bar, food, point_of_interest, establishment"
  },
  {
    "place_id": "ChIJmbAdmTjHwogRNWuYEsqJrKk",
    "name": "Tom's Tavern (Forest Hills)",
    "street_address": "124 West Fletcher Avenue",
    "city": "Tampa",
    "state": "FL",
    "zip_code": "33612",
    "latitude": 28.06807019999999,
    "longitude": -82.46040169999999,
    "website": "https://www.facebook.com/tomstavernfh",
    "category": "Bar & Restaurant",
    "types": "bar, restaurant, food, point_of_interest, establishment"
  },
  {
    "place_id": "ChIJzTVI_q7BwogRlhRZFWOO3IU",
    "name": "ThunderBay Bar & Grill",
    "street_address": "4901 West Linebaugh Avenue",
    "city": "Tampa",
    "state": "FL",
    "zip_code": "33624",
    "latitude": 28.0407955,
    "longitude": -82.5267291,
    "website": "http://www.thunderbaybar.com/",
    "category": "Bar & Restaurant",
    "types": "bar, restaurant, food, point_of_interest, establishment"
  },
  {
    "place_id": "ChIJ0za8V7nHwogRd8DIJOpycck",
    "name": "Craft Fry Wing",
    "street_address": "2224 East Fletcher Avenue",
    "city": "Tampa",
    "state": "FL",
    "zip_code": "33612",
    "latitude": 28.0694705,
    "longitude": -82.43308990000001,
    "website": "http://www.craftfrywing.com/",
    "category": "Restaurant",
    "types": "restaurant, food, point_of_interest, establishment"
  },
  {
    "place_id": "ChIJWSwkNNXdwogRCJUtqnx7je0",
    "name": "Salt Shack On The Bay",
    "street_address": "5415 West Tyson Avenue",
    "city": "Tampa",
    "state": "FL",
    "zip_code": "33611",
    "latitude": 27.8869898,
    "longitude": -82.5411487,
    "website": "http://salt-shack.com/",
    "category": "Restaurant",
    "types": "restaurant, food, point_of_interest, establishment"
  },
  {
    "place_id": "ChIJ7-kQsFbDwogRKFmuikwzloA",
    "name": "Palihouse Lobby Bar Hyde Park Village",
    "street_address": "1509 West Swann Avenue",
    "city": "Tampa",
    "state": "FL",
    "zip_code": "33606",
    "latitude": 27.9375226,
    "longitude": -82.475318,
    "website": "https://www.palisociety.com/hotels/tampa/dining-and-events",
    "category": "Restaurant",
    "types": "restaurant, food, point_of_interest, establishment"
  },
  {
    "place_id": "ChIJf24sHCfdwogRPY4Es0R62OQ",
    "name": "Applebee's Grill + Bar",
    "street_address": "4411 West Gandy Boulevard",
    "city": "Tampa",
    "state": "FL",
    "zip_code": "33611",
    "latitude": 27.8936289,
    "longitude": -82.5198098,
    "website": "https://restaurants.applebees.com/en-us/fl/tampa/4411-w.-gandy-blvd.-78024?utm_source=google&utm_medium=organic&utm_campaign=google_my_business&utm_term=78024&utm_content=website",
    "category": "Bar & Restaurant",
    "types": "restaurant, bar, food, point_of_interest, establishment"
  },
  {
    "place_id": "ChIJmSX8dM3cwogRpqelzUHnHk4",
    "name": "Buffalo Wild Wings",
    "street_address": "4015 South Dale Mabry Highway",
    "city": "Tampa",
    "state": "FL",
    "zip_code": "33611",
    "latitude": 27.9057731,
    "longitude": -82.5067297,
    "website": "https://www.buffalowildwings.com/locations/us/fl/tampa/4015-south-dale-mabry-highway/sports-bar-1601?utm_source=google%20my%20business&utm_medium=organic&utm_campaign=website%20link",
    "category": "Bar & Restaurant",
    "types": "bar, meal_takeaway, restaurant, food, point_of_interest, establishment"
  }
]