[
  {
    "place_id": "ChIJ0XaVSW1w1oYRR9SXsEsbGhY",
    "name": "Wooden Nickel Tavern",
    "street_address": "1908 South Country Club Road",
    "city": "Tucson",
    "state": "AZ",
    "zip_code": "85713",
    "latitude": 32.1993161,
    "longitude": -110.9269859,
    "website": "https://woodennickeltavern.com/",
    "category": "Bar & Restaurant",
    "types": "bar, restaurant, food, point_of_interest, establishment"
  },
  {
    "place_id": "ChIJMa7hr2lx1oYRlFR5RnYgTwY",
    "name": "Brodies Dark Horse Tavern",
    "street_address": "2449 North Stone Avenue",
    "city": "Tucson",
    "state": "AZ",
    "zip_code": "85705",
    "latitude": 32.2519856,
    "longitude": -110.972226,
    "website": "https://brodiesdarkhorsetavern.com/",
    "category": "Bar & Restaurant",
    "types": "bar, restaurant, food, point_of_interest, establishment"
  },
  {
    "place_id": "ChIJa1gEE31x1oYR6YrK5GKAsv8",
    "name": "Nancy's Boondocks",
    "street_address": "3306 North 1st Avenue",
    "city": "Tucson",
    "state": "AZ",
    "zip_code": "85719",
    "latitude": 32.2667498,
    "longitude": -110.9607113,
    "website": null,
    "category": "Bar & Restaurant",
    "types": "bar, restaurant, food, point_of_interest, establishment"
  },
  {
    "place_id": "ChIJG-d_cgRx1oYR9FKxHcPNlaA",
    "name": "Frog & Firkin",
    "street_address": "874 East University Boulevard",
    "city": "Tucson",
    "state": "AZ",
    "zip_code": "85719",
    "latitude": 32.2314328,
    "longitude": -110.9582961,
    "website": "http://www.frogandfirkin.com/",
    "category": "Bar & Restaurant",
    "types": "bar, restaurant, food, point_of_interest, establishment"
  },
  {
    "place_id": "ChIJ4-9si8lx1oYRIZv9XX2TUOc",
    "name": "Red Garter Saloon Bar & Grill",
    "street_address": "3143 East Speedway Boulevard",
    "city": "Tucson",
    "state": "AZ",
    "zip_code": "85716",
    "latitude": 32.2362858,
    "longitude": -110.9252069,
    "website": "https://redgartertucson.com/",
    "category": "Bar & Restaurant",
    "types": "bar, restaurant, food, point_of_interest, establishment"
  },
  {
    "place_id": "ChIJ5Xz4ywxx1oYRqXCZp2666kI",
    "name": "The Buffet Bar",
    "street_address": "538 East 9th Street",
    "city": "Tucson",
    "state": "AZ",
    "zip_code": "85705",
    "latitude": 32.2236486,
    "longitude": -110.9628563,
    "website": "https://www.buffetbartucson.com/",
    "category": "Bar & Restaurant",
    "types": "bar, restaurant, food, point_of_interest, establishment"
  },
  {
    "place_id": "ChIJv36e2qRx1oYRiEqjWiwk3Mo",
    "name": "Audubon Bar & Patio",
    "street_address": "2200 East Elm Street",
    "city": "Tucson",
    "state": "AZ",
    "zip_code": "85719",
    "latitude": 32.24225749999999,
    "longitude": -110.9392541,
    "website": "http://www.arizonainn.com/dining/audubon-bar-patio.aspx",
    "category": "Bar & Restaurant",
    "types": "bar, restaurant, food, point_of_interest, establishment"
  },
  {
    "place_id": "ChIJa-6haA5x1oYRGwZ-puEmxwc",
    "name": "The Blind Pig",
    "street_address": "943 East University Boulevard",
    "city": "Tucson",
    "state": "AZ",
    "zip_code": "85719",
    "latitude": 32.2320838,
    "longitude": -110.957216,
    "website": "https://www.blindpigtucson.com/",
    "category": "Restaurant",
    "types": "restaurant, food, point_of_interest, establishment"
  },
  {
    "place_id": "ChIJE7_lQ6V21oYRRIKJe8fwqp8",
    "name": "Rusty's Family Restaurant & Sports Grille",
    "street_address": "2075 West Grant Road",
    "city": "Tucson",
    "state": "AZ",
    "zip_code": "85745",
    "latitude": 32.250372,
    "longitude": -111.0114579,
    "website": null,
    "category": "Bar & Restaurant",
    "types": "bar, restaurant, food, point_of_interest, establishment"
  },
  {
    "place_id": "ChIJYY-KtQBx1oYRDANlJnNNtas",
    "name": "Gentle Ben's",
    "street_address": "865 East University Boulevard",
    "city": "Tucson",
    "state": "AZ",
    "zip_code": "85719",
    "latitude": 32.2319967,
    "longitude": -110.9581772,
    "website": "http://gentlebens.com/",
    "category": "Bar & Restaurant",
    "types": "night_club, bar, restaurant, food, point_of_interest, establishment"
  },
  {
    "place_id": "ChIJw1ov0ahx1oYRzgHHJi0veyU",
    "name": "Dirtbag's",
    "street_address": "1800 East Speedway Boulevard",
    "city": "Tucson",
    "state": "AZ",
    "zip_code": "85719",
    "latitude": 32.235705,
    "longitude": -110.9450369,
    "website": "http://www.dirtbagsbar.com/",
    "category": "Bar & Restaurant",
    "types": "bar, restaurant, food, point_of_interest, establishment"
  },
  {
    "place_id": "ChIJWX1mLh5x1oYR7Dcxw0lxyDI",
    "name": "Tabu Restaurant Bar",
    "street_address": "128 East Congress Street",
    "city": "Tucson",
    "state": "AZ",
    "zip_code": "85701",
    "latitude": 32.221779,
    "longitude": -110.9691192,
    "website": "https://tabubartucson.com/?fbclid=PAZXh0bgNhZW0CMTEAAaanTOYIV0teqETgsRXgaYDKKOARWYp5hLe_GCW5uAlvGGDtRuuvkPl_rI8_aem_O72HcCXuPKsHsh0s6OZ7eQ",
    "category": "Bar & Restaurant",
    "types": "bar, restaurant, food, point_of_interest, establishment"
  },
  {
    "place_id": "ChIJF03I3Uxw1oYRB_SCQYojgXo",
    "name": "Bob Dobb's Bar & Grill",
    "street_address": "2501 East 6th Street",
    "city": "Tucson",
    "state": "AZ",
    "zip_code": "85716",
    "latitude": 32.228168,
    "longitude": -110.935147,
    "website": "http://www.bobdobbs-tucson.com/",
    "category": "Bar & Restaurant",
    "types": "bar, restaurant, point_of_interest, food, establishment"
  },
  {
    "place_id": "ChIJw3jHihxx1oYRpvL88ZgIh38",
    "name": "Bumsted's",
    "street_address": "1003 North Stone Avenue",
    "city": "Tucson",
    "state": "AZ",
    "zip_code": "85705",
    "latitude": 32.23456,
    "longitude": -110.9720392,
    "website": "https://www.bumstedsaz.com/",
    "category": "Bar & Restaurant",
    "types": "restaurant, night_club, bar, food, point_of_interest, establishment"
  },
  {
    "place_id": "ChIJ3aw4l55x1oYR4X74f1XN9MM",
    "name": "The Neighborhood Bar DWTN",
    "street_address": "61 East Congress Street",
    "city": "Tucson",
    "state": "AZ",
    "zip_code": "85701",
    "latitude": 32.2221222,
    "longitude": -110.970189,
    "website": "https://theneighborhoodbar.com/",
    "category": "Bar & Restaurant",
    "types": "bar, restaurant, food, point_of_interest, establishment"
  },
  {
    "place_id": "ChIJQTGoLxVx1oYR9dBqzWmGE-0",
    "name": "Brother John's Beer Bourbon & BBQ",
    "street_address": "1801 North Stone Avenue",
    "city": "Tucson",
    "state": "AZ",
    "zip_code": "85705",
    "latitude": 32.2441371,
    "longitude": -110.9721656,
    "website": "https://brotherjohns.com/",
    "category": "Bar & Restaurant",
    "types": "bar, restaurant, food, point_of_interest, establishment"
  },
  {
    "place_id": "ChIJ_wirVK5x1oYRYoPb4fZvwhY",
    "name": "Trident Grill",
    "street_address": "2033 East Speedway Boulevard",
    "city": "Tucson",
    "state": "AZ",
    "zip_code": "85719",
    "latitude": 32.2363286,
    "longitude": -110.9417468,
    "website": "https://tridentgrill.com/",
    "category": "Bar & Restaurant",
    "types": "bar, restaurant, food, point_of_interest, establishment"
  },
  {
    "place_id": "ChIJmSDkhptx1oYRAl3HvAu8boY",
    "name": "Screwbean Brewing",
    "street_address": "103 North Park Avenue",
    "city": "Tucson",
    "state": "AZ",
    "zip_code": "85719",
    "latitude": 32.22271859999999,
    "longitude": -110.9565302,
    "website": "https://www.instagram.com/screwbeanbrewing/",
    "category": "Bar & Restaurant",
    "types": "bar, restaurant, food, point_of_interest, establishment"
  },
  {
    "place_id": "ChIJeUnp9L1x1oYRCBeqKBZgYfM",
    "name": "Culinary Dropout",
    "street_address": "2543 East Grant Road",
    "city": "Tucson",
    "state": "AZ",
    "zip_code": "85716",
    "latitude": 32.25076269999999,
    "longitude": -110.9341315,
    "website": "https://www.culinarydropout.com/locations/tucson-az/?utm_source=Google&utm_medium=Organic&utm_campaign=Maps",
    "category": "Bar & Restaurant",
    "types": "bar, store, restaurant, food, point_of_interest, establishment"
  },
  {
    "place_id": "ChIJCxKELNJz1oYRu9Qvsmfg5l0",
    "name": "Big Bad Wolf Bar & Grill",
    "street_address": "3700 North Oracle Road",
    "city": "Tucson",
    "state": "AZ",
    "zip_code": "85705",
    "latitude": 32.2739894,
    "longitude": -110.9775344,
    "website": "http://bigbadwolftucson.com/?utm_source=google&utm_medium=organic&utm_campaign=gbp",
    "category": "Bar & Restaurant",
    "types": "bar, restaurant, food, point_of_interest, establishment"
  },
  {
    "place_id": "ChIJZf83bQNw1oYR-7ibhjmedlk",
    "name": "The Neighborhood Bar OG",
    "street_address": "3940 East 29th Street",
    "city": "Tucson",
    "state": "AZ",
    "zip_code": "85711",
    "latitude": 32.1995431,
    "longitude": -110.9075142,
    "website": "https://theneighborhoodbar.com/",
    "category": "Bar & Restaurant",
    "types": "meal_takeaway, bar, restaurant, food, point_of_interest, establishment"
  },
  {
    "place_id": "ChIJ8cMuPSJw1oYR1unde6I3Cbk",
    "name": "The 1925 Bar & Grill",
    "street_address": "600 South Alvernon Way",
    "city": "Tucson",
    "state": "AZ",
    "zip_code": "85711",
    "latitude": 32.2138829,
    "longitude": -110.9108106,
    "website": "https://www.tucsoncitygolf.com/randolph-1925-bar-grill/",
    "category": "Bar & Restaurant",
    "types": "bar, restaurant, food, point_of_interest, establishment"
  },
  {
    "place_id": "ChIJ8-y2INdz1oYRx8dcKy5dufU",
    "name": "Midtown Tavern",
    "street_address": "3620 North 1st Avenue",
    "city": "Tucson",
    "state": "AZ",
    "zip_code": "85719",
    "latitude": 32.2723197,
    "longitude": -110.9602704,
    "website": "https://m.facebook.com/MidtownTavernTucson/",
    "category": "Bar & Restaurant",
    "types": "bar, restaurant, food, point_of_interest, establishment"
  },
  {
    "place_id": "ChIJI9s2EPRz1oYR_FlTIMeUxh8",
    "name": "The Outlaw Bar & Grill",
    "street_address": "1302 West Roger Road",
    "city": "Tucson",
    "state": "AZ",
    "zip_code": "85705",
    "latitude": 32.27961499999999,
    "longitude": -110.993197,
    "website": "https://www.facebook.com/theoutlawarizona/",
    "category": "Bar & Restaurant",
    "types": "night_club, bar, restaurant, food, point_of_interest, establishment"
  },
  {
    "place_id": "ChIJLwYdVhxx1oYRpk_o1SEHiKQ",
    "name": "Surly Wench Pub",
    "street_address": "424 North 4th Avenue",
    "city": "Tucson",
    "state": "AZ",
    "zip_code": "85705",
    "latitude": 32.2270928,
    "longitude": -110.965383,
    "website": "http://www.surlywenchpub.com/",
    "category": "Bar & Restaurant",
    "types": "bar, night_club, restaurant, food, point_of_interest, establishment"
  },
  {
    "place_id": "ChIJT_XSgeJw1oYR1zR9yNuI8_U",
    "name": "The Shanty",
    "street_address": "401 East 9th Street",
    "city": "Tucson",
    "state": "AZ",
    "zip_code": "85705",
    "latitude": 32.2240023,
    "longitude": -110.9653659,
    "website": "https://theshantyonfourth.wordpress.com/",
    "category": "Bar & Restaurant",
    "types": "bar, restaurant, food, point_of_interest, establishment"
  },
  {
    "place_id": "ChIJ-8zfl0Nx1oYRsc4HnGoXp5A",
    "name": "CORBETT'S",
    "street_address": "340 North 6th Avenue",
    "city": "Tucson",
    "state": "AZ",
    "zip_code": "85705",
    "latitude": 32.2261921,
    "longitude": -110.9674347,
    "website": "https://www.corbettstucson.com/",
    "category": "Restaurant",
    "types": "restaurant, food, point_of_interest, establishment"
  },
  {
    "place_id": "ChIJY8jACnZx1oYRIxdnOQUTwh8",
    "name": "Black Iris Cafe & Lounge",
    "street_address": "340 North 4th Avenue",
    "city": "Tucson",
    "state": "AZ",
    "zip_code": "85705",
    "latitude": 32.2260815,
    "longitude": -110.9651235,
    "website": "https://blackiriscafe.com/",
    "category": "Bar & Restaurant",
    "types": "restaurant, bar, food, point_of_interest, establishment"
  },
  {
    "place_id": "ChIJT1rdwDVx1oYRs-mg1XcrSrM",
    "name": "The Jackrabbit Lounge",
    "street_address": "2000 North Oracle Road",
    "city": "Tucson",
    "state": "AZ",
    "zip_code": "85705",
    "latitude": 32.2462502,
    "longitude": -110.9778005,
    "website": "https://thejackrabbitlounge.com/",
    "category": "Bar & Restaurant",
    "types": "bar, restaurant, food, point_of_interest, establishment"
  },
  {
    "place_id": "ChIJP8PbnR1x1oYR0G7bZMB7ZNI",
    "name": "O\u2019Malley\u2019s Bar & Grill",
    "street_address": "247 North 4th Avenue",
    "city": "Tucson",
    "state": "AZ",
    "zip_code": "85705",
    "latitude": 32.2248669,
    "longitude": -110.9658776,
    "website": null,
    "category": "Bar & Restaurant",
    "types": "bar, restaurant, food, point_of_interest, establishment"
  },
  {
    "place_id": "ChIJPxEJIeJw1oYRQNaEKFXebOc",
    "name": "Iguana Cafe & Bar",
    "street_address": "210 East Congress Street",
    "city": "Tucson",
    "state": "AZ",
    "zip_code": "85701",
    "latitude": 32.2219248,
    "longitude": -110.9683061,
    "website": "https://sites.google.com/view/iguanacafe/home",
    "category": "Bar & Restaurant",
    "types": "restaurant, bar, food, point_of_interest, establishment"
  },
  {
    "place_id": "ChIJa5y1h_pw1oYR-MDvVrt_ER4",
    "name": "Barrio Brewing Co",
    "street_address": "800 East 16th Street",
    "city": "Tucson",
    "state": "AZ",
    "zip_code": "85719",
    "latitude": 32.2145,
    "longitude": -110.9595,
    "website": "https://barriobrewing.com/",
    "category": "Bar & Restaurant",
    "types": "bar, restaurant, food, point_of_interest, establishment"
  },
  {
    "place_id": "ChIJ6-kMFjFy1oYR2z4U4qP-274",
    "name": "Union Public House",
    "street_address": "4340 North Campbell Avenue",
    "city": "Tucson",
    "state": "AZ",
    "zip_code": "85718",
    "latitude": 32.2859989,
    "longitude": -110.9427524,
    "website": "https://www.uniontucson.com/",
    "category": "Restaurant",
    "types": "restaurant, food, point_of_interest, establishment"
  },
  {
    "place_id": "ChIJp7sSqBtx1oYR2OS5K-JTgS4",
    "name": "Cafe Maggie",
    "street_address": "745 North 4th Avenue",
    "city": "Tucson",
    "state": "AZ",
    "zip_code": "85705",
    "latitude": 32.2315312,
    "longitude": -110.9657701,
    "website": "https://cafemaggieon4th.com/",
    "category": "Restaurant",
    "types": "cafe, bakery, store, restaurant, food, point_of_interest, establishment"
  },
  {
    "place_id": "ChIJwTuRgnxx1oYRBXga_aPOSmY",
    "name": "Berry Greens Juice Bar",
    "street_address": "245 East Congress Street",
    "city": "Tucson",
    "state": "AZ",
    "zip_code": "85701",
    "latitude": 32.22216799999999,
    "longitude": -110.9674321,
    "website": "https://www.berrygreens.com/",
    "category": "Restaurant",
    "types": "cafe, restaurant, food, store, point_of_interest, establishment"
  },
  {
    "place_id": "ChIJy8iwVpNx1oYRyZcrq3i62Rw",
    "name": "Aqua Vita Natural Food Market",
    "street_address": "2801 North Country Club Road",
    "city": "Tucson",
    "state": "AZ",
    "zip_code": "85716",
    "latitude": 32.2578821,
    "longitude": -110.9271142,
    "website": null,
    "category": "Restaurant",
    "types": "supermarket, grocery_or_supermarket, health, store, restaurant, food, point_of_interest, establishment"
  },
  {
    "place_id": "ChIJxRIy9Ndx1oYRxI5GdRYukAQ",
    "name": "Postino Grant",
    "street_address": "2500 East Grant Road",
    "city": "Tucson",
    "state": "AZ",
    "zip_code": "85716",
    "latitude": 32.2496657,
    "longitude": -110.9349082,
    "website": "https://www.postinowinecafe.com/locations/postino-grant",
    "category": "Bar & Restaurant",
    "types": "restaurant, bar, food, point_of_interest, establishment"
  },
  {
    "place_id": "ChIJLZFW8-Fw1oYRl1eEEroCcSk",
    "name": "Empire Pizza & Pub",
    "street_address": "137 East Congress Street",
    "city": "Tucson",
    "state": "AZ",
    "zip_code": "85701",
    "latitude": 32.222127,
    "longitude": -110.968896,
    "website": "http://www.empire.pizza/",
    "category": "Bar & Restaurant",
    "types": "bar, restaurant, food, point_of_interest, establishment"
  },
  {
    "place_id": "ChIJUQ3732tx1oYRQphkipz-R_c",
    "name": "Borderlands Brewing Sam Hughes",
    "street_address": "2500 East 6th Street",
    "city": "Tucson",
    "state": "AZ",
    "zip_code": "85716",
    "latitude": 32.2275777,
    "longitude": -110.9351327,
    "website": "http://borderlandsbrewing.com/",
    "category": "Restaurant",
    "types": "restaurant, food, point_of_interest, establishment"
  },
  {
    "place_id": "ChIJ4yVPJ5lx1oYRU8jQ-saOArg",
    "name": "Casa Asada Taqueria y Cervecer\u00eda",
    "street_address": "2502 North Campbell Avenue",
    "city": "Tucson",
    "state": "AZ",
    "zip_code": "85701",
    "latitude": 32.2521954,
    "longitude": -110.9436083,
    "website": "https://asadataqueria.com/?utm_source=google&utm_medium=organic&utm_campaign=gbp",
    "category": "Bar & Restaurant",
    "types": "bar, restaurant, food, point_of_interest, establishment"
  },
  {
    "place_id": "ChIJw54I4Gtz1oYReBl15gZLyz0",
    "name": "Proof Artisanal Pizza & Pasta",
    "street_address": "4340 North Campbell Avenue",
    "city": "Tucson",
    "state": "AZ",
    "zip_code": "85718",
    "latitude": 32.2862347,
    "longitude": -110.942452,
    "website": "https://www.prooftucson.com/",
    "category": "Restaurant",
    "types": "restaurant, food, point_of_interest, establishment"
  },
  {
    "place_id": "ChIJNaT6yc1v1oYR83pTs8PXD7k",
    "name": "Tribute Bar & Grill",
    "street_address": "4746 East Grant Road",
    "city": "Tucson",
    "state": "AZ",
    "zip_code": "85712",
    "latitude": 32.2494125,
    "longitude": -110.8912057,
    "website": "https://www.tributebargrill.com/",
    "category": "Bar & Restaurant",
    "types": "bar, restaurant, food, point_of_interest, establishment"
  },
  {
    "place_id": "ChIJsya3mAdv1oYRXnDDnjC3bkI",
    "name": "The Dugout Sports Bar & Grill",
    "street_address": "4880 East 22nd Street",
    "city": "Tucson",
    "state": "AZ",
    "zip_code": "85711",
    "latitude": 32.2063666,
    "longitude": -110.8878152,
    "website": "https://thedugoutbar-and-grill.com/",
    "category": "Bar & Restaurant",
    "types": "bar, restaurant, food, point_of_interest, establishment"
  },
  {
    "place_id": "ChIJO26afTdz1oYRfZabJeZ17JA",
    "name": "Redbird Scratch Kitchen + Bar",
    "street_address": "6444 North Oracle Road",
    "city": "Tucson",
    "state": "AZ",
    "zip_code": "85704",
    "latitude": 32.3231188,
    "longitude": -110.973177,
    "website": "https://www.redbirdrestaurants.com/",
    "category": "Bar & Restaurant",
    "types": "restaurant, bar, food, point_of_interest, establishment"
  },
  {
    "place_id": "ChIJ3UbX5W9y1oYRGk0YznUP_To",
    "name": "Terraza Garden Patio & Lounge",
    "street_address": "5501 North Hacienda Del Sol Road",
    "city": "Tucson",
    "state": "AZ",
    "zip_code": "85718",
    "latitude": 32.3081308,
    "longitude": -110.9144011,
    "website": "http://www.haciendadelsol.com/dining",
    "category": "Bar & Restaurant",
    "types": "restaurant, night_club, bar, food, point_of_interest, establishment"
  },
  {
    "place_id": "ChIJB1SyZPNy1oYRbX1JCfsT9sQ",
    "name": "Firebirds Wood Fired Grill",
    "street_address": "2985 East Skyline Drive",
    "city": "Tucson",
    "state": "AZ",
    "zip_code": "85718",
    "latitude": 32.3253828,
    "longitude": -110.9283496,
    "website": "https://firebirdsrestaurants.com/tucson",
    "category": "Restaurant",
    "types": "restaurant, food, point_of_interest, establishment"
  },
  {
    "place_id": "ChIJif_mso9t1oYRWQ44Xj_T2hs",
    "name": "Fini's Landing",
    "street_address": "5689 North Swan Road",
    "city": "Tucson",
    "state": "AZ",
    "zip_code": "85718",
    "latitude": 32.3102112,
    "longitude": -110.8931744,
    "website": "http://finislanding.com/",
    "category": "Restaurant",
    "types": "restaurant, food, point_of_interest, establishment"
  },
  {
    "place_id": "ChIJMyvDlnFx1oYRqFtHTwRJEVA",
    "name": "Wild Garlic Grill",
    "street_address": "2870 East Skyline Drive",
    "city": "Tucson",
    "state": "AZ",
    "zip_code": "85718",
    "latitude": 32.3215483,
    "longitude": -110.9306321,
    "website": "http://www.wildgarlicgrill.com/",
    "category": "Bar & Restaurant",
    "types": "bar, restaurant, food, point_of_interest, establishment"
  },
  {
    "place_id": "ChIJKUsxXn4M1oYRogB_Fnpv5Ig",
    "name": "Noble Hops",
    "street_address": "1335 West Lambert Lane",
    "city": "Oro Valley",
    "state": "AZ",
    "zip_code": "85737",
    "latitude": 32.3948282,
    "longitude": -110.9939185,
    "website": "http://noblehops.com/",
    "category": "Bar & Restaurant",
    "types": "bar, restaurant, food, point_of_interest, establishment"
  },
  {
    "place_id": "ChIJsQIZGogL1oYR4dNPegvnnQ4",
    "name": "The Overlook",
    "street_address": "10555 North La Ca\u00f1ada Drive",
    "city": "Tucson",
    "state": "AZ",
    "zip_code": "85737",
    "latitude": 32.40334259999999,
    "longitude": -110.9988968,
    "website": "https://www.elcongolf.com/overlook-restaurant",
    "category": "Bar & Restaurant",
    "types": "bar, restaurant, food, point_of_interest, establishment"
  },
  {
    "place_id": "ChIJ23cdtcoM1oYR9inI5PMMLG0",
    "name": "Famous Sam's Sports Grill #17",
    "street_address": "8058 North Oracle Road",
    "city": "Tucson",
    "state": "AZ",
    "zip_code": "85704",
    "latitude": 32.352626,
    "longitude": -110.973266,
    "website": "http://famoussamsarizona.com/",
    "category": "Bar & Restaurant",
    "types": "bar, restaurant, food, point_of_interest, establishment"
  },
  {
    "place_id": "ChIJofGo7jQN1oYRMkHvWqvGnpU",
    "name": "Fork & Fire Smokehouse + Taproom",
    "street_address": "11835 North Oracle Road",
    "city": "Oro Valley",
    "state": "AZ",
    "zip_code": "85737",
    "latitude": 32.42093880000001,
    "longitude": -110.938599,
    "website": "https://www.forknfire.com/?utm_source=google&utm_medium=organic&utm_campaign=gbp",
    "category": "Bar & Restaurant",
    "types": "restaurant, bar, food, point_of_interest, establishment"
  },
  {
    "place_id": "ChIJGU1UP0pz1oYR2SNxDPJLtM4",
    "name": "El Charro Caf\u00e9 Oro Valley",
    "street_address": "7725 North Oracle Road",
    "city": "Tucson",
    "state": "AZ",
    "zip_code": "85704",
    "latitude": 32.347927,
    "longitude": -110.9763921,
    "website": "http://www.elcharrocafe.com/",
    "category": "Bar & Restaurant",
    "types": "bar, restaurant, food, point_of_interest, establishment"
  },
  {
    "place_id": "ChIJMS7aZ6wN1oYRJcCoHXFKSIw",
    "name": "Chili's Grill & Bar",
    "street_address": "11065 North Oracle Road",
    "city": "Oro Valley",
    "state": "AZ",
    "zip_code": "85737",
    "latitude": 32.407046,
    "longitude": -110.946838,
    "website": "https://www.chilis.com/locations/us/arizona/oro-valley/oro-valley?utm_source=google&utm_medium=local&utm_campaign=Chilis",
    "category": "Bar & Restaurant",
    "types": "restaurant, bar, food, point_of_interest, establishment"
  },
  {
    "place_id": "ChIJTyogiElz1oYRmp3zol8DFgw",
    "name": "Carrabba's Italian Grill",
    "street_address": "7635 North Oracle Road",
    "city": "Oro Valley",
    "state": "AZ",
    "zip_code": "85737",
    "latitude": 32.3465774,
    "longitude": -110.976603,
    "website": "https://locations.carrabbas.com/arizona/oro-valley/7635-n-oracle-road?y_source=1_MTU1MDI5NjgtNzE1LWxvY2F0aW9uLndlYnNpdGU%3D",
    "category": "Bar & Restaurant",
    "types": "meal_takeaway, bar, restaurant, food, point_of_interest, establishment"
  },
  {
    "place_id": "ChIJ4Y-En38M1oYRuFxaHktaPGA",
    "name": "Harvest Restaurant",
    "street_address": "10355 North La Ca\u00f1ada Drive",
    "city": "Oro Valley",
    "state": "AZ",
    "zip_code": "85737",
    "latitude": 32.394269,
    "longitude": -110.996878,
    "website": "http://www.harvestov.com/",
    "category": "Bar & Restaurant",
    "types": "bar, restaurant, food, point_of_interest, establishment"
  },
  {
    "place_id": "ChIJTzeGnyeH1oYRTYvPKlD1H_Q",
    "name": "Pub 1922",
    "street_address": "15920 South Rancho Sahuarita Boulevard",
    "city": "Sahuarita",
    "state": "AZ",
    "zip_code": "85629",
    "latitude": 31.9613098,
    "longitude": -110.9839036,
    "website": "https://www.pub1922.com/",
    "category": "Bar & Restaurant",
    "types": "bar, restaurant, point_of_interest, food, establishment"
  },
  {
    "place_id": "ChIJ-_ehoR6E1oYRRVBf3zPWFUY",
    "name": "Longhorn Outpost & Barbeque Company",
    "street_address": "720 West Calle Arroyo Sur",
    "city": "Green Valley",
    "state": "AZ",
    "zip_code": "85614",
    "latitude": 31.9131204,
    "longitude": -110.9801129,
    "website": "https://longhornoutpostandbarbequecompany.com/?utm_source=google",
    "category": "Restaurant",
    "types": "restaurant, food, point_of_interest, establishment"
  },
  {
    "place_id": "ChIJ0cN-aKuK1oYRe8RkjZJcjIc",
    "name": "Montgomery's Grill & Saloon",
    "street_address": "13190 East Colossal Cave Road",
    "city": "Vail",
    "state": "AZ",
    "zip_code": "85641",
    "latitude": 32.04497849999999,
    "longitude": -110.7127908,
    "website": "http://www.montgomerysvail.com/",
    "category": "Bar & Restaurant",
    "types": "bar, restaurant, food, point_of_interest, establishment"
  },
  {
    "place_id": "ChIJry3INPVj1oYRSz5qdRFqoek",
    "name": "Fat Willy's Kolb Rd & I-10",
    "street_address": "8701 South Kolb Road",
    "city": "Tucson",
    "state": "AZ",
    "zip_code": "85756",
    "latitude": 32.0935974,
    "longitude": -110.8373641,
    "website": "https://www.fatwillysaz.com/",
    "category": "Bar & Restaurant",
    "types": "bar, restaurant, food, point_of_interest, establishment"
  },
  {
    "place_id": "ChIJF1l_-Dlh1oYRGrUgQAHDE1k",
    "name": "Serial Grillers",
    "street_address": "7585 South Houghton Road",
    "city": "Tucson",
    "state": "AZ",
    "zip_code": "85747",
    "latitude": 32.1142234,
    "longitude": -110.7717361,
    "website": "https://www.serialgrillersaz.com/houghtonordering",
    "category": "Restaurant",
    "types": "restaurant, food, point_of_interest, establishment"
  },
  {
    "place_id": "ChIJAXv4zQhh1oYRW4wOSvf0Frc",
    "name": "Native Grill & Wings",
    "street_address": "10255 East Old Vail Road",
    "city": "Tucson",
    "state": "AZ",
    "zip_code": "85747",
    "latitude": 32.08857700000001,
    "longitude": -110.773576,
    "website": "https://locations.nativegrillandwings.com/ll/US/AZ/Tucson/10255-E-Old-Vail-Road",
    "category": "Bar & Restaurant",
    "types": "bar, restaurant, food, point_of_interest, establishment"
  },
  {
    "place_id": "ChIJt5XHDiJh1oYR0raWC4PoVyQ",
    "name": "Wings on Fire",
    "street_address": "9040 East Valencia Road",
    "city": "Tucson",
    "state": "AZ",
    "zip_code": "85747",
    "latitude": 32.1186836,
    "longitude": -110.7992376,
    "website": null,
    "category": "Restaurant",
    "types": "restaurant, food, point_of_interest, establishment"
  },
  {
    "place_id": "ChIJbwSuOLJv1oYR5NWQZI11VFo",
    "name": "The Frozen Cactus sports bar and restauraunt",
    "street_address": "5769 East Speedway Boulevard",
    "city": "Tucson",
    "state": "AZ",
    "zip_code": "85712",
    "latitude": 32.236427,
    "longitude": -110.8691784,
    "website": "https://thefrozencactus.com/",
    "category": "Bar & Restaurant",
    "types": "bar, restaurant, food, point_of_interest, establishment"
  },
  {
    "place_id": "ChIJs6Eu8Ihv1oYRXiy-Pvo08ho",
    "name": "UnCork'd Kitchen & Cocktails",
    "street_address": "6300 East Tanque Verde Road",
    "city": "Tucson",
    "state": "AZ",
    "zip_code": "85715",
    "latitude": 32.2421557,
    "longitude": -110.8574253,
    "website": "https://www.uncorkedbar.com/",
    "category": "Bar & Restaurant",
    "types": "bar, restaurant, food, point_of_interest, establishment"
  },
  {
    "place_id": "ChIJm3aCLKJv1oYRmNtCGUS7Zsc",
    "name": "Salty Dawg II",
    "street_address": "6121 East Broadway Boulevard",
    "city": "Tucson",
    "state": "AZ",
    "zip_code": "85711",
    "latitude": 32.222652,
    "longitude": -110.862018,
    "website": "http://www.saltydawg2.com/",
    "category": "Bar & Restaurant",
    "types": "bar, restaurant, food, point_of_interest, establishment"
  },
  {
    "place_id": "ChIJP425o6Jv1oYR16-3d9MY5pU",
    "name": "Yard House",
    "street_address": "5870 East Broadway Boulevard",
    "city": "Tucson",
    "state": "AZ",
    "zip_code": "85711",
    "latitude": 32.220494,
    "longitude": -110.865218,
    "website": "https://www.yardhouse.com/locations/az/tucson/tucson-park-place-mall/8356?cmpid=br:yh_ag:ie_ch:loc_ca:YHGMB_sn:gmb_gt:tucson-az-8356_pl:locurl_rd:1053",
    "category": "Bar & Restaurant",
    "types": "meal_takeaway, bar, restaurant, food, point_of_interest, establishment"
  },
  {
    "place_id": "ChIJ-w1SSu5v1oYRZ5FKj7SCWUk",
    "name": "Home Plate Sports Pub",
    "street_address": "4880 East 22nd Street",
    "city": "Tucson",
    "state": "AZ",
    "zip_code": "85711",
    "latitude": 32.2063779,
    "longitude": -110.887828,
    "website": "http://www.homeplatemarana.com/",
    "category": "Bar & Restaurant",
    "types": "bar, restaurant, food, point_of_interest, establishment"
  },
  {
    "place_id": "ChIJtfJYtKpv1oYR7X62_F-novs",
    "name": "The Cork Tucson",
    "street_address": "6320 East Tanque Verde Road",
    "city": "Tucson",
    "state": "AZ",
    "zip_code": "85715",
    "latitude": 32.24257289999999,
    "longitude": -110.8566426,
    "website": "https://corktucson.com/",
    "category": "Restaurant",
    "types": "restaurant, food, point_of_interest, establishment"
  },
  {
    "place_id": "ChIJAetGAcVv1oYRBFLA6qzfGWU",
    "name": "On The Rocks (OTR)",
    "street_address": "7930 East Speedway Boulevard",
    "city": "Tucson",
    "state": "AZ",
    "zip_code": "85710",
    "latitude": 32.2343781,
    "longitude": -110.8229277,
    "website": "http://ontherockstucsonaz.com/",
    "category": "Bar & Restaurant",
    "types": "restaurant, bar, food, point_of_interest, establishment"
  },
  {
    "place_id": "ChIJabsSx39p1oYR2Jlzt33BAiE",
    "name": "Your Mom's House, Bar & Grill",
    "street_address": "112 South Camino Seco",
    "city": "Tucson",
    "state": "AZ",
    "zip_code": "85710",
    "latitude": 32.2191285,
    "longitude": -110.8073327,
    "website": "http://www.ymhtucson.com/",
    "category": "Bar & Restaurant",
    "types": "bar, restaurant, food, point_of_interest, establishment"
  },
  {
    "place_id": "ChIJmwxzmBNm1oYRD3BEBLbCt5M",
    "name": "Mulligans",
    "street_address": "9403 East Golf Links Road",
    "city": "Tucson",
    "state": "AZ",
    "zip_code": "85730",
    "latitude": 32.1922098,
    "longitude": -110.7912797,
    "website": "https://www.mulliganstucson.com/",
    "category": "Bar & Restaurant",
    "types": "bar, restaurant, food, point_of_interest, establishment"
  },
  {
    "place_id": "ChIJvZvqGdlu1oYRS5llNUhr7pY",
    "name": "Thirsty's Neighborhood Grill",
    "street_address": "2422 North Pantano Road",
    "city": "Tucson",
    "state": "AZ",
    "zip_code": "85715",
    "latitude": 32.2513047,
    "longitude": -110.8227422,
    "website": "https://m.facebook.com/thirstysgrillandbar/",
    "category": "Bar & Restaurant",
    "types": "bar, restaurant, food, point_of_interest, establishment"
  },
  {
    "place_id": "ChIJa_AEY5to1oYRTDtMWPw4wE4",
    "name": "Hops Sports Grill",
    "street_address": "120 South Houghton Road",
    "city": "Tucson",
    "state": "AZ",
    "zip_code": "85748",
    "latitude": 32.2191667,
    "longitude": -110.7738889,
    "website": "http://hopssportsgrill.com/",
    "category": "Bar & Restaurant",
    "types": "bar, restaurant, point_of_interest, food, establishment"
  },
  {
    "place_id": "ChIJ9ZuX_zho1oYRXFG7dhoR4us",
    "name": "Forty Niner - Rincon Mountain Grill",
    "street_address": "12000 East Tanque Verde Road",
    "city": "Tucson",
    "state": "AZ",
    "zip_code": "85749",
    "latitude": 32.250164,
    "longitude": -110.7350082,
    "website": "http://www.fortyninercc.com/",
    "category": "Restaurant",
    "types": "restaurant, food, point_of_interest, establishment"
  },
  {
    "place_id": "ChIJz551RT9p1oYRJrWuMCXvFK0",
    "name": "The Barnyard Crafthouse & Eatery",
    "street_address": "11011 East Tanque Verde Road",
    "city": "Tucson",
    "state": "AZ",
    "zip_code": "85749",
    "latitude": 32.2514801,
    "longitude": -110.756546,
    "website": "https://barnyardaz.com/",
    "category": "Restaurant",
    "types": "restaurant, food, point_of_interest, establishment"
  },
  {
    "place_id": "ChIJ_z-_RaBn1oYRfA1kyi4lT8M",
    "name": "Saguaro Corners Restaurant & Bar",
    "street_address": "3750 South Old Spanish Trail",
    "city": "Tucson",
    "state": "AZ",
    "zip_code": "85730",
    "latitude": 32.1777123,
    "longitude": -110.7385934,
    "website": "http://www.saguarocorners.com/",
    "category": "Bar & Restaurant",
    "types": "bar, restaurant, food, point_of_interest, establishment"
  },
  {
    "place_id": "ChIJbbJ6Mo5l1oYRg3BYcKkYheE",
    "name": "Famous Sam's on Golf Links",
    "street_address": "7129 East Golf Links Road",
    "city": "Tucson",
    "state": "AZ",
    "zip_code": "85730",
    "latitude": 32.1933479,
    "longitude": -110.8388442,
    "website": "https://www.famoussamstucson.com/",
    "category": "Bar & Restaurant",
    "types": "bar, restaurant, food, point_of_interest, establishment"
  },
  {
    "place_id": "ChIJYbia4bJo1oYRuC1k-MFKK1Q",
    "name": "Jethro's Cafe and Tavern",
    "street_address": "8735 East Broadway Boulevard",
    "city": "Tucson",
    "state": "AZ",
    "zip_code": "85710",
    "latitude": 32.2215138,
    "longitude": -110.80581,
    "website": null,
    "category": "Bar & Restaurant",
    "types": "cafe, bar, restaurant, point_of_interest, food, establishment"
  },
  {
    "place_id": "ChIJu6O6Oitp1oYR-p9dC0RuACY",
    "name": "The Gardens at Bear Canyon",
    "street_address": "8991 East Tanque Verde Road",
    "city": "Tucson",
    "state": "AZ",
    "zip_code": "85749",
    "latitude": 32.2598881,
    "longitude": -110.79925,
    "website": "https://the-gardens-bar-and-grill.mypagecloud.com/",
    "category": "Restaurant",
    "types": "restaurant, food, point_of_interest, establishment"
  },
  {
    "place_id": "ChIJe7ytPUFv1oYRSg751ffhLu0",
    "name": "The Horseshoe Grill",
    "street_address": "7713 East Broadway Boulevard",
    "city": "Tucson",
    "state": "AZ",
    "zip_code": "85710",
    "latitude": 32.222569,
    "longitude": -110.8269102,
    "website": "https://www.thehorseshoetucson.com/",
    "category": "Bar & Restaurant",
    "types": "bar, restaurant, food, point_of_interest, establishment"
  },
  {
    "place_id": "ChIJ3YpqieNu1oYRWv1QJ3KscZY",
    "name": "Gusto Osteria",
    "street_address": "7153 East Tanque Verde Road",
    "city": "Tucson",
    "state": "AZ",
    "zip_code": "85715",
    "latitude": 32.25249179999999,
    "longitude": -110.8395074,
    "website": "http://gustotucson.com/",
    "category": "Restaurant",
    "types": "restaurant, food, point_of_interest, establishment"
  },
  {
    "place_id": "ChIJTzjFq9171oYROymuGIUu6LQ",
    "name": "Ojos Locos Sports Cantina - Tucson",
    "street_address": "4745 South Landing Way",
    "city": "Tucson",
    "state": "AZ",
    "zip_code": "85714",
    "latitude": 32.16485969999999,
    "longitude": -110.9866943,
    "website": "http://www.ojoslocos.com/",
    "category": "Bar & Restaurant",
    "types": "bar, restaurant, food, point_of_interest, establishment"
  }
]