[
  {
    "place_id": "ChIJkQwnSpjpuokRG4zMFVOgzr4",
    "name": "The Shack",
    "street_address": "712 Atlantic Avenue",
    "city": "Virginia Beach",
    "state": "VA",
    "zip_code": "23451",
    "latitude": 36.8364599,
    "longitude": -75.972124,
    "website": "http://www.theshackvb.com/",
    "category": "Bar & Restaurant",
    "types": "bar, restaurant, food, point_of_interest, establishment"
  },
  {
    "place_id": "ChIJLXX27pfpuokRC9mtIk9_yWc",
    "name": "Waterman's Surfside Grille",
    "street_address": "415 Atlantic Avenue",
    "city": "Virginia Beach",
    "state": "VA",
    "zip_code": "23451",
    "latitude": 36.8336716,
    "longitude": -75.97059270000001,
    "website": "http://www.watermans.com/",
    "category": "Bar & Restaurant",
    "types": "bar, restaurant, food, point_of_interest, establishment"
  },
  {
    "place_id": "ChIJlRHCrW_puokR5IVKQHK66FU",
    "name": "Murphy\u2019s Irish Pub",
    "street_address": "2914 Pacific Avenue",
    "city": "Virginia Beach",
    "state": "VA",
    "zip_code": "23451",
    "latitude": 36.85779360000001,
    "longitude": -75.9791912,
    "website": "https://murphyspubvb.com/?utm_source=google&utm_medium=organic&utm_campaign=gbp_vabeach",
    "category": "Bar & Restaurant",
    "types": "bar, restaurant, food, point_of_interest, establishment"
  },
  {
    "place_id": "ChIJB5C_PX3puokRXEmnfYEABeI",
    "name": "Beach Pub",
    "street_address": "1001 Laskin Road",
    "city": "Virginia Beach",
    "state": "VA",
    "zip_code": "23451",
    "latitude": 36.85671800000001,
    "longitude": -75.9908021,
    "website": "http://www.beachpubvb.com/",
    "category": "Bar & Restaurant",
    "types": "bar, restaurant, food, point_of_interest, establishment"
  },
  {
    "place_id": "ChIJy_wr6nbpuokRMVb4VEdeFFc",
    "name": "Repeal Bourbon & Burgers",
    "street_address": "202 22nd Street",
    "city": "Virginia Beach",
    "state": "VA",
    "zip_code": "23451",
    "latitude": 36.8500065,
    "longitude": -75.97590149999999,
    "website": "http://www.repealvb.com/",
    "category": "Bar & Restaurant",
    "types": "bar, restaurant, food, point_of_interest, establishment"
  },
  {
    "place_id": "ChIJ0TcgpXbpuokRJ_sP1mp8Ffc",
    "name": "Abbey Road Pub & Restaurant & Lucy's Sky Bar",
    "street_address": "203 22nd Street",
    "city": "Virginia Beach",
    "state": "VA",
    "zip_code": "23451",
    "latitude": 36.8504028,
    "longitude": -75.9760306,
    "website": "http://www.abbeyroadpub.com/",
    "category": "Restaurant",
    "types": "restaurant, food, point_of_interest, establishment"
  },
  {
    "place_id": "ChIJmQZH3UXpuokRlW0bHTyw58Q",
    "name": "The Bunker Brewpub",
    "street_address": "211 21st Street",
    "city": "Virginia Beach",
    "state": "VA",
    "zip_code": "23451",
    "latitude": 36.8492106,
    "longitude": -75.97631729999999,
    "website": "https://bunkerbrewpub.com/",
    "category": "Bar & Restaurant",
    "types": "bar, restaurant, food, point_of_interest, establishment"
  },
  {
    "place_id": "ChIJdeOVZ8vpuokRtPHtRkdQiGQ",
    "name": "Arbuckle\u2019s Bar & Grill",
    "street_address": "4101 Atlantic Avenue",
    "city": "Virginia Beach",
    "state": "VA",
    "zip_code": "23451",
    "latitude": 36.8692441,
    "longitude": -75.98101129999999,
    "website": "http://arbucklesvb.com/",
    "category": "Restaurant",
    "types": "restaurant, food, point_of_interest, establishment"
  },
  {
    "place_id": "ChIJSakpbJHpuokRtKwlRhmFg3M",
    "name": "Rudee's Restaurant and Cabana Bar",
    "street_address": "227 Mediterranean Avenue",
    "city": "Virginia Beach",
    "state": "VA",
    "zip_code": "23451",
    "latitude": 36.83108399999999,
    "longitude": -75.977238,
    "website": "https://www.rudees.com/",
    "category": "Bar & Restaurant",
    "types": "bar, restaurant, food, point_of_interest, establishment"
  },
  {
    "place_id": "ChIJiYUIDWXpuokRJmCZu2JBopc",
    "name": "Tempt Restaurant & Lounge",
    "street_address": "3102 Holly Road",
    "city": "Virginia Beach",
    "state": "VA",
    "zip_code": "23451",
    "latitude": 36.8591552,
    "longitude": -75.9823677,
    "website": "http://temptvb.com/",
    "category": "Bar & Restaurant",
    "types": "bar, restaurant, point_of_interest, food, establishment"
  },
  {
    "place_id": "ChIJy29kY1HpuokRS1Qs6pPoaJs",
    "name": "Surf Club Ocean Grille",
    "street_address": "5700 Atlantic Avenue",
    "city": "Virginia Beach",
    "state": "VA",
    "zip_code": "23451",
    "latitude": 36.8835199,
    "longitude": -75.9848177,
    "website": "http://www.surfclubvabeach.com/",
    "category": "Bar & Restaurant",
    "types": "bar, restaurant, food, point_of_interest, establishment"
  },
  {
    "place_id": "ChIJYYWyJHTpuokRXFKDXXkvd84",
    "name": "Hemingway's Restaurant & Bar Pilar",
    "street_address": "2101 Atlantic Avenue",
    "city": "Virginia Beach",
    "state": "VA",
    "zip_code": "23451",
    "latitude": 36.8492899,
    "longitude": -75.9749588,
    "website": "http://www.vboceanside.com/dining/hemingways-menu/",
    "category": "Bar & Restaurant",
    "types": "bar, restaurant, food, point_of_interest, establishment"
  },
  {
    "place_id": "ChIJqUzZMWPpuokRtdsPmPpCz7M",
    "name": "Barrel 17",
    "street_address": "1706 Mediterranean Avenue",
    "city": "Virginia Beach",
    "state": "VA",
    "zip_code": "23451",
    "latitude": 36.8446972,
    "longitude": -75.9815399,
    "website": "http://barrel17.com/",
    "category": "Restaurant",
    "types": "restaurant, food, point_of_interest, establishment"
  },
  {
    "place_id": "ChIJUaJ8wnHpuokRrhJnR3t3eYs",
    "name": "Ocean 27",
    "street_address": "2705 Atlantic Avenue",
    "city": "Virginia Beach",
    "state": "VA",
    "zip_code": "23451",
    "latitude": 36.8557113,
    "longitude": -75.9769627,
    "website": "http://www.ocean27vb.com/",
    "category": "Bar & Restaurant",
    "types": "park, bar, restaurant, food, point_of_interest, establishment"
  },
  {
    "place_id": "ChIJgUnrEGjpuokRjlHCc5gYkq0",
    "name": "The Square Whale",
    "street_address": "3900 Atlantic Avenue",
    "city": "Virginia Beach",
    "state": "VA",
    "zip_code": "23451",
    "latitude": 36.8673374,
    "longitude": -75.9799831,
    "website": "https://www.ihg.com/holidayinn/hotels/us/en/virginia-beach/orfob/hoteldetail/dining",
    "category": "Bar & Restaurant",
    "types": "bar, restaurant, food, point_of_interest, establishment"
  },
  {
    "place_id": "ChIJf7LuBHjpuokRawrVu2l1bGI",
    "name": "Duck Dive Tavern",
    "street_address": "404 Laskin Road",
    "city": "Virginia Beach",
    "state": "VA",
    "zip_code": "23451",
    "latitude": 36.858971,
    "longitude": -75.9814738,
    "website": null,
    "category": "Bar & Restaurant",
    "types": "restaurant, night_club, bar, food, point_of_interest, establishment"
  },
  {
    "place_id": "ChIJE2ro3VzpuokR0X-voEcRWKM",
    "name": "Hunt Room",
    "street_address": "4200 Atlantic Avenue",
    "city": "Virginia Beach",
    "state": "VA",
    "zip_code": "23451",
    "latitude": 36.8691719,
    "longitude": -75.98351799999999,
    "website": "http://www.huntroomvb.com/",
    "category": "Bar & Restaurant",
    "types": "bar, restaurant, food, point_of_interest, establishment"
  },
  {
    "place_id": "ChIJHwvfEt_puokRHXcDb3EOHdQ",
    "name": "Cabanas Seaside Bar & Grill",
    "street_address": "Oceanfront Bike Path",
    "city": "Virginia Beach",
    "state": "VA",
    "zip_code": "23451",
    "latitude": 36.8638299,
    "longitude": -75.9788925,
    "website": null,
    "category": "Bar & Restaurant",
    "types": "bar, restaurant, food, point_of_interest, establishment"
  },
  {
    "place_id": "ChIJray0gnbpuokR-F3l06MK3aQ",
    "name": "Seaside Raw Bar",
    "street_address": "2016 Atlantic Avenue",
    "city": "Virginia Beach",
    "state": "VA",
    "zip_code": "23451",
    "latitude": 36.8486842,
    "longitude": -75.9753491,
    "website": "https://seasiderawbar.com/",
    "category": "Bar & Restaurant",
    "types": "bar, restaurant, food, point_of_interest, establishment"
  },
  {
    "place_id": "ChIJOVUnMcDpuokRuocF3-6TQH0",
    "name": "Chix on the Beach",
    "street_address": "701 Atlantic Avenue",
    "city": "Virginia Beach",
    "state": "VA",
    "zip_code": "23451",
    "latitude": 36.835977,
    "longitude": -75.97118999999999,
    "website": "http://www.chixvb.com/",
    "category": "Bar & Restaurant",
    "types": "bar, restaurant, food, point_of_interest, establishment"
  },
  {
    "place_id": "ChIJ99GvK5npuokRPhumSbvVOAg",
    "name": "Calypso Bar & Grill",
    "street_address": "1101 Atlantic Avenue",
    "city": "Virginia Beach",
    "state": "VA",
    "zip_code": "23451",
    "latitude": 36.8397971,
    "longitude": -75.9721316,
    "website": "http://www.calypsovb.com/",
    "category": "Bar & Restaurant",
    "types": "bar, restaurant, food, point_of_interest, establishment"
  },
  {
    "place_id": "ChIJBQ-y1azruokRgT4Z0j2m7BE",
    "name": "Hackers Bar & Grille",
    "street_address": "1532 Laskin Road",
    "city": "Virginia Beach",
    "state": "VA",
    "zip_code": "23451",
    "latitude": 36.8517816,
    "longitude": -76.0141022,
    "website": "https://hackersathilltop.com/",
    "category": "Bar & Restaurant",
    "types": "bar, restaurant, food, point_of_interest, establishment"
  },
  {
    "place_id": "ChIJEV5DAybquokRUXSZi1Y55i4",
    "name": "South Beach Grill",
    "street_address": "1091 Norfolk Avenue",
    "city": "Virginia Beach",
    "state": "VA",
    "zip_code": "23451",
    "latitude": 36.8376959,
    "longitude": -75.9974798,
    "website": "http://southbeachgrillvb.com/",
    "category": "Bar & Restaurant",
    "types": "bar, restaurant, food, point_of_interest, establishment"
  },
  {
    "place_id": "ChIJXRIZQ2jpuokR6zgybgLoAFA",
    "name": "The Bistro - Eat. Drink. Connect.\u00ae",
    "street_address": "3737 Atlantic Avenue",
    "city": "Virginia Beach",
    "state": "VA",
    "zip_code": "23451",
    "latitude": 36.865736,
    "longitude": -75.9794071,
    "website": "https://www.marriott.com/hotels/hotel-information/restaurant/orfof-courtyard-virginia-beach-oceanfront-north-37th-street/?scid=f2ae0541-1279-4f24-b197-a979c79310b0",
    "category": "Restaurant",
    "types": "restaurant, food, point_of_interest, establishment"
  },
  {
    "place_id": "ChIJ2ziu1WjpuokRbZLTHLMi0iM",
    "name": "Lager Heads",
    "street_address": "3315 Atlantic Avenue",
    "city": "Virginia Beach",
    "state": "VA",
    "zip_code": "23451",
    "latitude": 36.8621642,
    "longitude": -75.97861979999999,
    "website": "https://www.lagerheads.com/?utm_source=google%20my%20business&utm_medium=listing&utm_campaign=visit%20website",
    "category": "Restaurant",
    "types": "restaurant, food, point_of_interest, establishment"
  },
  {
    "place_id": "ChIJ6xhe3XHpuokRsOmn6KIhIh4",
    "name": "H Bar",
    "street_address": "2705 Atlantic Avenue",
    "city": "Virginia Beach",
    "state": "VA",
    "zip_code": "23451",
    "latitude": 36.8558949,
    "longitude": -75.9767882,
    "website": null,
    "category": "Bar & Restaurant",
    "types": "bar, restaurant, food, point_of_interest, establishment"
  },
  {
    "place_id": "ChIJYdnUTdPpuokReq5eksDzGT8",
    "name": "Atlantic Point Pizza House",
    "street_address": "2314 Atlantic Avenue",
    "city": "Virginia Beach",
    "state": "VA",
    "zip_code": "23451",
    "latitude": 36.8519217,
    "longitude": -75.97630389999999,
    "website": "http://www.atlantic-point.com/",
    "category": "Restaurant",
    "types": "restaurant, food, point_of_interest, establishment"
  },
  {
    "place_id": "ChIJCW6aa2XpuokRCIUQe7F9d_8",
    "name": "Nicks Bar & Grill",
    "street_address": "508 Laskin Road",
    "city": "Virginia Beach",
    "state": "VA",
    "zip_code": "23451",
    "latitude": 36.8588145,
    "longitude": -75.9824034,
    "website": "https://www.facebook.com/nicksvb1952",
    "category": "Bar & Restaurant",
    "types": "bar, restaurant, food, point_of_interest, establishment"
  },
  {
    "place_id": "ChIJ1YDfTEvquokR43f2hTi5QII",
    "name": "No Frill Bar And Grill",
    "street_address": "1620 Laskin Road",
    "city": "Virginia Beach",
    "state": "VA",
    "zip_code": "23451",
    "latitude": 36.8518682,
    "longitude": -76.0191363,
    "website": "http://www.nofrillgrill.com/",
    "category": "Bar & Restaurant",
    "types": "bar, restaurant, food, point_of_interest, establishment"
  },
  {
    "place_id": "ChIJYd92d37puokR6z_PBtmxQ9c",
    "name": "Love Song",
    "street_address": "327 Laskin Road",
    "city": "Virginia Beach",
    "state": "VA",
    "zip_code": "23451",
    "latitude": 36.8586358,
    "longitude": -75.98050049999999,
    "website": "https://www.lovesongva.com/",
    "category": "Bar & Restaurant",
    "types": "restaurant, bar, food, point_of_interest, establishment"
  },
  {
    "place_id": "ChIJqbPUGZ3puokRvE-n6L9CUxI",
    "name": "Esoteric",
    "street_address": "501 Virginia Beach Boulevard",
    "city": "Virginia Beach",
    "state": "VA",
    "zip_code": "23451",
    "latitude": 36.8442638,
    "longitude": -75.9795295,
    "website": "https://esotericvb.com/",
    "category": "Restaurant",
    "types": "restaurant, food, point_of_interest, establishment"
  },
  {
    "place_id": "ChIJm-4rFnHpuokRKP0BlzFIV_o",
    "name": "CP Shuckers Cafe & Raw Bar",
    "street_address": "2407 Pacific Avenue",
    "city": "Virginia Beach",
    "state": "VA",
    "zip_code": "23451",
    "latitude": 36.8525649,
    "longitude": -75.977279,
    "website": "http://www.cpshuckers.com/",
    "category": "Restaurant",
    "types": "restaurant, food, point_of_interest, establishment"
  },
  {
    "place_id": "ChIJoxzkxZrpuokRwbSomBF_RH8",
    "name": "Icehouse Restaurant",
    "street_address": "604 Norfolk Avenue",
    "city": "Virginia Beach",
    "state": "VA",
    "zip_code": "23451",
    "latitude": 36.83755349999999,
    "longitude": -75.98040309999999,
    "website": "http://www.icehousevb.com/",
    "category": "Restaurant",
    "types": "restaurant, food, point_of_interest, establishment"
  },
  {
    "place_id": "ChIJhb2w0GjpuokRY1tuFr7Tz58",
    "name": "Tortugas Caf\u00e9 & Tiki Bar",
    "street_address": "3401 Atlantic Avenue",
    "city": "Virginia Beach",
    "state": "VA",
    "zip_code": "23451",
    "latitude": 36.8624265,
    "longitude": -75.9784425,
    "website": "https://www.tortugastikibar.com/",
    "category": "Bar & Restaurant",
    "types": "bar, restaurant, point_of_interest, food, establishment"
  },
  {
    "place_id": "ChIJRzgEN3HpuokRsNZr_V_ra-E",
    "name": "Harpoon Larry's Oyster Bar",
    "street_address": "216 24th Street",
    "city": "Virginia Beach",
    "state": "VA",
    "zip_code": "23451",
    "latitude": 36.8517139,
    "longitude": -75.9770229,
    "website": "http://www.harpoonlarryskillerseafood.com/",
    "category": "Bar & Restaurant",
    "types": "bar, restaurant, food, point_of_interest, establishment"
  },
  {
    "place_id": "ChIJCewAclTquokRMQNuDgn2XGY",
    "name": "Kelly's Tavern",
    "street_address": "1936 Laskin Road",
    "city": "Virginia Beach",
    "state": "VA",
    "zip_code": "23454",
    "latitude": 36.84910229999999,
    "longitude": -76.0341407,
    "website": "http://www.kellystavern.com/",
    "category": "Bar & Restaurant",
    "types": "bar, restaurant, point_of_interest, food, establishment"
  },
  {
    "place_id": "ChIJHSTvX5LquokRkjQRhnUKkiA",
    "name": "Judys Pub & Eatery",
    "street_address": "315 North Great Neck Road",
    "city": "Virginia Beach",
    "state": "VA",
    "zip_code": "23454",
    "latitude": 36.84393960000001,
    "longitude": -76.0491061,
    "website": null,
    "category": "Bar & Restaurant",
    "types": "bar, restaurant, food, point_of_interest, establishment"
  },
  {
    "place_id": "ChIJ6-nvZVTruokRRKPoo4YRU7E",
    "name": "OLD BEACH TAVERN",
    "street_address": "3020 Virginia Beach Boulevard",
    "city": "Virginia Beach",
    "state": "VA",
    "zip_code": "23452",
    "latitude": 36.84383719999999,
    "longitude": -76.07745609999999,
    "website": "https://www.facebook.com/OldBeachTavern/",
    "category": "Bar & Restaurant",
    "types": "bar, restaurant, food, point_of_interest, establishment"
  },
  {
    "place_id": "ChIJ07_C3rnruokR3X8XxqxCLBg",
    "name": "Union Alehouse",
    "street_address": "2224 Virginia Beach Boulevard",
    "city": "Virginia Beach",
    "state": "VA",
    "zip_code": "23454",
    "latitude": 36.84247199999999,
    "longitude": -76.0463439,
    "website": "http://www.unionalehouseva.com/",
    "category": "Restaurant",
    "types": "restaurant, food, point_of_interest, establishment"
  },
  {
    "place_id": "ChIJd2syCenquokR4Lvxb7tUulU",
    "name": "Just One More Bar and Grill",
    "street_address": "2548 Virginia Beach Boulevard",
    "city": "Virginia Beach",
    "state": "VA",
    "zip_code": "23452",
    "latitude": 36.84170779999999,
    "longitude": -76.0590407,
    "website": null,
    "category": "Bar & Restaurant",
    "types": "bar, restaurant, food, point_of_interest, establishment"
  },
  {
    "place_id": "ChIJE17Suu_quokRU8xCtDdC2VE",
    "name": "Scotty Quixx West",
    "street_address": "2404 Virginia Beach Boulevard",
    "city": "Virginia Beach",
    "state": "VA",
    "zip_code": "23454",
    "latitude": 36.842438,
    "longitude": -76.053103,
    "website": null,
    "category": "Bar & Restaurant",
    "types": "bar, restaurant, food, point_of_interest, establishment"
  },
  {
    "place_id": "ChIJtyBVREPruokRBgyj3T6RGPA",
    "name": "Cooper's Hawk Winery & Restaurant- Virginia Beach, VA",
    "street_address": "733 Lynnhaven Mall Loop",
    "city": "Virginia Beach",
    "state": "VA",
    "zip_code": "23452",
    "latitude": 36.8166916,
    "longitude": -76.0687848,
    "website": "https://chwinery.com/locations/virginia/virginia-beach",
    "category": "Bar & Restaurant",
    "types": "bar, restaurant, food, point_of_interest, establishment"
  },
  {
    "place_id": "ChIJ42WaG6fquokRZd2yBFhJJL4",
    "name": "Maggie McFly's | Virginia Beach",
    "street_address": "701 Lynnhaven Parkway",
    "city": "Virginia Beach",
    "state": "VA",
    "zip_code": "23452",
    "latitude": 36.8171008,
    "longitude": -76.070152,
    "website": "https://maggiemcflys.com/",
    "category": "Bar & Restaurant",
    "types": "bar, restaurant, food, point_of_interest, establishment"
  },
  {
    "place_id": "ChIJ91MKjG--uokR3zcv8iD7oxM",
    "name": "Mel's Place",
    "street_address": "5020 Ferrell Parkway",
    "city": "Virginia Beach",
    "state": "VA",
    "zip_code": "23464",
    "latitude": 36.7947101,
    "longitude": -76.1644051,
    "website": "https://www.facebook.com/kempsville98/",
    "category": "Bar & Restaurant",
    "types": "bar, restaurant, food, point_of_interest, establishment"
  },
  {
    "place_id": "ChIJwUpiEJ-VuokRfrxSdst2KNw",
    "name": "Yard House",
    "street_address": "4549 Commerce Street",
    "city": "Virginia Beach",
    "state": "VA",
    "zip_code": "23462",
    "latitude": 36.8416187,
    "longitude": -76.1364528,
    "website": "https://www.yardhouse.com/locations/va/virginia-beach/virginia-beach-town-center/8334?cmpid=br:yh_ag:ie_ch:loc_ca:YHGMB_sn:gmb_gt:virginia-beach-va-8334_pl:locurl_rd:1032",
    "category": "Bar & Restaurant",
    "types": "bar, meal_takeaway, restaurant, food, point_of_interest, establishment"
  },
  {
    "place_id": "ChIJU931gp-VuokROeARx_vPmCw",
    "name": "Keagan's Irish Pub & Kitchen",
    "street_address": "244 Market Street",
    "city": "Virginia Beach",
    "state": "VA",
    "zip_code": "23462",
    "latitude": 36.8429175,
    "longitude": -76.1344867,
    "website": "http://www.keagansvb.com/",
    "category": "Bar & Restaurant",
    "types": "bar, restaurant, food, point_of_interest, establishment"
  },
  {
    "place_id": "ChIJF6z6n3a-uokRN6E68NO6c1Y",
    "name": "Park Lane Tavern of VB Kempsville",
    "street_address": "1250 Fordham Drive",
    "city": "Virginia Beach",
    "state": "VA",
    "zip_code": "23464",
    "latitude": 36.800725,
    "longitude": -76.1740917,
    "website": "http://www.parklanetavern.com/",
    "category": "Bar & Restaurant",
    "types": "bar, restaurant, food, point_of_interest, establishment"
  },
  {
    "place_id": "ChIJDRP57zG-uokRyfXnrNi2KGY",
    "name": "Footers Sports Pub",
    "street_address": "4676 Princess Anne Road",
    "city": "Virginia Beach",
    "state": "VA",
    "zip_code": "23462",
    "latitude": 36.81237379999999,
    "longitude": -76.13928589999999,
    "website": "http://fspvb.com/",
    "category": "Bar & Restaurant",
    "types": "bar, restaurant, food, point_of_interest, establishment"
  },
  {
    "place_id": "ChIJhZ4Ssmu9uokRrXxvWT0t49g",
    "name": "The River Bar & Grill",
    "street_address": "6220 Indian River Road",
    "city": "Virginia Beach",
    "state": "VA",
    "zip_code": "23464",
    "latitude": 36.8143292,
    "longitude": -76.2078616,
    "website": null,
    "category": "Bar & Restaurant",
    "types": "bar, restaurant, food, point_of_interest, establishment"
  },
  {
    "place_id": "ChIJYwJbIVy-uokRgqJ9Vvk-P_8",
    "name": "Krossroads Rock and Country Bar",
    "street_address": "4221 Pleasant Valley Road",
    "city": "Virginia Beach",
    "state": "VA",
    "zip_code": "23464",
    "latitude": 36.7885136,
    "longitude": -76.1516765,
    "website": null,
    "category": "Bar & Restaurant",
    "types": "bar, restaurant, food, point_of_interest, establishment"
  },
  {
    "place_id": "ChIJP6IhqKuVuokR9QtsHfwCTRo",
    "name": "Tangos Tavern",
    "street_address": "4668 Pembroke Boulevard",
    "city": "Virginia Beach",
    "state": "VA",
    "zip_code": "23455",
    "latitude": 36.862278,
    "longitude": -76.135155,
    "website": null,
    "category": "Bar & Restaurant",
    "types": "bar, restaurant, food, point_of_interest, establishment"
  },
  {
    "place_id": "ChIJa4yOXnWVuokRCK1fGIrDiQA",
    "name": "Tupelo Honey Southern Kitchen & Bar",
    "street_address": "4501 Main Street",
    "city": "Virginia Beach",
    "state": "VA",
    "zip_code": "23462",
    "latitude": 36.8419404,
    "longitude": -76.13141159999999,
    "website": "https://tupelohoneycafe.com/restaurant/virginia-beach/",
    "category": "Restaurant",
    "types": "restaurant, food, point_of_interest, establishment"
  },
  {
    "place_id": "ChIJ_SYgPPiVuokRMC0ykhM5cRE",
    "name": "Jax Place",
    "street_address": "5277 Princess Anne Road",
    "city": "Virginia Beach",
    "state": "VA",
    "zip_code": "23462",
    "latitude": 36.8272035,
    "longitude": -76.1670901,
    "website": null,
    "category": "Bar & Restaurant",
    "types": "bar, restaurant, food, point_of_interest, establishment"
  },
  {
    "place_id": "ChIJnYhz4zG-uokRftVW5ZaQLD8",
    "name": "Cheds Bar and Grill",
    "street_address": "4676 Princess Anne Road",
    "city": "Virginia Beach",
    "state": "VA",
    "zip_code": "23462",
    "latitude": 36.812479,
    "longitude": -76.13941129999999,
    "website": "https://www.chedsbarandgrill.com/",
    "category": "Bar & Restaurant",
    "types": "bar, restaurant, food, point_of_interest, establishment"
  },
  {
    "place_id": "ChIJ-2nCxZeVuokRd86dLdFpXoI",
    "name": "The Frog Sports Bar & Grill",
    "street_address": "4848 Virginia Beach Boulevard",
    "city": "Virginia Beach",
    "state": "VA",
    "zip_code": "23462",
    "latitude": 36.84468590000001,
    "longitude": -76.14515999999999,
    "website": "https://www.thefrogsportsbar.com/",
    "category": "Bar & Restaurant",
    "types": "bar, restaurant, food, point_of_interest, establishment"
  },
  {
    "place_id": "ChIJ1yjSfyW-uokRTR-W6HlSqio",
    "name": "Sneeky Pete's",
    "street_address": "4706 Princess Anne Road",
    "city": "Virginia Beach",
    "state": "VA",
    "zip_code": "23462",
    "latitude": 36.8154033,
    "longitude": -76.14358650000001,
    "website": "https://www.facebook.com/sneekypetesbar",
    "category": "Bar & Restaurant",
    "types": "bar, restaurant, food, point_of_interest, establishment"
  },
  {
    "place_id": "ChIJ114y3ySWuokR7PZIHFQAZk0",
    "name": "Haven Inn Bar & Grill",
    "street_address": "160 South Military Highway",
    "city": "Norfolk",
    "state": "VA",
    "zip_code": "23502",
    "latitude": 36.839086,
    "longitude": -76.209732,
    "website": null,
    "category": "Bar & Restaurant",
    "types": "bar, restaurant, food, point_of_interest, establishment"
  },
  {
    "place_id": "ChIJmUgIs56VuokRfQ4jy-j7YtU",
    "name": "Buffalo Wild Wings",
    "street_address": "101 South Independence Boulevard",
    "city": "Virginia Beach",
    "state": "VA",
    "zip_code": "23462",
    "latitude": 36.8395627,
    "longitude": -76.1376576,
    "website": "https://www.buffalowildwings.com/locations/us/va/virginia-beach/101-s-independence-blvd/sports-bar-1527?utm_source=google%20my%20business&utm_medium=organic&utm_campaign=website%20link",
    "category": "Bar & Restaurant",
    "types": "bar, meal_takeaway, restaurant, food, point_of_interest, establishment"
  },
  {
    "place_id": "ChIJH7WoRF2VuokRQvQZ9OVffJM",
    "name": "Quirks Towncenter",
    "street_address": "189 Central Park Avenue",
    "city": "Virginia Beach",
    "state": "VA",
    "zip_code": "23462",
    "latitude": 36.8420026,
    "longitude": -76.1343619,
    "website": "https://quirksvb.com/",
    "category": "Bar & Restaurant",
    "types": "restaurant, bar, food, point_of_interest, establishment"
  },
  {
    "place_id": "ChIJiaPSxgSVuokRenbBCGNYHEo",
    "name": "Three Notch'd Brewery & Craft Kitchen",
    "street_address": "4561 Virginia Beach Boulevard",
    "city": "Virginia Beach",
    "state": "VA",
    "zip_code": "23462",
    "latitude": 36.8432636,
    "longitude": -76.13461629999999,
    "website": "https://threenotchdbrewing.com/pages/vb?utm_source=google&utm_medium=organic&utm_campaign=gmb",
    "category": "Bar & Restaurant",
    "types": "restaurant, bar, point_of_interest, food, establishment"
  },
  {
    "place_id": "ChIJM0cbgWyVuokReoBSPQOxZRc",
    "name": "Starz Restaurant & Lounge",
    "street_address": "4020 Bonney Road",
    "city": "Virginia Beach",
    "state": "VA",
    "zip_code": "23452",
    "latitude": 36.838839,
    "longitude": -76.11510899999999,
    "website": null,
    "category": "Bar & Restaurant",
    "types": "bar, restaurant, food, point_of_interest, establishment"
  },
  {
    "place_id": "ChIJhxOINN6_uokRha4tLz8s844",
    "name": "A J Gators Sports Grille & Bar",
    "street_address": "3908 Holland Road",
    "city": "Virginia Beach",
    "state": "VA",
    "zip_code": "23452",
    "latitude": 36.81676289999999,
    "longitude": -76.1102282,
    "website": "https://www.gatorssportsbar.com/",
    "category": "Bar & Restaurant",
    "types": "bar, restaurant, food, point_of_interest, establishment"
  },
  {
    "place_id": "ChIJp1Fj8laUuokRdA0uD-_9k4o",
    "name": "Kelly's Tavern",
    "street_address": "1049 Independence Boulevard",
    "city": "Virginia Beach",
    "state": "VA",
    "zip_code": "23455",
    "latitude": 36.8715836,
    "longitude": -76.1356722,
    "website": "http://www.kellystavern.com/",
    "category": "Bar & Restaurant",
    "types": "bar, restaurant, point_of_interest, food, establishment"
  },
  {
    "place_id": "ChIJZ4Swo9e_uokRyrjJU4DNx7I",
    "name": "Stooges Bar & Grill",
    "street_address": "4239 Holland Road",
    "city": "Virginia Beach",
    "state": "VA",
    "zip_code": "23462",
    "latitude": 36.8196219,
    "longitude": -76.12324060000002,
    "website": "https://www.facebook.com/pages/Stooges-Bar-Grill/179309885458923",
    "category": "Bar & Restaurant",
    "types": "bar, restaurant, food, point_of_interest, establishment"
  },
  {
    "place_id": "ChIJU4Tb7bm_uokRJovajeG8Kpg",
    "name": "Inland Reef",
    "street_address": "1949 Lynnhaven Parkway",
    "city": "Virginia Beach",
    "state": "VA",
    "zip_code": "23453",
    "latitude": 36.79572299999999,
    "longitude": -76.11879019999999,
    "website": "http://www.inlandreefvb.com/",
    "category": "Bar & Restaurant",
    "types": "bar, restaurant, food, point_of_interest, establishment"
  },
  {
    "place_id": "ChIJN-PKuA--uokRlpd53VZU1tU",
    "name": "AJ Gators Sports Bar",
    "street_address": "5218 Fairfield Shopping Centre",
    "city": "Virginia Beach",
    "state": "VA",
    "zip_code": "23464",
    "latitude": 36.8148618,
    "longitude": -76.166146,
    "website": "http://www.gatorssportsbar.com/",
    "category": "Bar & Restaurant",
    "types": "bar, restaurant, food, point_of_interest, establishment"
  },
  {
    "place_id": "ChIJY1TNB5-VuokRUmGPjc10ing",
    "name": "Twist Martini & Associates",
    "street_address": "4517 Commerce Street",
    "city": "Virginia Beach",
    "state": "VA",
    "zip_code": "23462",
    "latitude": 36.84166669999999,
    "longitude": -76.1352778,
    "website": "http://twistvb.com/",
    "category": "Bar & Restaurant",
    "types": "bar, restaurant, food, point_of_interest, establishment"
  },
  {
    "place_id": "ChIJGbfwFaCVuokRo2DSZjHmD6M",
    "name": "Bahama Breeze",
    "street_address": "4554 Virginia Beach Boulevard",
    "city": "Virginia Beach",
    "state": "VA",
    "zip_code": "23462",
    "latitude": 36.844509,
    "longitude": -76.13342,
    "website": "https://www.bahamabreeze.com/locations/va/virginia-beach/virginia-beach-pembroke-mall/3050?cmpid=br:bb_ag:ie_ch:loc_ca:BBGMB_sn:gmb_gt:virginia-beach-va-3050_pl:locurl_rd:1029",
    "category": "Bar & Restaurant",
    "types": "meal_takeaway, bar, restaurant, food, point_of_interest, establishment"
  },
  {
    "place_id": "ChIJG3LIfJqVuokRaA5smgYotNA",
    "name": "Sloppy Seconds Bar & Grill",
    "street_address": "4356 Holland Road",
    "city": "Virginia Beach",
    "state": "VA",
    "zip_code": "23452",
    "latitude": 36.82217649999999,
    "longitude": -76.123728,
    "website": "http://www.sloppysecondsbarandgrill.com/",
    "category": "Bar & Restaurant",
    "types": "restaurant, bar, food, point_of_interest, establishment"
  },
  {
    "place_id": "ChIJywpRb8O9uokRo9A8S6pPg2c",
    "name": "The Swan Terrace",
    "street_address": "5641 Indian River Road",
    "city": "Virginia Beach",
    "state": "VA",
    "zip_code": "23464",
    "latitude": 36.80309299999999,
    "longitude": -76.19175129999999,
    "website": "http://www.foundersinn.com/",
    "category": "Restaurant",
    "types": "restaurant, lodging, food, point_of_interest, establishment"
  },
  {
    "place_id": "ChIJMaXBsKGVuokRfvcesYioqQc",
    "name": "Smokey Bones Virginia Beach",
    "street_address": "4590 Virginia Beach Boulevard",
    "city": "Virginia Beach",
    "state": "VA",
    "zip_code": "23462",
    "latitude": 36.84397789999999,
    "longitude": -76.13560629999999,
    "website": "https://locations.smokeybones.com/va/virginia-beach/4590-virginia-beach-blvd/",
    "category": "Bar & Restaurant",
    "types": "bar, restaurant, food, point_of_interest, establishment"
  },
  {
    "place_id": "ChIJ_wXEC3WVuokRXO-meAhoAFE",
    "name": "Cantina Laredo",
    "street_address": "4505 Commerce Street",
    "city": "Virginia Beach",
    "state": "VA",
    "zip_code": "23462",
    "latitude": 36.84170779999999,
    "longitude": -76.1342518,
    "website": "http://www.cantinalaredo.com/",
    "category": "Restaurant",
    "types": "restaurant, food, point_of_interest, establishment"
  },
  {
    "place_id": "ChIJpVMvUuvAuokRN-MUKIvRtLE",
    "name": "FIREBREW Bar & Grill",
    "street_address": "1253 Nimmo Parkway",
    "city": "Virginia Beach",
    "state": "VA",
    "zip_code": "23456",
    "latitude": 36.7626745,
    "longitude": -76.0139061,
    "website": "https://www.fire-brew.com/",
    "category": "Restaurant",
    "types": "restaurant, point_of_interest, food, establishment"
  },
  {
    "place_id": "ChIJXWiEnnTAuokRoiVjFIMqoOA",
    "name": "Clubhouse Bar & Grill",
    "street_address": "3208 Holland Road",
    "city": "Virginia Beach",
    "state": "VA",
    "zip_code": "23453",
    "latitude": 36.7927715,
    "longitude": -76.0793412,
    "website": null,
    "category": "Bar & Restaurant",
    "types": "bar, restaurant, food, point_of_interest, establishment"
  },
  {
    "place_id": "ChIJuYZb1PLBuokRZf_ei9tfffM",
    "name": "615 Bar and Grill",
    "street_address": "1615 General Booth Boulevard",
    "city": "Virginia Beach",
    "state": "VA",
    "zip_code": "23454",
    "latitude": 36.78575530000001,
    "longitude": -76.0017195,
    "website": null,
    "category": "Bar & Restaurant",
    "types": "bar, restaurant, food, point_of_interest, establishment"
  },
  {
    "place_id": "ChIJAQDwWsrGuokRuazjfA35Jes",
    "name": "Pungo Sports Bar & Grill",
    "street_address": "1776 Princess Anne Road",
    "city": "Virginia Beach",
    "state": "VA",
    "zip_code": "23456",
    "latitude": 36.7209124,
    "longitude": -76.0181775,
    "website": "https://www.facebook.com/profile.php?id=100057141564674",
    "category": "Bar & Restaurant",
    "types": "bar, restaurant, food, point_of_interest, establishment"
  },
  {
    "place_id": "ChIJAYuIm4zBuokRrk0vs6iDq8Q",
    "name": "Warriors Taphouse",
    "street_address": "1630 General Booth Boulevard",
    "city": "Virginia Beach",
    "state": "VA",
    "zip_code": "23454",
    "latitude": 36.7831329,
    "longitude": -75.9987778,
    "website": "http://warriorstaphouse.com/",
    "category": "Bar & Restaurant",
    "types": "restaurant, bar, food, point_of_interest, establishment"
  },
  {
    "place_id": "ChIJcziO4J_BuokRORXG5HFXNj8",
    "name": "Whiskey Kitchen",
    "street_address": "2149 General Booth Boulevard",
    "city": "Virginia Beach",
    "state": "VA",
    "zip_code": "23454",
    "latitude": 36.76617279999999,
    "longitude": -76.0145891,
    "website": "http://www.thewhiskeykitchen.com/",
    "category": "Bar & Restaurant",
    "types": "restaurant, bar, food, point_of_interest, establishment"
  },
  {
    "place_id": "ChIJi8QupE_AuokR4CZfFi7r4M4",
    "name": "Ready Room",
    "street_address": "1805 London Bridge Road",
    "city": "Virginia Beach",
    "state": "VA",
    "zip_code": "23453",
    "latitude": 36.78295039999999,
    "longitude": -76.0488586,
    "website": null,
    "category": "Bar & Restaurant",
    "types": "bar, restaurant, food, point_of_interest, establishment"
  },
  {
    "place_id": "ChIJh25ben-_uokR-x5SFI-ejIc",
    "name": "LongHorn Steakhouse",
    "street_address": "3400 Princess Anne Road",
    "city": "Virginia Beach",
    "state": "VA",
    "zip_code": "23456",
    "latitude": 36.775429,
    "longitude": -76.08958899999999,
    "website": "https://www.longhornsteakhouse.com/locations/va/virginia-beach/virginia-beach/5335?cmpid=br:lh_ag:ie_ch:loc_ca:LHGMB_sn:gmb_gt:virginia-beach-va-5335_pl:locurl_rd:1281",
    "category": "Bar & Restaurant",
    "types": "bar, meal_takeaway, restaurant, food, point_of_interest, establishment"
  },
  {
    "place_id": "ChIJS_o-_5_BuokRh5_wOtXAhAY",
    "name": "Civil Libation Bistro",
    "street_address": "2135 General Booth Boulevard",
    "city": "Virginia Beach",
    "state": "VA",
    "zip_code": "23454",
    "latitude": 36.76648550000001,
    "longitude": -76.0155774,
    "website": "http://www.civillibation.com/",
    "category": "Restaurant",
    "types": "restaurant, food, point_of_interest, establishment"
  },
  {
    "place_id": "ChIJO590xZ_BuokRNHP_qEgW1rQ",
    "name": "Kelly's Tavern",
    "street_address": "2131 General Booth Boulevard",
    "city": "Virginia Beach",
    "state": "VA",
    "zip_code": "23454",
    "latitude": 36.766761,
    "longitude": -76.015906,
    "website": "http://www.kellystavern.com/",
    "category": "Bar & Restaurant",
    "types": "bar, restaurant, food, point_of_interest, establishment"
  },
  {
    "place_id": "ChIJmV4Bwm7BuokR8ye9SdbKYD8",
    "name": "AJ Gators Sports Bar & Grill",
    "street_address": "1993 Sandbridge Road",
    "city": "Virginia Beach",
    "state": "VA",
    "zip_code": "23456",
    "latitude": 36.7502448,
    "longitude": -76.00864709999999,
    "website": "http://www.gatorssportsbar.com/",
    "category": "Bar & Restaurant",
    "types": "bar, restaurant, food, point_of_interest, establishment"
  },
  {
    "place_id": "ChIJMx3EnX-_uokR8BqtRvnLlCw",
    "name": "The Casual Pint of Virginia Beach",
    "street_address": "3380 Princess Anne Road",
    "city": "Virginia Beach",
    "state": "VA",
    "zip_code": "23456",
    "latitude": 36.7757656,
    "longitude": -76.0888284,
    "website": "https://virginiabeach.thecasualpint.com/",
    "category": "Bar & Restaurant",
    "types": "bar, restaurant, point_of_interest, food, establishment"
  },
  {
    "place_id": "ChIJfTp4D3HBuokRIZx-BQlOcQE",
    "name": "Prime 54 Chophouse & Lounge",
    "street_address": "2181 Upton Drive",
    "city": "Virginia Beach",
    "state": "VA",
    "zip_code": "23454",
    "latitude": 36.7572744,
    "longitude": -76.0081309,
    "website": "http://primerestaurants.net/",
    "category": "Bar & Restaurant",
    "types": "restaurant, bar, food, point_of_interest, establishment"
  },
  {
    "place_id": "ChIJo6o-08_BuokRobJZMGX9n18",
    "name": "Heirloom",
    "street_address": "2484 North Landing Road",
    "city": "Virginia Beach",
    "state": "VA",
    "zip_code": "23456",
    "latitude": 36.7493526,
    "longitude": -76.0582743,
    "website": "http://www.heirloomvb.com/",
    "category": "Restaurant",
    "types": "restaurant, food, point_of_interest, establishment"
  },
  {
    "place_id": "ChIJwS8aYCHBuokR58JUE02nWPU",
    "name": "Pups and Pints",
    "street_address": "2413 London Bridge Road",
    "city": "Virginia Beach",
    "state": "VA",
    "zip_code": "23456",
    "latitude": 36.771004,
    "longitude": -76.0218284,
    "website": "https://pupsandpints.dog/",
    "category": "Bar & Restaurant",
    "types": "restaurant, park, bar, food, point_of_interest, establishment"
  },
  {
    "place_id": "ChIJr1OrRGnBuokR2D0qxSBRrZ8",
    "name": "Sage Kitchen",
    "street_address": "1925 Fisher Arch",
    "city": "Virginia Beach",
    "state": "VA",
    "zip_code": "23456",
    "latitude": 36.747713,
    "longitude": -76.00595,
    "website": "http://www.lovesagekitchen.com/",
    "category": "Restaurant",
    "types": "restaurant, food, point_of_interest, establishment"
  },
  {
    "place_id": "ChIJtU3Rz3-_uokRfg-V2a5depI",
    "name": "Buffalo Wild Wings",
    "street_address": "3300 Princess Anne Road",
    "city": "Virginia Beach",
    "state": "VA",
    "zip_code": "23456",
    "latitude": 36.7732712,
    "longitude": -76.0863153,
    "website": "https://www.buffalowildwings.com/locations/us/va/virginia-beach/3300-princess-anne-rd/sports-bar-148?utm_source=google%20my%20business&utm_medium=organic&utm_campaign=website%20link",
    "category": "Bar & Restaurant",
    "types": "meal_takeaway, bar, restaurant, food, point_of_interest, establishment"
  },
  {
    "place_id": "ChIJ2a4QZPPBuokREG6g1aI4dt8",
    "name": "Lendy's Cafe",
    "street_address": "1581 General Booth Boulevard",
    "city": "Virginia Beach",
    "state": "VA",
    "zip_code": "23454",
    "latitude": 36.7873698,
    "longitude": -76.0010854,
    "website": "http://lendysvabeach.com/",
    "category": "Bar & Restaurant",
    "types": "restaurant, bar, food, point_of_interest, establishment"
  },
  {
    "place_id": "ChIJA1oP-UqVuokRN2W548r08Wo",
    "name": "Blarney Stone Pub Virginia Beach, VA",
    "street_address": "172 South Plaza Trail",
    "city": "Virginia Beach",
    "state": "VA",
    "zip_code": "23452",
    "latitude": 36.8358814,
    "longitude": -76.088169,
    "website": "http://www.blarneystonepub.yahoosites.com/",
    "category": "Bar & Restaurant",
    "types": "bar, restaurant, food, point_of_interest, establishment"
  },
  {
    "place_id": "ChIJvWH3cX2VuokR8IAjv5-ydhQ",
    "name": "Tiki's Bar and Grill",
    "street_address": "4312 Holland Road",
    "city": "Virginia Beach",
    "state": "VA",
    "zip_code": "23452",
    "latitude": 36.82198200000001,
    "longitude": -76.12306749999999,
    "website": "http://tikisvb.com/",
    "category": "Bar & Restaurant",
    "types": "restaurant, bar, food, point_of_interest, establishment"
  },
  {
    "place_id": "ChIJQ-k1KLvsuokRu-giY3ZWFsg",
    "name": "Lynnhaven Pub",
    "street_address": "2236 West Great Neck Road",
    "city": "Virginia Beach",
    "state": "VA",
    "zip_code": "23451",
    "latitude": 36.9093857,
    "longitude": -76.0703659,
    "website": null,
    "category": "Bar & Restaurant",
    "types": "bar, restaurant, food, point_of_interest, establishment"
  },
  {
    "place_id": "ChIJA8x5IK3suokRpRdVNKETdF8",
    "name": "CP Shuckers Cafe & Raw Bar",
    "street_address": "3232 Shore Drive",
    "city": "Virginia Beach",
    "state": "VA",
    "zip_code": "23451",
    "latitude": 36.9088692,
    "longitude": -76.0842784,
    "website": "http://shoredrive.cpshuckers.com/",
    "category": "Bar & Restaurant",
    "types": "bar, restaurant, food, point_of_interest, establishment"
  },
  {
    "place_id": "ChIJnZArf6TsuokR2HAlJ25hu5k",
    "name": "Ballyhoos",
    "street_address": "2865 Lynnhaven Drive",
    "city": "Virginia Beach",
    "state": "VA",
    "zip_code": "23451",
    "latitude": 36.906199,
    "longitude": -76.0680677,
    "website": "http://ballyhoosva.com/",
    "category": "Bar & Restaurant",
    "types": "restaurant, bar, point_of_interest, food, establishment"
  },
  {
    "place_id": "ChIJacW9agjDuokRrunkr37_Lu4",
    "name": "Sandbridge Island Restaurant",
    "street_address": "205 Sandbridge Road",
    "city": "Virginia Beach",
    "state": "VA",
    "zip_code": "23456",
    "latitude": 36.74586710000001,
    "longitude": -75.9444779,
    "website": "https://www.sandbridgeislandrestaurant.com/",
    "category": "Bar & Restaurant",
    "types": "meal_delivery, bar, meal_takeaway, restaurant, food, point_of_interest, establishment"
  },
  {
    "place_id": "ChIJJyXPxqmWuokRjafAxXBxeag",
    "name": "Poppa's Pub & Restaurant",
    "street_address": "2105 Diamond Springs Road",
    "city": "Virginia Beach",
    "state": "VA",
    "zip_code": "23455",
    "latitude": 36.9049657,
    "longitude": -76.1795943,
    "website": "http://www.poppaspub.com/",
    "category": "Bar & Restaurant",
    "types": "bar, restaurant, point_of_interest, food, establishment"
  },
  {
    "place_id": "ChIJJ8x7e5uWuokRgf49RjUbXTE",
    "name": "Champs Sports Bar & Grill",
    "street_address": "5760 Northampton Boulevard",
    "city": "Virginia Beach",
    "state": "VA",
    "zip_code": "23455",
    "latitude": 36.8835443,
    "longitude": -76.1842607,
    "website": "http://champssportsbarandgrill.com/",
    "category": "Bar & Restaurant",
    "types": "bar, restaurant, food, point_of_interest, establishment"
  },
  {
    "place_id": "ChIJp5wtVnuUuokRbtUiytQM45g",
    "name": "New River Taphouse",
    "street_address": "1716 Pleasure House Road",
    "city": "Virginia Beach",
    "state": "VA",
    "zip_code": "23455",
    "latitude": 36.8973532,
    "longitude": -76.1379456,
    "website": "http://www.newrivertaphouse.com/",
    "category": "Restaurant",
    "types": "restaurant, food, point_of_interest, establishment"
  },
  {
    "place_id": "ChIJHdGmZ3uUuokR_-LQobf5XJ4",
    "name": "The Comfy Belly",
    "street_address": "1801 Pleasure House Road",
    "city": "Virginia Beach",
    "state": "VA",
    "zip_code": "23455",
    "latitude": 36.89852839999999,
    "longitude": -76.1381316,
    "website": null,
    "category": "Bar & Restaurant",
    "types": "restaurant, bar, food, point_of_interest, establishment"
  },
  {
    "place_id": "ChIJn4EPDIKTuokRaFoNN13qkwg",
    "name": "Bayside Inn Restaurant & Lounge is now GOOD MUGS Bar & Grill",
    "street_address": "2104 Pleasure House Road",
    "city": "Virginia Beach",
    "state": "VA",
    "zip_code": "23455",
    "latitude": 36.9033162,
    "longitude": -76.1356223,
    "website": "http://www.facebook.com/baysideinnvb",
    "category": "Bar & Restaurant",
    "types": "bar, restaurant, food, point_of_interest, establishment"
  },
  {
    "place_id": "ChIJBV3KBKiWuokRaykD3saf4a4",
    "name": "J. I. Sports Pub",
    "street_address": "1948 Diamond Springs Road",
    "city": "Virginia Beach",
    "state": "VA",
    "zip_code": "23455",
    "latitude": 36.9019963,
    "longitude": -76.17860209999999,
    "website": null,
    "category": "Bar & Restaurant",
    "types": "bar, restaurant, food, point_of_interest, establishment"
  },
  {
    "place_id": "ChIJUwANJlqTuokRlDMeBZvM92M",
    "name": "Froggie\u2019s",
    "street_address": "3656 Shore Drive",
    "city": "Virginia Beach",
    "state": "VA",
    "zip_code": "23455",
    "latitude": 36.9083669,
    "longitude": -76.0991506,
    "website": "http://www.froggiesvb.com/",
    "category": "Bar & Restaurant",
    "types": "bar, restaurant, point_of_interest, food, establishment"
  },
  {
    "place_id": "ChIJ_zDEZwGVuokROjE6zHQaKrM",
    "name": "Good Mugs Bar and Grill",
    "street_address": "2104 Pleasure House Road",
    "city": "Virginia Beach",
    "state": "VA",
    "zip_code": "23455",
    "latitude": 36.9035211,
    "longitude": -76.1354095,
    "website": "https://www.goodmugsbarandgrill.com/",
    "category": "Restaurant",
    "types": "restaurant, food, point_of_interest, establishment"
  },
  {
    "place_id": "ChIJ-7kDj1mTuokRJ-Mwtucg6Rs",
    "name": "Bucketheads Beach Grill",
    "street_address": "3657 Shore Drive",
    "city": "Virginia Beach",
    "state": "VA",
    "zip_code": "23455",
    "latitude": 36.9075827,
    "longitude": -76.099248,
    "website": "http://bucketheadsbeachgrillva.com/",
    "category": "Bar & Restaurant",
    "types": "night_club, bar, restaurant, food, point_of_interest, establishment"
  },
  {
    "place_id": "ChIJKWX77TyXuokRNx_G1SRuWvE",
    "name": "80/20 Eatery",
    "street_address": "5725 Northampton Boulevard",
    "city": "Virginia Beach",
    "state": "VA",
    "zip_code": "23455",
    "latitude": 36.8838798,
    "longitude": -76.1804184,
    "website": "http://8020eatery.com/",
    "category": "Bar & Restaurant",
    "types": "restaurant, bar, food, point_of_interest, establishment"
  },
  {
    "place_id": "ChIJEaT65GSUuokROlOK-ZUW3mc",
    "name": "1608 Crafthouse",
    "street_address": "1608 Pleasure House Road",
    "city": "Virginia Beach",
    "state": "VA",
    "zip_code": "23455",
    "latitude": 36.8955107,
    "longitude": -76.1401471,
    "website": "http://1608crafthouse.com/",
    "category": "Bar & Restaurant",
    "types": "bar, restaurant, food, point_of_interest, establishment"
  },
  {
    "place_id": "ChIJMfsGTfqTuokRbAqDvWj9rBU",
    "name": "Pub 19 at Eagle Haven Golf Course",
    "street_address": "1500 Hewitt Drive",
    "city": "Virginia Beach",
    "state": "VA",
    "zip_code": "23460",
    "latitude": 36.92163859999999,
    "longitude": -76.156962,
    "website": "https://www.navymwrjblittlecreekfortstory.com/",
    "category": "Restaurant",
    "types": "restaurant, food, point_of_interest, establishment"
  },
  {
    "place_id": "ChIJP651FnqTuokRsvmLB7gLMcY",
    "name": "Green Parrot Grille",
    "street_address": "4494 Lookout Road",
    "city": "Virginia Beach",
    "state": "VA",
    "zip_code": "23455",
    "latitude": 36.9150948,
    "longitude": -76.125171,
    "website": "https://www.thegreenparrotgrille.com/",
    "category": "Bar & Restaurant",
    "types": "bar, restaurant, food, point_of_interest, establishment"
  },
  {
    "place_id": "ChIJY1CySZuWuokRyweUgxYGbSs",
    "name": "Aberdeen Barn Steakhouse",
    "street_address": "5805 Northampton Boulevard",
    "city": "Virginia Beach",
    "state": "VA",
    "zip_code": "23455",
    "latitude": 36.8815533,
    "longitude": -76.1850209,
    "website": "http://aberdeenbarn.net/",
    "category": "Restaurant",
    "types": "restaurant, point_of_interest, food, establishment"
  },
  {
    "place_id": "ChIJl5ubvPntuokRF6LHV1lQLos",
    "name": "Central Shore",
    "street_address": "2301 Red Tide Road",
    "city": "Virginia Beach",
    "state": "VA",
    "zip_code": "23451",
    "latitude": 36.911247,
    "longitude": -76.0743394,
    "website": "http://centralshoredrive.com/",
    "category": "Restaurant",
    "types": "restaurant, food, point_of_interest, establishment"
  },
  {
    "place_id": "ChIJfZzC3a_suokRjQKcuWUAbj4",
    "name": "Bayside Bar & Grill",
    "street_address": "2973 Shore Drive",
    "city": "Virginia Beach",
    "state": "VA",
    "zip_code": "23451",
    "latitude": 36.9097222,
    "longitude": -76.0752778,
    "website": "https://m.facebook.com/baysidebarvb/",
    "category": "Bar & Restaurant",
    "types": "bar, restaurant, food, point_of_interest, establishment"
  },
  {
    "place_id": "ChIJD0zyZrzsuokRoiUluL9L3jM",
    "name": "Hot Tuna",
    "street_address": "2817 Shore Drive",
    "city": "Virginia Beach",
    "state": "VA",
    "zip_code": "23451",
    "latitude": 36.9118097,
    "longitude": -76.0675789,
    "website": "http://www.hottunavb.com/",
    "category": "Restaurant",
    "types": "restaurant, food, point_of_interest, establishment"
  },
  {
    "place_id": "ChIJsSawfq3tuokR6HCZt_YRL_c",
    "name": "Craft Burger Bar",
    "street_address": "2947 Shore Drive",
    "city": "Virginia Beach",
    "state": "VA",
    "zip_code": "23451",
    "latitude": 36.91026799999999,
    "longitude": -76.07418679999999,
    "website": "http://www.craftburgerbarvb.com/",
    "category": "Restaurant",
    "types": "restaurant, food, point_of_interest, establishment"
  },
  {
    "place_id": "ChIJIRrus7rsuokRx2GLBnVjgd4",
    "name": "Shorebreak Pizza & Taphouse - Shore Drive",
    "street_address": "2941 Shore Drive",
    "city": "Virginia Beach",
    "state": "VA",
    "zip_code": "23451",
    "latitude": 36.91057999999999,
    "longitude": -76.0728939,
    "website": "http://www.shorebreakvb.com/",
    "category": "Bar & Restaurant",
    "types": "bar, restaurant, food, point_of_interest, establishment"
  },
  {
    "place_id": "ChIJ168U2GHBuokRi42LreO1O54",
    "name": "Shorebreak Pizza & Taphouse - Pungo",
    "street_address": "2750 Trent Place",
    "city": "Virginia Beach",
    "state": "VA",
    "zip_code": "23456",
    "latitude": 36.7407184,
    "longitude": -76.02017409999999,
    "website": "https://www.shorebreakvb.com/",
    "category": "Bar & Restaurant",
    "types": "restaurant, meal_delivery, bar, food, point_of_interest, establishment"
  },
  {
    "place_id": "ChIJGY7Gu8iQuokRf7C692Me3Go",
    "name": "Harbor Inn",
    "street_address": "7924 Chesapeake Boulevard",
    "city": "Norfolk",
    "state": "VA",
    "zip_code": "23518",
    "latitude": 36.9159812,
    "longitude": -76.2409057,
    "website": "http://harbor-inn-norfolk.poi.place/",
    "category": "Bar & Restaurant",
    "types": "bar, restaurant, food, point_of_interest, establishment"
  },
  {
    "place_id": "ChIJpWJWCuGWuokRYVXm2bzP7W8",
    "name": "Murphy's Law Southern Grill",
    "street_address": "3574 North Military Highway",
    "city": "Norfolk",
    "state": "VA",
    "zip_code": "23513",
    "latitude": 36.8925421,
    "longitude": -76.2213301,
    "website": "http://murphys-grill.edan.io/",
    "category": "Bar & Restaurant",
    "types": "bar, restaurant, food, point_of_interest, establishment"
  },
  {
    "place_id": "ChIJtcsf7Y6XuokRjIdnymgndWQ",
    "name": "The Landing Bar and Bistro",
    "street_address": "1500 Military Highway",
    "city": "Norfolk",
    "state": "VA",
    "zip_code": "23502",
    "latitude": 36.8758442,
    "longitude": -76.2095162,
    "website": "https://www.thelandingbarandbistro.com/?utm_source=google&utm_medium=wix_google_business_profile&utm_campaign=604975325716313699",
    "category": "Restaurant",
    "types": "restaurant, food, point_of_interest, establishment"
  },
  {
    "place_id": "ChIJAwBwISCRuokRaEVWpYqO_DU",
    "name": "East Beach Bar & Grill",
    "street_address": "3501 East Ocean View Avenue",
    "city": "Norfolk",
    "state": "VA",
    "zip_code": "23518",
    "latitude": 36.9313437,
    "longitude": -76.1996442,
    "website": null,
    "category": "Bar & Restaurant",
    "types": "bar, restaurant, food, point_of_interest, establishment"
  },
  {
    "place_id": "ChIJXcUQDAKXuokR5aAuPBjqqGk",
    "name": "Ez Inn",
    "street_address": "2727 Azalea Garden Road",
    "city": "Norfolk",
    "state": "VA",
    "zip_code": "23513",
    "latitude": 36.880321,
    "longitude": -76.2264307,
    "website": null,
    "category": "Bar & Restaurant",
    "types": "night_club, bar, restaurant, point_of_interest, food, establishment"
  },
  {
    "place_id": "ChIJb6nrwESRuokRgpveZIQZ7sU",
    "name": "AJ Gator's Sports Bar & Grill",
    "street_address": "9575 Shore Drive",
    "city": "Norfolk",
    "state": "VA",
    "zip_code": "23518",
    "latitude": 36.9282994,
    "longitude": -76.19227529999999,
    "website": "https://www.gatorssportsbar.com/",
    "category": "Bar & Restaurant",
    "types": "bar, restaurant, food, point_of_interest, establishment"
  },
  {
    "place_id": "ChIJB6tTjjOXuokROSPABpAPkJ8",
    "name": "TNT Sports Tavern",
    "street_address": "7930 Chesapeake Boulevard",
    "city": "Norfolk",
    "state": "VA",
    "zip_code": "23518",
    "latitude": 36.9164924,
    "longitude": -76.24137110000001,
    "website": null,
    "category": "Bar & Restaurant",
    "types": "bar, restaurant, food, point_of_interest, establishment"
  },
  {
    "place_id": "ChIJr1JfHH-RuokRSw5WDMLxTcs",
    "name": "Stony\u2019s Dockside Bar and Grill",
    "street_address": "8166 Shore Drive",
    "city": "Norfolk",
    "state": "VA",
    "zip_code": "23518",
    "latitude": 36.92352969999999,
    "longitude": -76.1909151,
    "website": "https://www.stonysdockside.com/",
    "category": "Restaurant",
    "types": "restaurant, food, point_of_interest, establishment"
  },
  {
    "place_id": "ChIJ71EWatOWuokRsEDmD59AARI",
    "name": "Azalea Inn & Time Out Sports Bar",
    "street_address": "2344 East Little Creek Road",
    "city": "Norfolk",
    "state": "VA",
    "zip_code": "23518",
    "latitude": 36.9162571,
    "longitude": -76.21768159999999,
    "website": "https://www.azaleainnrestaurant.com/",
    "category": "Bar & Restaurant",
    "types": "bar, restaurant, food, point_of_interest, establishment"
  },
  {
    "place_id": "ChIJ8Q8FVk6RuokRXnj0FgVGHD8",
    "name": "Captain Groovy's Grill & Raw Bar",
    "street_address": "8101 Shore Drive",
    "city": "Norfolk",
    "state": "VA",
    "zip_code": "23518",
    "latitude": 36.9213906,
    "longitude": -76.19290769999999,
    "website": "http://www.captaingroovys.com/",
    "category": "Bar & Restaurant",
    "types": "bar, restaurant, food, point_of_interest, establishment"
  },
  {
    "place_id": "ChIJ5ZixLEiXuokRNCKk32Jf2AU",
    "name": "Anchor Bar & Lounge Restaurant",
    "street_address": "1570 North Military Highway",
    "city": "Norfolk",
    "state": "VA",
    "zip_code": "23502",
    "latitude": 36.87771559999999,
    "longitude": -76.2100887,
    "website": null,
    "category": "Restaurant",
    "types": "restaurant, food, point_of_interest, establishment"
  },
  {
    "place_id": "ChIJhXMNl1qRuokRMdofI59DSWo",
    "name": "Longboards East Beach Waterfront Dining and Tiki Bar",
    "street_address": "4521 Pretty Lake Avenue",
    "city": "Norfolk",
    "state": "VA",
    "zip_code": "23518",
    "latitude": 36.9245931,
    "longitude": -76.18830539999999,
    "website": "https://www.eatatlongboards.com/",
    "category": "Restaurant",
    "types": "restaurant, food, point_of_interest, establishment"
  },
  {
    "place_id": "ChIJuXcWQkyRuokRIkdtrdOXBwA",
    "name": "The Dirty Buffalo",
    "street_address": "4213 East Little Creek Road",
    "city": "Norfolk",
    "state": "VA",
    "zip_code": "23518",
    "latitude": 36.917638,
    "longitude": -76.19414929999999,
    "website": "https://thedirtybuffalo.com/?utm_source=google&utm_medium=organic&utm_campaign=gmb-listing&utm_content=littlecreek",
    "category": "Bar & Restaurant",
    "types": "meal_delivery, meal_takeaway, bar, restaurant, point_of_interest, food, establishment"
  },
  {
    "place_id": "ChIJR5POrMCWuokR0LFTYlsmfhs",
    "name": "James River Grill",
    "street_address": "2200 Norview Avenue",
    "city": "Norfolk",
    "state": "VA",
    "zip_code": "23518",
    "latitude": 36.8990587,
    "longitude": -76.2020326,
    "website": null,
    "category": "Restaurant",
    "types": "restaurant, food, point_of_interest, establishment"
  },
  {
    "place_id": "ChIJ8b8JhMCWuokRLTWOff__4wo",
    "name": "Back Bay Bistro",
    "street_address": "2200 Norview Avenue",
    "city": "Norfolk",
    "state": "VA",
    "zip_code": "23518",
    "latitude": 36.8967858,
    "longitude": -76.20199769999999,
    "website": null,
    "category": "Restaurant",
    "types": "restaurant, food, point_of_interest, establishment"
  },
  {
    "place_id": "ChIJAVH77eGXuokRB2WQs9nWiPg",
    "name": "YENDIDI NORFOLK",
    "street_address": "5800 Chesapeake Boulevard",
    "city": "Norfolk",
    "state": "VA",
    "zip_code": "23513",
    "latitude": 36.8859147,
    "longitude": -76.2438394,
    "website": "http://www.yendidirestaurants.com/",
    "category": "Restaurant",
    "types": "restaurant, food, point_of_interest, establishment"
  },
  {
    "place_id": "ChIJ5VpnRz3puokRJX5uzoVz8f0",
    "name": "The Dunes Bar and Grill",
    "street_address": "901 Atlantic Avenue",
    "city": "Virginia Beach",
    "state": "VA",
    "zip_code": "23451",
    "latitude": 36.83815130000001,
    "longitude": -75.9718142,
    "website": "https://www.marriott.com/en-us/hotels/orfvo-springhill-suites-virginia-beach-oceanfront/dining",
    "category": "Restaurant",
    "types": "restaurant, food, point_of_interest, establishment"
  },
  {
    "place_id": "ChIJScZvPUPpuokRWChFfED9gIc",
    "name": "Chicho's Pizza 11th Street",
    "street_address": "1011 Atlantic Avenue",
    "city": "Virginia Beach",
    "state": "VA",
    "zip_code": "23451",
    "latitude": 36.8395423,
    "longitude": -75.9721374,
    "website": "https://chichospizza.com/11th-street/",
    "category": "Bar & Restaurant",
    "types": "meal_delivery, bar, meal_takeaway, restaurant, food, point_of_interest, establishment"
  },
  {
    "place_id": "ChIJ2fLj8_PBuokRPV9l1n5pQE0",
    "name": "Angelo's Italian Restaurant",
    "street_address": "1485 General Booth Boulevard",
    "city": "Virginia Beach",
    "state": "VA",
    "zip_code": "23454",
    "latitude": 36.7889839,
    "longitude": -75.99913699999999,
    "website": "https://angelositaliantogo.com/",
    "category": "Restaurant",
    "types": "restaurant, food, point_of_interest, establishment"
  },
  {
    "place_id": "ChIJ03BG8Z7puokREUb8_keTqKc",
    "name": "Oceans 14",
    "street_address": "1401 Atlantic Avenue",
    "city": "Virginia Beach",
    "state": "VA",
    "zip_code": "23451",
    "latitude": 36.84286929999999,
    "longitude": -75.9729619,
    "website": "http://oceanson14.com/",
    "category": "Bar & Restaurant",
    "types": "bar, restaurant, food, point_of_interest, establishment"
  },
  {
    "place_id": "ChIJ9zdMapDBuokRIQs7nsuA0v4",
    "name": "New Realm Brewing Co.",
    "street_address": "1209 Craft Lane",
    "city": "Virginia Beach",
    "state": "VA",
    "zip_code": "23454",
    "latitude": 36.7764695,
    "longitude": -76.00611529999999,
    "website": "https://newrealmbrewing.com/virginia-beach/",
    "category": "Bar & Restaurant",
    "types": "bar, restaurant, food, point_of_interest, establishment"
  },
  {
    "place_id": "ChIJF2mC3pbpuokRA4lEoTjANPA",
    "name": "Big Sam's Inlet Cafe & Raw Bar",
    "street_address": "300 Winston Salem Avenue",
    "city": "Virginia Beach",
    "state": "VA",
    "zip_code": "23451",
    "latitude": 36.8321318,
    "longitude": -75.9741605,
    "website": "http://bigsamsrawbar.com/",
    "category": "Restaurant",
    "types": "restaurant, food, point_of_interest, establishment"
  }
]